xian_to_starlink-1136_Access_AER.csv

"Time (UTCG)","Azimuth (deg)","Elevation (deg)","Range (km)"
14 Sep 2023 17:37:53.053,186.778,0.000,2702.188539
14 Sep 2023 17:38:53.000,181.399,3.273,2364.309991
14 Sep 2023 17:39:53.000,174.220,6.825,2052.095454
14 Sep 2023 17:40:53.000,164.488,10.548,1781.241109
14 Sep 2023 17:41:53.000,151.420,14.008,1574.700305
14 Sep 2023 17:42:53.000,134.992,16.255,1461.100329
14 Sep 2023 17:43:53.000,117.060,16.250,1462.849686
14 Sep 2023 17:44:53.000,100.708,14.003,1579.652952
14 Sep 2023 17:45:53.000,87.746,10.557,1788.792556
14 Sep 2023 17:46:53.000,78.120,6.854,2061.738669
14 Sep 2023 17:47:53.000,71.043,3.318,2375.764781
14 Sep 2023 17:48:53.000,65.761,0.054,2715.666579
14 Sep 2023 17:48:54.025,65.682,0.000,2721.632679
14 Sep 2023 19:16:13.342,235.510,0.000,2708.190370
14 Sep 2023 19:17:13.000,236.599,3.898,2310.599897
14 Sep 2023 19:18:13.000,238.116,8.690,1913.777707
14 Sep 2023 19:19:13.000,240.417,15.004,1524.547427
14 Sep 2023 19:20:13.000,244.449,24.239,1152.894256
14 Sep 2023 19:21:13.000,253.609,39.478,825.302465
14 Sep 2023 19:22:13.000,288.967,62.518,618.505296
14 Sep 2023 19:23:13.000,11.504,55.807,659.147323
14 Sep 2023 19:24:13.000,33.638,34.211,914.628216
14 Sep 2023 19:25:13.000,40.588,21.219,1259.760214
14 Sep 2023 19:26:13.000,43.975,13.077,1637.887249
14 Sep 2023 19:27:13.000,46.031,7.317,2029.546534
14 Sep 2023 19:28:13.000,47.453,2.837,2426.988085
14 Sep 2023 19:28:57.806,48.279,0.000,2725.264733
14 Sep 2023 20:57:06.901,277.064,0.000,2717.637983
14 Sep 2023 20:58:06.000,282.264,3.226,2383.263582
14 Sep 2023 20:59:06.000,289.206,6.810,2066.454067
14 Sep 2023 21:00:06.000,298.570,10.651,1786.079340
14 Sep 2023 21:01:06.000,311.241,14.410,1563.158804
14 Sep 2023 21:02:06.000,327.601,17.195,1425.857599
14 Sep 2023 21:03:06.000,346.225,17.781,1400.094434
14 Sep 2023 21:04:06.000,3.882,15.838,1491.680132
14 Sep 2023 21:05:06.000,18.179,12.374,1681.176598
14 Sep 2023 21:06:06.000,28.880,8.517,1939.444061
14 Sep 2023 21:07:06.000,36.781,4.818,2241.991241
14 Sep 2023 21:08:06.000,42.721,1.424,2572.250173
14 Sep 2023 21:08:32.891,44.918,0.000,2726.321659
14 Sep 2023 22:38:32.838,306.542,0.000,2724.118966
14 Sep 2023 22:39:32.000,312.834,2.863,2424.466839
14 Sep 2023 22:40:32.000,320.907,5.839,2152.038364
14 Sep 2023 22:41:32.000,331.137,8.698,1925.976719
14 Sep 2023 22:42:32.000,343.761,11.034,1765.209033
14 Sep 2023 22:43:32.000,358.328,12.253,1689.174685
14 Sep 2023 22:44:32.000,13.421,11.920,1709.524440
14 Sep 2023 22:45:32.000,27.298,10.163,1822.970007
14 Sep 2023 22:46:32.000,38.928,7.544,2013.465225
14 Sep 2023 22:47:32.000,48.207,4.601,2261.009653
14 Sep 2023 22:48:32.000,55.512,1.642,2548.244428
14 Sep 2023 22:49:06.217,58.973,0.000,2724.717731
15 Sep 2023 00:18:45.831,315.570,0.000,2726.178519
15 Sep 2023 00:19:45.000,320.031,3.394,2374.221262
15 Sep 2023 00:20:45.000,326.072,7.284,2034.186813
15 Sep 2023 00:21:45.000,334.488,11.700,1722.932980
15 Sep 2023 00:22:45.000,346.567,16.491,1460.637008
15 Sep 2023 00:23:45.000,3.646,20.757,1279.176818
15 Sep 2023 00:24:45.000,25.065,22.499,1216.213124
15 Sep 2023 00:25:45.000,46.262,20.457,1289.557435
15 Sep 2023 00:26:45.000,62.918,16.067,1478.907992
15 Sep 2023 00:27:45.000,74.639,11.271,1746.423409
15 Sep 2023 00:28:45.000,82.804,6.884,2061.139281
15 Sep 2023 00:29:45.000,88.669,3.023,2403.665745
15 Sep 2023 00:30:37.731,92.581,0.000,2718.526830
15 Sep 2023 01:58:18.308,308.879,0.000,2725.715022
15 Sep 2023 01:59:18.000,308.581,3.891,2326.127753
15 Sep 2023 02:00:18.000,308.064,8.674,1926.777117
15 Sep 2023 02:01:18.000,307.144,14.991,1533.766899
15 Sep 2023 02:02:18.000,305.330,24.312,1155.982249
15 Sep 2023 02:03:18.000,300.776,40.219,817.418610
15 Sep 2023 02:04:18.000,277.065,68.790,592.304582
15 Sep 2023 02:05:18.000,157.698,62.127,620.967776
15 Sep 2023 02:06:18.000,142.623,36.117,878.889560
15 Sep 2023 02:07:18.000,138.931,21.968,1228.773627
15 Sep 2023 02:08:18.000,137.333,13.426,1610.906372
15 Sep 2023 02:09:18.000,136.472,7.489,2005.880580
15 Sep 2023 02:10:18.000,135.950,2.915,2406.202852
15 Sep 2023 02:11:03.345,135.682,0.000,2710.066468
15 Sep 2023 03:38:52.260,286.346,0.000,2722.188030
15 Sep 2023 03:39:52.000,279.497,2.681,2438.721940
15 Sep 2023 03:40:52.000,270.872,5.287,2194.271388
15 Sep 2023 03:41:52.000,260.249,7.549,2005.989549
15 Sep 2023 03:42:52.000,247.768,9.059,1891.470768
15 Sep 2023 03:43:52.000,234.247,9.413,1864.727760
15 Sep 2023 03:44:52.000,221.020,8.495,1929.403046
15 Sep 2023 03:45:52.000,209.260,6.583,2076.621476
15 Sep 2023 03:46:52.000,199.474,4.114,2289.893012
15 Sep 2023 03:47:52.000,191.593,1.439,2551.875674
15 Sep 2023 03:48:23.986,188.062,0.000,2706.324752
15 Sep 2023 17:32:23.853,195.763,0.000,2702.196789
15 Sep 2023 17:33:23.000,191.574,3.493,2343.247158
15 Sep 2023 17:34:23.000,185.734,7.527,1996.425244
15 Sep 2023 17:35:23.000,177.358,12.151,1679.698781
15 Sep 2023 17:36:23.000,164.989,17.200,1415.196215
15 Sep 2023 17:37:23.000,147.144,21.608,1238.317486
15 Sep 2023 17:38:23.000,124.870,23.060,1189.728167
15 Sep 2023 17:39:23.000,103.618,20.433,1284.341333
15 Sep 2023 17:40:23.000,87.659,15.646,1494.963346
15 Sep 2023 17:41:23.000,76.807,10.703,1780.284483
15 Sep 2023 17:42:23.000,69.435,6.286,2109.362996
15 Sep 2023 17:43:23.000,64.257,2.433,2463.715288
15 Sep 2023 17:44:05.191,61.485,0.000,2722.111406
15 Sep 2023 19:11:17.346,242.824,0.000,2709.299654
15 Sep 2023 19:12:17.000,244.811,3.837,2317.406213
15 Sep 2023 19:13:17.000,247.595,8.504,1928.353646
15 Sep 2023 19:14:17.000,251.811,14.525,1550.351377
15 Sep 2023 19:15:17.000,259.016,22.915,1196.049142
15 Sep 2023 19:16:17.000,273.726,35.113,896.132691
15 Sep 2023 19:17:17.000,308.775,48.030,723.494361
15 Sep 2023 19:18:17.000,357.945,43.821,769.818051
15 Sep 2023 19:19:17.000,22.892,29.888,1005.044015
15 Sep 2023 19:20:17.000,33.744,19.355,1331.942097
15 Sep 2023 19:21:17.000,39.508,12.076,1697.426347
15 Sep 2023 19:22:17.000,43.088,6.687,2080.165149
15 Sep 2023 19:23:17.000,45.561,2.395,2470.958108
15 Sep 2023 19:23:55.707,46.804,0.000,2725.110982
15 Sep 2023 20:52:25.645,283.132,0.000,2718.616340
15 Sep 2023 20:53:25.000,288.748,3.125,2393.942433
15 Sep 2023 20:54:25.000,296.125,6.512,2091.532793
15 Sep 2023 20:55:25.000,305.872,10.015,1829.298449
15 Sep 2023 20:56:25.000,318.637,13.246,1627.949523
15 Sep 2023 20:57:25.000,334.424,15.397,1512.835252
15 Sep 2023 20:58:25.000,351.713,15.578,1504.290427
15 Sep 2023 20:59:25.000,7.876,13.702,1603.989396
15 Sep 2023 21:00:25.000,21.141,10.592,1793.586625
15 Sep 2023 21:01:25.000,31.327,7.109,2047.612054
15 Sep 2023 21:02:25.000,39.038,3.703,2344.376202
15 Sep 2023 21:03:25.000,44.955,0.519,2668.683786
15 Sep 2023 21:03:35.215,45.824,0.000,2725.863942
15 Sep 2023 22:33:43.421,309.459,0.000,2724.284516
15 Sep 2023 22:34:43.000,315.702,2.919,2418.986580
15 Sep 2023 22:35:43.000,323.691,5.953,2142.254461
15 Sep 2023 22:36:43.000,333.873,8.901,1911.055762
15 Sep 2023 22:37:43.000,346.540,11.351,1744.654059
15 Sep 2023 22:38:43.000,1.285,12.679,1663.347735
15 Sep 2023 22:39:43.000,16.664,12.400,1679.882935
15 Sep 2023 22:40:43.000,30.829,10.624,1791.516679
15 Sep 2023 22:41:43.000,42.667,7.944,1981.891449
15 Sep 2023 22:42:43.000,52.066,4.933,2230.338151
15 Sep 2023 22:43:43.000,59.427,1.916,2518.953341
15 Sep 2023 22:44:22.370,63.386,-0.000,2723.648956
16 Sep 2023 00:13:44.330,315.372,0.000,2725.784368
16 Sep 2023 00:14:44.000,319.279,3.548,2359.120533
16 Sep 2023 00:15:44.000,324.594,7.667,2003.640290
16 Sep 2023 00:16:44.000,332.181,12.531,1671.750232
16 Sep 2023 00:17:44.000,343.590,18.198,1382.382389
16 Sep 2023 00:18:44.000,1.061,23.922,1169.173143
16 Sep 2023 00:19:44.000,25.175,26.975,1079.385906
16 Sep 2023 00:20:44.000,50.043,24.734,1142.952531
16 Sep 2023 00:21:44.000,68.763,19.194,1338.078981
16 Sep 2023 00:22:44.000,81.051,13.401,1617.330538
16 Sep 2023 00:23:44.000,89.149,8.378,1944.027243
16 Sep 2023 00:24:44.000,94.750,4.130,2297.077187
16 Sep 2023 00:25:44.000,98.833,0.471,2664.969736
16 Sep 2023 00:25:52.318,99.314,0.000,2716.736514
16 Sep 2023 01:53:18.083,306.518,0.000,2725.012123
16 Sep 2023 01:54:18.000,305.183,3.870,2327.312759
16 Sep 2023 01:55:18.000,303.192,8.576,1933.132769
16 Sep 2023 01:56:18.000,299.997,14.697,1548.318249
16 Sep 2023 01:57:18.000,294.235,23.396,1184.329384
16 Sep 2023 01:58:18.000,281.575,36.731,870.086439
16 Sep 2023 01:59:18.000,245.734,52.911,680.541767
16 Sep 2023 02:00:18.000,187.776,48.085,722.559717
16 Sep 2023 02:01:18.000,162.903,31.497,966.278960
16 Sep 2023 02:02:18.000,153.444,19.953,1302.418040
16 Sep 2023 02:03:18.000,148.764,12.296,1675.353538
16 Sep 2023 02:04:18.000,146.018,6.737,2064.161769
16 Sep 2023 02:05:18.000,144.226,2.355,2460.137584
16 Sep 2023 02:05:55.388,143.396,0.000,2708.539726
16 Sep 2023 03:34:24.420,279.071,0.000,2720.419204
16 Sep 2023 03:35:24.000,271.221,2.133,2491.887456
16 Sep 2023 03:36:24.000,261.857,3.961,2312.171796
16 Sep 2023 03:37:24.000,251.158,5.225,2196.167144
16 Sep 2023 03:38:24.000,239.627,5.686,2154.560090
16 Sep 2023 03:39:24.000,228.070,5.239,2191.633020
16 Sep 2023 03:40:24.000,217.305,3.983,2303.322838
16 Sep 2023 03:41:24.000,207.847,2.158,2479.034558
16 Sep 2023 03:42:24.000,199.839,0.010,2705.581190
16 Sep 2023 03:42:24.267,199.807,0.000,2706.684510
16 Sep 2023 15:52:49.780,133.029,0.000,2705.815255
16 Sep 2023 15:53:49.000,123.903,0.675,2633.709019
16 Sep 2023 15:54:49.000,114.356,0.796,2622.595999
16 Sep 2023 15:55:49.000,104.958,0.335,2674.773962
16 Sep 2023 15:56:12.910,101.352,0.000,2712.530384
16 Sep 2023 17:26:59.698,204.223,0.000,2702.519221
16 Sep 2023 17:27:59.000,201.132,3.692,2324.620580
16 Sep 2023 17:28:59.000,196.723,8.097,1952.952138
16 Sep 2023 17:29:59.000,190.094,13.494,1601.540579
16 Sep 2023 17:30:59.000,179.392,20.206,1289.101723
16 Sep 2023 17:31:59.000,161.228,27.698,1052.784643
16 Sep 2023 17:32:59.000,133.281,32.083,952.370180
16 Sep 2023 17:33:59.000,104.315,28.734,1028.919636
16 Sep 2023 17:34:59.000,84.755,21.384,1250.141203
16 Sep 2023 17:35:59.000,73.249,14.506,1554.864369
16 Sep 2023 17:36:59.000,66.218,8.948,1902.514989
16 Sep 2023 17:37:59.000,61.616,4.429,2272.435250
16 Sep 2023 17:38:59.000,58.415,0.619,2654.174851
16 Sep 2023 17:39:09.606,57.950,0.000,2722.409477
16 Sep 2023 19:06:22.640,249.981,0.000,2710.463194
16 Sep 2023 19:07:22.000,252.771,3.727,2328.713674
16 Sep 2023 19:08:22.000,256.674,8.213,1950.916539
16 Sep 2023 19:09:22.000,262.484,13.826,1588.955069
16 Sep 2023 19:10:22.000,271.968,21.146,1258.519194
16 Sep 2023 19:11:22.000,289.075,30.309,993.403473
16 Sep 2023 19:12:22.000,319.381,37.443,857.818803
16 Sep 2023 19:13:22.000,354.429,34.346,911.946919
16 Sep 2023 19:14:22.000,17.021,25.190,1128.552822
16 Sep 2023 19:15:22.000,29.276,16.981,1435.211992
16 Sep 2023 19:16:22.000,36.458,10.694,1785.194856
16 Sep 2023 19:17:22.000,41.118,5.774,2156.436416
16 Sep 2023 19:18:22.000,44.403,1.733,2538.450714
16 Sep 2023 19:18:50.958,45.673,0.000,2724.953988
16 Sep 2023 20:47:42.149,288.806,0.000,2719.484994
16 Sep 2023 20:48:42.000,294.782,3.050,2401.934280
16 Sep 2023 20:49:42.000,302.495,6.271,2112.061870
16 Sep 2023 20:50:42.000,312.511,9.501,1865.340348
16 Sep 2023 20:51:42.000,325.292,12.330,1681.959208
16 Sep 2023 20:52:42.000,340.600,14.034,1584.813453
16 Sep 2023 20:53:42.000,356.911,13.945,1590.125969
16 Sep 2023 20:54:42.000,12.014,12.108,1696.868577
16 Sep 2023 20:55:42.000,24.514,9.223,1887.513486
16 Sep 2023 20:56:42.000,34.280,5.992,2139.097180
16 Sep 2023 20:57:42.000,41.807,2.793,2431.950771
16 Sep 2023 20:58:37.149,47.244,0.000,2725.333957
16 Sep 2023 22:28:48.986,311.764,0.000,2724.307165
16 Sep 2023 22:29:48.000,317.763,2.953,2415.557492
16 Sep 2023 22:30:48.000,325.555,6.089,2130.565395
16 Sep 2023 22:31:48.000,335.592,9.200,1889.248878
16 Sep 2023 22:32:48.000,348.269,11.878,1711.325276
16 Sep 2023 22:33:48.000,3.298,13.446,1618.648027
16 Sep 2023 22:34:48.000,19.211,13.309,1626.265855
16 Sep 2023 22:35:48.000,33.954,11.524,1732.866450
16 Sep 2023 22:36:48.000,46.231,8.739,1921.724801
16 Sep 2023 22:37:48.000,55.895,5.601,2170.899734
16 Sep 2023 22:38:48.000,63.392,2.474,2461.372414
16 Sep 2023 22:39:37.545,68.331,0.000,2722.398414
17 Sep 2023 00:08:39.608,314.792,0.000,2725.362177
17 Sep 2023 00:09:39.000,318.001,3.643,2349.538806
17 Sep 2023 00:10:39.000,322.427,7.976,1979.371080
17 Sep 2023 00:11:39.000,328.887,13.284,1627.266000
17 Sep 2023 00:12:39.000,339.083,19.939,1309.886298
17 Sep 2023 00:13:39.000,356.305,27.674,1060.765135
17 Sep 2023 00:14:39.000,23.830,33.077,937.448323
17 Sep 2023 00:15:39.000,54.481,30.611,988.820869
17 Sep 2023 00:16:39.000,75.958,23.124,1192.451372
17 Sep 2023 00:17:39.000,88.616,15.855,1486.542690
17 Sep 2023 00:18:39.000,96.356,9.998,1827.153469
17 Sep 2023 00:19:39.000,101.471,5.286,2191.744905
17 Sep 2023 00:20:39.000,105.097,1.352,2569.047622
17 Sep 2023 00:21:01.886,106.219,0.000,2714.951894
17 Sep 2023 01:48:17.319,303.753,0.000,2724.199938
17 Sep 2023 01:49:17.000,301.353,3.765,2336.337014
17 Sep 2023 01:50:17.000,297.872,8.282,1954.100889
17 Sep 2023 01:51:17.000,292.503,13.956,1587.227676
17 Sep 2023 01:52:17.000,283.447,21.420,1251.396776
17 Sep 2023 01:53:17.000,266.560,30.898,981.019185
17 Sep 2023 01:54:17.000,235.631,38.330,843.135953
17 Sep 2023 01:55:17.000,199.829,34.797,901.324825
17 Sep 2023 01:56:17.000,177.567,25.143,1125.366353
17 Sep 2023 01:57:17.000,165.892,16.736,1439.152251
17 Sep 2023 01:58:17.000,159.240,10.380,1795.321945
17 Sep 2023 01:59:17.000,155.047,5.433,2172.042105
17 Sep 2023 02:00:17.000,152.184,1.376,2559.058163
17 Sep 2023 02:00:39.739,151.325,0.000,2707.227985
17 Sep 2023 03:30:17.569,268.507,0.000,2717.938791
17 Sep 2023 03:31:17.000,259.777,1.355,2569.612468
17 Sep 2023 03:32:17.000,250.084,2.217,2479.068921
17 Sep 2023 03:33:17.000,239.920,2.440,2454.816496
17 Sep 2023 03:34:17.000,229.840,1.988,2498.748549
17 Sep 2023 03:35:17.000,220.369,0.935,2607.117037
17 Sep 2023 03:35:55.847,214.734,0.000,2707.950233
17 Sep 2023 15:45:46.806,152.537,0.000,2702.524653
17 Sep 2023 15:46:46.000,144.130,1.736,2518.133995
17 Sep 2023 15:47:46.000,134.443,3.064,2386.923785
17 Sep 2023 15:48:46.000,123.900,3.763,2321.954808
17 Sep 2023 15:49:46.000,113.083,3.707,2329.184412
17 Sep 2023 15:50:46.000,102.670,2.906,2408.063891
17 Sep 2023 15:51:46.000,93.205,1.505,2551.777631
17 Sep 2023 15:52:36.612,86.162,0.000,2715.668389
17 Sep 2023 17:21:39.467,212.302,0.000,2703.066186
17 Sep 2023 17:22:39.000,210.295,3.832,2311.935534
17 Sep 2023 17:23:39.000,207.380,8.494,1923.706711
17 Sep 2023 17:24:39.000,202.832,14.479,1548.137838
17 Sep 2023 17:25:39.000,194.910,22.701,1199.419541
17 Sep 2023 17:26:39.000,178.875,34.133,911.146348
17 Sep 2023 17:27:39.000,144.164,44.608,757.603536
17 Sep 2023 17:28:39.000,101.028,39.868,819.148294
17 Sep 2023 17:29:39.000,77.970,27.597,1058.750396
17 Sep 2023 17:30:39.000,67.298,17.996,1386.368617
17 Sep 2023 17:31:39.000,61.579,11.149,1752.423196
17 Sep 2023 17:32:39.000,58.103,5.978,2136.175745
17 Sep 2023 17:33:39.000,55.801,1.805,2528.397702
17 Sep 2023 17:34:08.458,54.941,0.000,2722.556930
17 Sep 2023 19:01:28.763,256.973,0.000,2711.664774
17 Sep 2023 19:02:28.000,260.487,3.611,2340.802135
17 Sep 2023 19:03:28.000,265.361,7.885,1976.754470
17 Sep 2023 19:04:28.000,272.452,13.041,1633.977890
17 Sep 2023 19:05:28.000,283.453,19.293,1330.779665
17 Sep 2023 19:06:28.000,301.210,26.046,1101.875457
17 Sep 2023 19:07:28.000,327.363,30.043,1000.649271
17 Sep 2023 19:08:28.000,354.870,27.475,1064.462289
17 Sep 2023 19:09:28.000,14.672,20.986,1268.350806
17 Sep 2023 19:10:28.000,26.999,14.523,1557.590140
17 Sep 2023 19:11:28.000,34.849,9.133,1892.549424
17 Sep 2023 19:12:28.000,40.182,4.687,2251.865849
17 Sep 2023 19:13:28.000,44.038,0.916,2624.399714
17 Sep 2023 19:13:43.937,44.892,0.000,2724.720404
17 Sep 2023 20:42:55.685,294.022,0.000,2720.195635
17 Sep 2023 20:43:55.000,300.159,2.943,2413.011130
17 Sep 2023 20:44:55.000,308.077,6.033,2132.411097
17 Sep 2023 20:45:55.000,318.225,9.063,1896.824688
17 Sep 2023 20:46:55.000,330.940,11.618,1725.822317
17 Sep 2023 20:47:55.000,345.854,13.046,1640.427389
17 Sep 2023 20:48:55.000,1.490,12.814,1654.252601
17 Sep 2023 20:49:55.000,15.905,11.022,1764.884986
17 Sep 2023 20:50:55.000,27.917,8.289,1955.563839
17 Sep 2023 20:51:55.000,37.413,5.222,2204.979571
17 Sep 2023 20:52:55.000,44.820,2.160,2494.758686
17 Sep 2023 20:53:38.947,49.216,0.000,2724.698214
17 Sep 2023 22:23:49.642,313.486,0.000,2724.238722
17 Sep 2023 22:24:49.000,319.268,3.057,2405.254562
17 Sep 2023 22:25:49.000,326.804,6.337,2109.654518
17 Sep 2023 22:26:49.000,336.654,9.675,1855.358080
17 Sep 2023 22:27:49.000,349.365,12.677,1662.659771
17 Sep 2023 22:28:49.000,4.823,14.589,1555.531017
17 Sep 2023 22:29:49.000,21.536,14.646,1552.279288
17 Sep 2023 22:30:49.000,37.127,12.819,1653.580611
17 Sep 2023 22:31:49.000,50.013,9.850,1841.972779
17 Sep 2023 22:32:49.000,60.015,6.509,2093.512668
17 Sep 2023 22:33:49.000,67.659,3.213,2387.562982
17 Sep 2023 22:34:49.000,73.565,0.105,2709.410898
17 Sep 2023 22:34:51.100,73.747,0.000,2721.049548
18 Sep 2023 00:03:32.057,313.856,0.000,2724.886922
18 Sep 2023 00:04:32.000,316.336,3.778,2336.187890
18 Sep 2023 00:05:32.000,319.750,8.311,1953.439751
18 Sep 2023 00:06:32.000,324.827,14.053,1583.717622
18 Sep 2023 00:07:32.000,333.229,21.765,1240.903126
18 Sep 2023 00:08:32.000,349.136,32.130,956.553724
18 Sep 2023 00:09:32.000,20.926,41.658,797.684770
18 Sep 2023 00:10:32.000,61.456,38.648,839.686812
18 Sep 2023 00:11:32.000,85.924,27.647,1058.894308
18 Sep 2023 00:12:32.000,98.043,18.311,1372.374375
18 Sep 2023 00:13:32.000,104.788,11.479,1728.791183
18 Sep 2023 00:14:32.000,109.037,6.281,2105.467664
18 Sep 2023 00:15:32.000,111.971,2.081,2492.127748
18 Sep 2023 00:16:05.929,113.268,0.000,2713.118491
18 Sep 2023 01:43:16.701,300.523,0.000,2723.349151
18 Sep 2023 01:44:16.000,297.052,3.591,2351.809802
18 Sep 2023 01:45:16.000,292.120,7.808,1989.093039
18 Sep 2023 01:46:16.000,284.832,12.825,1650.314712
18 Sep 2023 01:47:16.000,273.506,18.732,1355.360875
18 Sep 2023 01:48:16.000,255.645,24.713,1140.319367
18 Sep 2023 01:49:16.000,230.686,27.679,1056.191990
18 Sep 2023 01:50:16.000,205.508,24.894,1132.803685
18 Sep 2023 01:51:16.000,187.289,18.926,1342.610967
18 Sep 2023 01:52:16.000,175.698,12.966,1634.427889
18 Sep 2023 01:53:16.000,168.229,7.897,1971.243752
18 Sep 2023 01:54:16.000,163.159,3.644,2332.561279
18 Sep 2023 01:55:15.788,159.541,0.000,2706.056175
18 Sep 2023 15:39:29.367,165.627,0.000,2700.978966
18 Sep 2023 15:40:29.000,158.090,2.399,2449.135104
18 Sep 2023 15:41:29.000,148.892,4.591,2242.073384
18 Sep 2023 15:42:29.000,138.055,6.295,2096.351024
18 Sep 2023 15:43:29.000,125.974,7.184,2026.023017
18 Sep 2023 15:44:29.000,113.527,7.040,2039.325845
18 Sep 2023 15:45:29.000,101.762,5.901,2134.765092
18 Sep 2023 15:46:29.000,91.426,4.039,2301.902734
18 Sep 2023 15:47:29.000,82.773,1.771,2526.045381
18 Sep 2023 15:48:12.793,77.467,0.000,2717.272260
18 Sep 2023 17:16:22.372,220.095,0.000,2703.830558
18 Sep 2023 17:17:22.000,219.151,3.906,2305.693170
18 Sep 2023 17:18:22.000,217.743,8.711,1908.276118
18 Sep 2023 17:19:22.000,215.469,15.049,1518.805732
18 Sep 2023 17:20:22.000,211.266,24.315,1147.747896
18 Sep 2023 17:21:22.000,201.339,39.501,822.879155
18 Sep 2023 17:22:22.000,163.889,61.263,623.476060
18 Sep 2023 17:23:22.000,87.856,53.657,673.220669
18 Sep 2023 17:24:22.000,66.134,33.153,932.923657
18 Sep 2023 17:25:22.000,59.171,20.611,1279.985121
18 Sep 2023 17:26:22.000,55.911,12.660,1659.558421
18 Sep 2023 17:27:22.000,54.072,6.993,2052.591573
18 Sep 2023 17:28:22.000,52.922,2.564,2451.416759
18 Sep 2023 17:29:02.605,52.375,0.000,2722.653676
18 Sep 2023 18:56:35.221,263.780,0.000,2712.834315
18 Sep 2023 18:57:35.000,267.984,3.525,2350.077116
18 Sep 2023 18:58:35.000,273.700,7.576,2001.463502
18 Sep 2023 18:59:35.000,281.811,12.278,1679.750843
18 Sep 2023 19:00:35.000,293.789,17.566,1405.129859
18 Sep 2023 19:01:35.000,311.423,22.535,1211.367934
18 Sep 2023 19:02:35.000,334.412,24.741,1141.214405
18 Sep 2023 19:03:35.000,357.282,22.430,1216.414786
18 Sep 2023 19:04:35.000,14.710,17.447,1413.632085
18 Sep 2023 19:05:35.000,26.539,12.194,1690.018955
18 Sep 2023 19:06:35.000,34.572,7.532,2012.333306
18 Sep 2023 19:07:35.000,40.258,3.513,2360.805995
18 Sep 2023 19:08:35.000,44.475,0.001,2724.284451
18 Sep 2023 19:08:35.023,44.477,0.000,2724.425900
18 Sep 2023 20:38:05.563,298.717,0.000,2720.760623
18 Sep 2023 20:39:05.000,305.010,2.895,2418.149137
18 Sep 2023 20:40:05.000,313.069,5.899,2144.045585
18 Sep 2023 20:41:05.000,323.309,8.797,1916.238447
18 Sep 2023 20:42:05.000,335.988,11.176,1753.866191
18 Sep 2023 20:43:05.000,350.658,12.428,1676.717951
18 Sep 2023 20:44:05.000,5.877,12.100,1696.740025
18 Sep 2023 20:45:05.000,19.858,10.324,1810.620795
18 Sep 2023 20:46:05.000,31.549,7.675,2002.008828
18 Sep 2023 20:47:05.000,40.855,4.704,2250.583106
18 Sep 2023 20:48:05.000,48.165,1.724,2538.792168
18 Sep 2023 20:48:40.776,51.771,0.000,2724.003925
18 Sep 2023 22:18:45.627,314.668,0.000,2724.089173
18 Sep 2023 22:19:45.000,320.112,3.161,2394.817603
18 Sep 2023 22:20:45.000,327.285,6.618,2086.122302
18 Sep 2023 22:21:45.000,336.831,10.252,1815.469800
18 Sep 2023 22:22:45.000,349.503,13.699,1603.591307
18 Sep 2023 22:23:45.000,5.480,16.123,1477.034825
18 Sep 2023 22:24:45.000,23.309,16.496,1458.773949
18 Sep 2023 22:25:45.000,40.128,14.617,1552.766424
18 Sep 2023 22:26:45.000,53.885,11.369,1740.667094
18 Sep 2023 22:27:45.000,64.343,7.725,1995.578662
18 Sep 2023 22:28:45.000,72.171,4.185,2294.519251
18 Sep 2023 22:29:45.000,78.113,0.899,2621.561483
18 Sep 2023 22:30:02.312,79.563,0.000,2719.578079
18 Sep 2023 23:58:22.060,312.580,0.000,2724.359489
18 Sep 2023 23:59:22.000,314.222,3.854,2328.434039
19 Sep 2023 00:00:22.000,316.472,8.538,1935.896799
19 Sep 2023 00:01:22.000,319.844,14.626,1552.219091
19 Sep 2023 00:02:22.000,325.619,23.285,1188.336587
19 Sep 2023 00:03:22.000,337.875,36.654,871.840229
19 Sep 2023 00:04:22.000,12.847,53.649,675.300580
19 Sep 2023 00:05:22.000,73.654,49.688,708.031586
19 Sep 2023 00:06:22.000,99.730,32.494,946.542675
19 Sep 2023 00:07:22.000,109.504,20.573,1280.054662
19 Sep 2023 00:08:22.000,114.407,12.737,1651.154496
19 Sep 2023 00:09:22.000,117.367,7.087,2038.404127
19 Sep 2023 00:10:22.000,119.372,2.654,2432.970046
19 Sep 2023 00:11:04.031,120.442,0.000,2711.347495
19 Sep 2023 01:38:17.172,296.733,0.000,2722.354654
19 Sep 2023 01:39:17.000,292.113,3.408,2368.219440
19 Sep 2023 01:40:17.000,285.790,7.220,2033.831689
19 Sep 2023 01:41:17.000,276.907,11.429,1733.968439
19 Sep 2023 01:42:17.000,264.299,15.736,1491.089221
19 Sep 2023 01:43:17.000,247.174,19.103,1337.729726
19 Sep 2023 01:44:17.000,227.029,19.852,1306.404557
19 Sep 2023 01:45:17.000,208.087,17.473,1405.331884
19 Sep 2023 01:46:17.000,193.365,13.387,1610.271792
19 Sep 2023 01:47:17.000,182.861,9.043,1886.259185
19 Sep 2023 01:48:17.000,175.424,5.026,2205.847007
19 Sep 2023 01:49:17.000,170.026,1.428,2551.615502
19 Sep 2023 01:49:42.735,168.154,0.000,2705.171754
19 Sep 2023 15:33:28.903,176.503,0.000,2700.176712
19 Sep 2023 15:34:28.000,170.062,2.849,2403.578555
19 Sep 2023 15:35:28.000,161.727,5.762,2138.341229
19 Sep 2023 15:36:28.000,151.172,8.460,1925.586039
19 Sep 2023 15:37:28.000,138.320,10.485,1785.297048
19 Sep 2023 15:38:28.000,123.895,11.272,1735.875375
19 Sep 2023 15:39:28.000,109.466,10.537,1785.199904
19 Sep 2023 15:40:28.000,96.611,8.552,1925.618140
19 Sep 2023 15:41:28.000,86.063,5.881,2138.861008
19 Sep 2023 15:42:28.000,77.753,2.982,2404.982945
19 Sep 2023 15:43:28.000,71.269,0.096,2707.597942
19 Sep 2023 15:43:30.022,71.077,0.000,2718.281660
19 Sep 2023 17:11:07.830,227.665,0.000,2704.713818
19 Sep 2023 17:12:07.000,227.737,3.891,2307.882172
19 Sep 2023 17:13:07.000,227.794,8.728,1907.741509
19 Sep 2023 17:14:07.000,227.814,15.156,1513.865045
19 Sep 2023 17:15:07.000,227.743,24.741,1135.149030
19 Sep 2023 17:16:07.000,227.365,41.457,796.072687
19 Sep 2023 17:17:07.000,224.128,73.799,574.295597
19 Sep 2023 17:18:07.000,51.582,63.116,614.763034
19 Sep 2023 17:19:07.000,50.115,35.934,881.928425
19 Sep 2023 17:20:07.000,49.891,21.817,1236.002109
19 Sep 2023 17:21:07.000,49.889,13.345,1620.040390
19 Sep 2023 17:22:07.000,49.968,7.457,2015.884109
19 Sep 2023 17:23:07.000,50.089,2.916,2416.528979
19 Sep 2023 17:23:52.681,50.198,0.000,2722.662304
19 Sep 2023 18:51:41.465,270.369,0.000,2713.930410
19 Sep 2023 18:52:41.000,275.117,3.383,2364.586955
19 Sep 2023 18:53:41.000,281.508,7.202,2031.690636
19 Sep 2023 18:54:41.000,290.350,11.461,1730.751405
19 Sep 2023 18:55:41.000,302.823,15.923,1482.787365
19 Sep 2023 18:56:41.000,319.900,19.629,1319.133186
19 Sep 2023 18:57:41.000,340.456,20.831,1273.346660
19 Sep 2023 18:58:41.000,0.300,18.726,1357.490230
19 Sep 2023 18:59:41.000,15.971,14.656,1550.197642
19 Sep 2023 19:00:41.000,27.231,10.218,1816.586012
19 Sep 2023 19:01:41.000,35.246,6.100,2128.299634
19 Sep 2023 19:02:41.000,41.109,2.424,2467.206121
19 Sep 2023 19:03:24.590,44.451,0.000,2724.079372
19 Sep 2023 20:33:11.205,302.844,0.000,2721.179517
19 Sep 2023 20:34:11.000,309.243,2.887,2419.235915
19 Sep 2023 20:35:11.000,317.372,5.852,2148.291806
19 Sep 2023 20:36:11.000,327.661,8.688,1924.265733
19 Sep 2023 20:37:11.000,340.329,10.986,1766.099992
19 Sep 2023 20:38:11.000,354.895,12.155,1693.018406
19 Sep 2023 20:39:11.000,9.930,11.779,1716.203977
19 Sep 2023 20:40:11.000,23.715,10.004,1831.916888
19 Sep 2023 20:41:11.000,35.256,7.387,2023.957152
19 Sep 2023 20:42:11.000,44.468,4.456,2272.429725
19 Sep 2023 20:43:11.000,51.726,1.512,2560.155341
19 Sep 2023 20:43:42.633,54.923,0.000,2723.180746
19 Sep 2023 22:13:37.264,315.355,0.000,2723.849789
19 Sep 2023 22:14:37.000,320.415,3.298,2381.237721
19 Sep 2023 22:15:37.000,327.126,6.959,2058.016194
19 Sep 2023 22:16:37.000,336.251,10.948,1768.898272
19 Sep 2023 22:17:37.000,348.791,14.969,1534.769445
19 Sep 2023 22:18:37.000,5.368,18.110,1384.992455
19 Sep 2023 22:19:37.000,24.700,18.954,1348.697462
19 Sep 2023 22:20:37.000,43.226,16.983,1434.737267
19 Sep 2023 22:21:37.000,58.129,13.302,1623.562656
19 Sep 2023 22:22:37.000,69.119,9.214,1883.988356
19 Sep 2023 22:23:37.000,77.111,5.337,2189.862889
19 Sep 2023 22:24:37.000,83.040,1.816,2523.801304
19 Sep 2023 22:25:10.452,85.709,0.000,2717.983473
19 Sep 2023 23:53:10.007,310.971,0.000,2723.794099
19 Sep 2023 23:54:10.000,311.706,3.905,2323.060575
19 Sep 2023 23:55:10.000,312.670,8.681,1924.612011
19 Sep 2023 23:56:10.000,314.068,14.988,1532.555736
19 Sep 2023 23:57:10.000,316.438,24.284,1155.821305
19 Sep 2023 23:58:10.000,321.801,40.092,818.464818
19 Sep 2023 23:59:10.000,347.392,68.071,594.472888
20 Sep 2023 00:00:10.000,102.034,61.688,622.785775
20 Sep 2023 00:01:10.000,118.704,36.056,879.363673
20 Sep 2023 00:02:10.000,123.083,21.969,1228.106067
20 Sep 2023 00:03:10.000,125.147,13.442,1609.328606
20 Sep 2023 00:04:10.000,126.388,7.512,2003.536171
20 Sep 2023 00:05:10.000,127.240,2.941,2403.187992
20 Sep 2023 00:05:55.799,127.740,0.000,2709.635472
20 Sep 2023 01:33:20.068,292.226,0.000,2721.207360
20 Sep 2023 01:34:20.000,286.490,3.116,2395.186049
20 Sep 2023 01:35:20.000,278.932,6.404,2098.569956
20 Sep 2023 01:36:20.000,268.930,9.695,1847.537194
20 Sep 2023 01:37:20.000,255.998,12.531,1663.976798
20 Sep 2023 01:38:20.000,240.466,14.119,1572.439406
20 Sep 2023 01:39:20.000,224.089,13.788,1589.183312
20 Sep 2023 01:40:20.000,209.230,11.688,1710.868583
20 Sep 2023 01:41:20.000,197.201,8.617,1917.101265
20 Sep 2023 01:42:20.000,187.984,5.281,2183.278939
20 Sep 2023 01:43:20.000,180.997,2.029,2489.284500
20 Sep 2023 01:43:59.333,177.332,0.000,2704.547778
20 Sep 2023 15:27:38.312,186.175,0.000,2699.854878
20 Sep 2023 15:28:38.000,180.743,3.238,2365.300478
20 Sep 2023 15:29:38.000,173.483,6.755,2055.510320
20 Sep 2023 15:30:38.000,163.678,10.415,1787.814944
20 Sep 2023 15:31:38.000,150.589,13.779,1585.132365
20 Sep 2023 15:32:38.000,134.262,15.914,1475.573113
20 Sep 2023 15:33:38.000,116.560,15.843,1480.532523
20 Sep 2023 15:34:38.000,100.454,13.612,1599.022356
20 Sep 2023 15:35:38.000,87.659,10.226,1808.539087
20 Sep 2023 15:36:38.000,78.118,6.585,2081.148242
20 Sep 2023 15:37:38.000,71.076,3.097,2394.561345
20 Sep 2023 15:38:35.441,65.998,0.000,2718.939525
20 Sep 2023 17:05:55.353,235.051,0.000,2705.680987
20 Sep 2023 17:06:55.000,236.083,3.901,2307.815315
20 Sep 2023 17:07:55.000,237.518,8.701,1910.554748
20 Sep 2023 17:08:55.000,239.696,15.035,1520.745831
20 Sep 2023 17:09:55.000,243.517,24.327,1148.284104
20 Sep 2023 17:10:55.000,252.259,39.774,819.577105
20 Sep 2023 17:11:55.000,287.462,63.607,612.002546
20 Sep 2023 17:12:55.000,13.308,56.336,654.303794
20 Sep 2023 17:13:55.000,34.567,34.257,912.164741
20 Sep 2023 17:14:55.000,41.126,21.190,1258.798513
20 Sep 2023 17:15:55.000,44.318,13.037,1637.846277
20 Sep 2023 17:16:55.000,46.258,7.278,2030.126468
20 Sep 2023 17:17:55.000,47.604,2.800,2428.024644
20 Sep 2023 17:18:39.208,48.377,0.000,2722.593242
20 Sep 2023 18:46:46.871,276.695,0.000,2714.982477
20 Sep 2023 18:47:46.000,281.880,3.236,2379.728108
20 Sep 2023 18:48:46.000,288.807,6.833,2062.064068
20 Sep 2023 18:49:46.000,298.166,10.695,1780.705810
20 Sep 2023 18:50:46.000,310.858,14.486,1556.761527
20 Sep 2023 18:51:46.000,327.289,17.305,1418.651402
20 Sep 2023 18:52:46.000,346.025,17.900,1392.653301
20 Sep 2023 18:53:46.000,3.778,15.934,1484.689004
20 Sep 2023 18:54:46.000,18.120,12.437,1675.044413
20 Sep 2023 18:55:46.000,28.830,8.553,1934.254276
20 Sep 2023 18:56:46.000,36.722,4.838,2237.664478
20 Sep 2023 18:57:46.000,42.648,1.433,2568.666110
20 Sep 2023 18:58:13.006,44.847,0.000,2723.703097
20 Sep 2023 20:28:12.189,306.372,0.000,2721.436024
20 Sep 2023 20:29:12.000,312.758,2.892,2418.890082
20 Sep 2023 20:30:12.000,320.872,5.864,2147.259211
20 Sep 2023 20:31:12.000,331.150,8.713,1922.368323
20 Sep 2023 20:32:12.000,343.821,11.028,1763.209350
20 Sep 2023 20:33:12.000,358.411,12.214,1689.149833
20 Sep 2023 20:34:12.000,13.489,11.848,1711.570188
20 Sep 2023 20:35:12.000,27.321,10.071,1826.849872
20 Sep 2023 20:36:12.000,38.897,7.445,2018.764989
20 Sep 2023 20:37:12.000,48.130,4.504,2267.323785
20 Sep 2023 20:38:12.000,55.398,1.550,2555.258170
20 Sep 2023 20:38:44.360,58.667,0.000,2722.242767
20 Sep 2023 22:08:24.913,315.593,0.000,2723.542083
20 Sep 2023 22:09:24.000,320.093,3.382,2372.835139
20 Sep 2023 22:10:24.000,326.189,7.256,2033.859360
20 Sep 2023 22:11:24.000,334.671,11.644,1724.086737
20 Sep 2023 22:12:24.000,346.812,16.379,1463.826000
20 Sep 2023 22:13:24.000,3.894,20.554,1284.907214
20 Sep 2023 22:14:24.000,25.183,22.206,1224.430611
20 Sep 2023 22:15:24.000,46.170,20.153,1299.365125
20 Sep 2023 22:16:24.000,62.674,15.815,1489.243066
20 Sep 2023 22:17:24.000,74.325,11.077,1756.667673
20 Sep 2023 22:18:24.000,82.467,6.733,2071.061204
20 Sep 2023 22:19:24.000,88.330,2.902,2413.213619
20 Sep 2023 22:20:14.837,92.122,0.000,2716.301295
20 Sep 2023 23:47:56.313,309.023,0.000,2723.158854
20 Sep 2023 23:48:56.000,308.791,3.893,2323.437531
20 Sep 2023 23:49:56.000,308.369,8.681,1923.873726
20 Sep 2023 23:50:56.000,307.597,15.012,1530.572811
20 Sep 2023 23:51:56.000,306.047,24.372,1152.371706
20 Sep 2023 23:52:56.000,302.095,40.424,813.234354
20 Sep 2023 23:53:56.000,280.476,69.772,587.849645
20 Sep 2023 23:54:56.000,154.259,62.507,618.028300
20 Sep 2023 23:55:56.000,141.068,36.106,877.761676
20 Sep 2023 23:56:56.000,137.902,21.924,1228.659376
20 Sep 2023 23:57:56.000,136.544,13.384,1611.357560
20 Sep 2023 23:58:56.000,135.820,7.453,2006.682159
20 Sep 2023 23:59:56.000,135.388,2.883,2407.241698
21 Sep 2023 00:00:40.867,135.173,0.000,2708.038739
21 Sep 2023 01:28:27.541,286.729,0.000,2719.838001
21 Sep 2023 01:29:27.000,279.976,2.698,2434.702035
21 Sep 2023 01:30:27.000,271.406,5.351,2186.494595
21 Sep 2023 01:31:27.000,260.799,7.677,1993.895348
21 Sep 2023 01:32:27.000,248.265,9.263,1874.890323
21 Sep 2023 01:33:27.000,234.608,9.679,1844.176400
21 Sep 2023 01:34:27.000,221.198,8.787,1906.031694
21 Sep 2023 01:35:27.000,209.267,6.865,2051.760131
21 Sep 2023 01:36:27.000,199.355,4.368,2264.608378
21 Sep 2023 01:37:27.000,191.394,1.661,2526.839942
21 Sep 2023 01:38:03.536,187.363,0.000,2704.280935
21 Sep 2023 15:21:54.424,195.080,0.000,2699.857982
21 Sep 2023 15:22:54.000,190.763,3.502,2340.015787
21 Sep 2023 15:23:54.000,184.791,7.507,1995.660196
21 Sep 2023 15:24:54.000,176.254,12.070,1682.434238
21 Sep 2023 15:25:54.000,163.735,16.990,1422.801097
21 Sep 2023 15:26:54.000,145.895,21.177,1251.996122
21 Sep 2023 15:27:54.000,123.963,22.426,1209.154340
21 Sep 2023 15:28:54.000,103.207,19.794,1307.166616
21 Sep 2023 15:29:54.000,87.571,15.133,1518.745796
21 Sep 2023 15:30:54.000,76.858,10.314,1803.755588
21 Sep 2023 15:31:54.000,69.527,5.985,2132.102967
21 Sep 2023 15:32:54.000,64.349,2.190,2485.660630
21 Sep 2023 15:33:32.285,61.802,0.000,2719.417849
21 Sep 2023 17:00:44.497,242.275,0.000,2706.763597
21 Sep 2023 17:01:44.000,244.192,3.833,2315.235494
21 Sep 2023 17:02:44.000,246.887,8.511,1925.349789
21 Sep 2023 17:03:44.000,250.974,14.561,1546.195871
21 Sep 2023 17:04:44.000,257.982,23.032,1190.216763
21 Sep 2023 17:05:44.000,272.440,35.490,887.884974
21 Sep 2023 17:06:44.000,307.932,48.995,712.878893
21 Sep 2023 17:07:44.000,358.664,44.568,759.676368
21 Sep 2023 17:08:44.000,23.601,30.149,997.302641
21 Sep 2023 17:09:44.000,34.223,19.444,1326.218820
21 Sep 2023 17:10:44.000,39.825,12.107,1693.105676
21 Sep 2023 17:11:44.000,43.297,6.696,2076.842644
21 Sep 2023 17:12:44.000,45.694,2.394,2468.385830
21 Sep 2023 17:13:22.632,46.896,0.000,2722.441804
21 Sep 2023 18:41:50.776,282.704,0.000,2715.942047
21 Sep 2023 18:42:50.000,288.289,3.126,2391.186751
21 Sep 2023 18:43:50.000,295.648,6.526,2087.782498
21 Sep 2023 18:44:50.000,305.387,10.051,1824.393477
21 Sep 2023 18:45:50.000,318.170,13.312,1621.820151
21 Sep 2023 18:46:50.000,334.019,15.494,1505.659793
21 Sep 2023 18:47:50.000,351.403,15.686,1496.580797
21 Sep 2023 18:48:50.000,7.655,13.796,1596.382461
21 Sep 2023 18:49:50.000,20.972,10.661,1786.523736
21 Sep 2023 18:50:50.000,31.178,7.157,2041.263348
21 Sep 2023 18:51:50.000,38.891,3.735,2338.745909
21 Sep 2023 18:52:50.000,44.801,0.540,2663.711218
21 Sep 2023 18:53:00.615,45.702,0.000,2723.248610
21 Sep 2023 20:23:08.258,309.290,0.000,2721.597695
21 Sep 2023 20:24:08.000,315.575,2.922,2415.990538
21 Sep 2023 20:25:08.000,323.597,5.948,2140.050832
21 Sep 2023 20:26:08.000,333.814,8.881,1909.944561
21 Sep 2023 20:27:08.000,346.508,11.308,1744.958918
21 Sep 2023 20:28:08.000,1.255,12.607,1665.291152
21 Sep 2023 20:29:08.000,16.602,12.302,1683.434363
21 Sep 2023 20:30:08.000,30.715,10.515,1796.384433
21 Sep 2023 20:31:08.000,42.502,7.837,1987.686431
21 Sep 2023 20:32:08.000,51.862,4.834,2236.725605
21 Sep 2023 20:33:08.000,59.195,1.826,2525.698277
21 Sep 2023 20:33:45.613,62.978,-0.000,2721.195574
21 Sep 2023 22:03:08.951,315.424,0.000,2723.147788
21 Sep 2023 22:04:08.000,319.342,3.499,2361.127139
21 Sep 2023 22:05:08.000,324.716,7.596,2006.704729
21 Sep 2023 22:06:08.000,332.372,12.417,1676.257880
21 Sep 2023 22:07:08.000,343.840,18.003,1388.829824
21 Sep 2023 22:08:08.000,1.280,23.590,1177.951874
21 Sep 2023 22:09:08.000,25.144,26.519,1090.122328
21 Sep 2023 22:10:08.000,49.671,24.308,1154.235604
21 Sep 2023 22:11:08.000,68.221,18.891,1348.676375
21 Sep 2023 22:12:08.000,80.480,13.197,1626.867771
21 Sep 2023 22:13:08.000,88.599,8.234,1952.576187
21 Sep 2023 22:14:08.000,94.233,4.023,2304.807613
21 Sep 2023 22:15:08.000,98.347,0.386,2672.036890
21 Sep 2023 22:15:14.841,98.747,0.000,2714.536846
21 Sep 2023 23:42:41.431,306.719,0.000,2722.460416
21 Sep 2023 23:43:41.000,305.476,3.852,2326.529105
21 Sep 2023 23:44:41.000,303.605,8.565,1931.575399
21 Sep 2023 23:45:41.000,300.593,14.708,1545.613428
21 Sep 2023 23:46:41.000,295.131,23.481,1179.810814
21 Sep 2023 23:47:41.000,282.984,37.103,862.613996
21 Sep 2023 23:48:41.000,247.009,54.229,669.317948
21 Sep 2023 23:49:41.000,186.206,49.226,710.502097
21 Sep 2023 23:50:41.000,161.433,31.906,956.228754
21 Sep 2023 23:51:41.000,152.315,20.119,1294.228235
21 Sep 2023 23:52:41.000,147.853,12.379,1668.444683
21 Sep 2023 23:53:41.000,145.250,6.787,2058.141137
21 Sep 2023 23:54:41.000,143.557,2.388,2454.764621
21 Sep 2023 23:55:18.841,142.766,0.000,2706.505129
22 Sep 2023 01:23:43.630,279.699,0.000,2718.116501
22 Sep 2023 01:24:43.000,271.946,2.174,2485.443041
22 Sep 2023 01:25:43.000,262.621,4.069,2299.922635
22 Sep 2023 01:26:43.000,251.899,5.412,2177.730238
22 Sep 2023 01:27:43.000,240.266,5.948,2130.192321
22 Sep 2023 01:28:43.000,228.546,5.553,2162.304239
22 Sep 2023 01:29:43.000,217.595,4.317,2270.440515
22 Sep 2023 01:30:43.000,207.969,2.486,2444.013393
22 Sep 2023 01:31:43.000,199.831,0.319,2669.555365
22 Sep 2023 01:31:51.401,198.806,0.000,2704.525052
22 Sep 2023 13:42:23.984,129.980,0.000,2704.028850
22 Sep 2023 13:43:23.000,120.842,0.501,2650.827043
22 Sep 2023 13:44:23.000,111.388,0.447,2658.641498
22 Sep 2023 13:45:10.846,104.026,0.000,2709.458053
22 Sep 2023 15:16:15.463,203.460,0.000,2700.166739
22 Sep 2023 15:17:15.000,200.248,3.694,2322.104766
22 Sep 2023 15:18:15.000,195.688,8.074,1952.376106
22 Sep 2023 15:19:15.000,188.855,13.415,1603.839047
22 Sep 2023 15:20:15.000,177.898,19.985,1295.731077
22 Sep 2023 15:21:15.000,159.587,27.146,1065.543988
22 Sep 2023 15:22:15.000,132.133,31.100,971.610091
22 Sep 2023 15:23:15.000,104.109,27.766,1051.545233
22 Sep 2023 15:24:15.000,84.994,20.716,1272.797416
22 Sep 2023 15:25:15.000,73.568,14.066,1576.341515
22 Sep 2023 15:26:15.000,66.506,8.637,1922.724076
22 Sep 2023 15:27:15.000,61.850,4.192,2291.561047
22 Sep 2023 15:28:15.000,58.595,0.427,2672.417066
22 Sep 2023 15:28:22.365,58.263,0.000,2719.685832
22 Sep 2023 16:55:34.841,249.345,0.000,2707.917192
22 Sep 2023 16:56:34.000,252.057,3.723,2326.536574
22 Sep 2023 16:57:34.000,255.868,8.226,1947.497434
22 Sep 2023 16:58:34.000,261.552,13.877,1583.826825
22 Sep 2023 16:59:34.000,270.877,21.298,1250.971792
22 Sep 2023 17:00:34.000,287.888,30.714,982.614354
22 Sep 2023 17:01:34.000,318.671,38.221,844.073023
22 Sep 2023 17:02:34.000,354.637,35.018,898.051556
22 Sep 2023 17:03:34.000,17.449,25.529,1116.714691
22 Sep 2023 17:04:34.000,29.623,17.143,1425.538209
22 Sep 2023 17:05:34.000,36.699,10.778,1777.214356
22 Sep 2023 17:06:34.000,41.272,5.822,2149.737946
22 Sep 2023 17:07:34.000,44.489,1.762,2532.747831
22 Sep 2023 17:08:03.363,45.749,0.000,2722.280695
22 Sep 2023 18:36:52.474,288.334,0.000,2716.798413
22 Sep 2023 18:37:52.000,294.260,3.041,2400.153059
22 Sep 2023 18:38:52.000,301.953,6.274,2109.217000
22 Sep 2023 18:39:52.000,311.958,9.524,1861.251467
22 Sep 2023 18:40:52.000,324.752,12.380,1676.532113
22 Sep 2023 18:41:52.000,340.110,14.112,1578.184818
22 Sep 2023 18:42:52.000,356.503,14.037,1582.735847
22 Sep 2023 18:43:52.000,11.684,12.193,1689.289150
22 Sep 2023 18:44:52.000,24.236,9.291,1880.184271
22 Sep 2023 18:45:52.000,34.029,6.043,2132.239058
22 Sep 2023 18:46:52.000,41.564,2.830,2425.630220
22 Sep 2023 18:47:47.736,47.053,0.000,2722.725010
22 Sep 2023 20:17:59.361,311.611,0.000,2721.623260
22 Sep 2023 20:18:59.000,317.715,2.977,2410.512318
22 Sep 2023 20:19:59.000,325.564,6.102,2126.948023
22 Sep 2023 20:20:59.000,335.663,9.188,1887.579352
22 Sep 2023 20:21:59.000,348.389,11.826,1712.172381
22 Sep 2023 20:22:59.000,3.421,13.339,1622.405031
22 Sep 2023 20:23:59.000,19.273,13.153,1632.857877
22 Sep 2023 20:24:59.000,33.917,11.347,1741.725618
22 Sep 2023 20:25:59.000,46.098,8.565,1932.111505
22 Sep 2023 20:26:59.000,55.690,5.442,2182.198023
22 Sep 2023 20:27:59.000,63.138,2.332,2473.167234
22 Sep 2023 20:28:45.879,67.810,0.000,2719.970503
22 Sep 2023 21:57:49.748,314.880,0.000,2722.726602
22 Sep 2023 21:58:49.000,318.154,3.625,2348.692864
22 Sep 2023 21:59:49.000,322.676,7.938,1979.785885
22 Sep 2023 22:00:49.000,329.267,13.206,1629.496272
22 Sep 2023 22:01:49.000,339.627,19.764,1314.788922
22 Sep 2023 22:02:49.000,356.955,27.279,1069.418686
22 Sep 2023 22:03:49.000,24.172,32.371,950.130887
22 Sep 2023 22:04:49.000,54.127,29.894,1003.558553
22 Sep 2023 22:05:49.000,75.269,22.639,1206.906467
22 Sep 2023 22:06:49.000,87.884,15.546,1499.895531
22 Sep 2023 22:07:49.000,95.660,9.788,1839.406183
22 Sep 2023 22:08:49.000,100.826,5.131,2203.077754
22 Sep 2023 22:09:49.000,104.498,1.231,2579.632640
22 Sep 2023 22:10:09.925,105.543,0.000,2712.777703
22 Sep 2023 23:37:25.895,304.026,0.000,2721.656636
22 Sep 2023 23:38:25.000,301.751,3.738,2336.427039
22 Sep 2023 23:39:25.000,298.416,8.271,1952.580829
22 Sep 2023 23:40:25.000,293.255,13.988,1583.349897
22 Sep 2023 23:41:25.000,284.490,21.576,1243.935974
22 Sep 2023 23:42:25.000,267.878,31.417,968.258399
22 Sep 2023 23:43:25.000,236.396,39.490,824.525792
22 Sep 2023 23:44:25.000,199.130,35.898,880.520408
22 Sep 2023 23:45:25.000,176.440,25.751,1106.119640
22 Sep 2023 23:46:25.000,164.831,17.064,1422.152318
22 Sep 2023 23:47:25.000,158.305,10.579,1780.185105
22 Sep 2023 23:48:25.000,154.221,5.568,2158.333970
22 Sep 2023 23:49:25.000,151.447,1.476,2546.457166
22 Sep 2023 23:49:49.296,150.563,0.000,2705.175583
23 Sep 2023 01:19:18.476,269.695,0.000,2715.782613
23 Sep 2023 01:20:18.000,261.016,1.444,2558.231466
23 Sep 2023 01:21:18.000,251.317,2.404,2458.093741
23 Sep 2023 01:22:18.000,241.060,2.725,2424.433796
23 Sep 2023 01:23:18.000,230.813,2.351,2459.983195
23 Sep 2023 01:24:18.000,221.134,1.346,2561.590380
23 Sep 2023 01:25:12.843,213.117,0.000,2705.588665
23 Sep 2023 13:34:56.630,150.878,0.000,2700.461017
23 Sep 2023 13:35:56.000,142.342,1.654,2524.611940
23 Sep 2023 13:36:56.000,132.615,2.871,2403.713792
23 Sep 2023 13:37:56.000,122.131,3.451,2349.385416
23 Sep 2023 13:38:56.000,111.473,3.292,2366.578380
23 Sep 2023 13:39:56.000,101.290,2.422,2453.852198
23 Sep 2023 13:40:56.000,92.071,0.990,2603.958895
23 Sep 2023 13:41:29.977,87.375,0.000,2712.888307
23 Sep 2023 15:10:40.315,211.458,0.000,2700.694508
23 Sep 2023 15:11:40.000,209.327,3.833,2309.471799
23 Sep 2023 15:12:40.000,206.243,8.478,1922.588793
23 Sep 2023 15:13:40.000,201.443,14.420,1549.100834
23 Sep 2023 15:14:40.000,193.132,22.517,1203.766556
23 Sep 2023 15:15:40.000,176.593,33.532,921.012243
23 Sep 2023 15:16:40.000,142.395,43.074,774.477217
23 Sep 2023 15:17:40.000,101.373,38.391,839.498726
23 Sep 2023 15:18:40.000,78.762,26.795,1078.291594
23 Sep 2023 15:19:40.000,67.961,17.544,1404.230771
23 Sep 2023 15:20:40.000,62.080,10.858,1768.890200
23 Sep 2023 15:21:40.000,58.475,5.767,2151.603508
23 Sep 2023 15:22:40.000,56.073,1.638,2543.050869
23 Sep 2023 15:23:06.874,55.246,0.000,2719.865271
23 Sep 2023 16:50:25.955,256.256,0.000,2709.050165
23 Sep 2023 16:51:25.000,259.689,3.611,2338.185799
23 Sep 2023 16:52:25.000,264.473,7.907,1972.519588
23 Sep 2023 16:53:25.000,271.452,13.112,1627.562127
23 Sep 2023 16:54:25.000,282.341,19.472,1321.421634
23 Sep 2023 16:55:25.000,300.114,26.443,1088.918733
23 Sep 2023 16:56:25.000,326.693,30.670,984.730458
23 Sep 2023 16:57:25.000,354.814,28.035,1048.150033
23 Sep 2023 16:58:25.000,14.862,21.328,1253.703184
23 Sep 2023 16:59:25.000,27.193,14.717,1545.008217
23 Sep 2023 17:00:25.000,34.986,9.248,1881.755870
23 Sep 2023 17:01:25.000,40.256,4.762,2242.511358
23 Sep 2023 17:02:25.000,44.057,0.968,2616.203954
23 Sep 2023 17:02:41.767,44.940,0.000,2722.047812
23 Sep 2023 18:31:51.265,293.524,0.000,2717.500896
23 Sep 2023 18:32:51.000,299.703,2.971,2407.607942
23 Sep 2023 18:33:51.000,307.630,6.072,2126.563113
23 Sep 2023 18:34:51.000,317.804,9.114,1890.620940
23 Sep 2023 18:35:51.000,330.566,11.681,1719.488082
23 Sep 2023 18:36:51.000,345.543,13.110,1634.351700
23 Sep 2023 18:37:51.000,1.238,12.865,1648.885934
23 Sep 2023 18:38:51.000,15.686,11.051,1760.537304
23 Sep 2023 18:39:51.000,27.706,8.299,1952.310586
23 Sep 2023 18:40:51.000,37.193,5.219,2202.733195
23 Sep 2023 18:41:51.000,44.584,2.148,2493.373350
23 Sep 2023 18:42:34.623,48.939,0.000,2722.104368
23 Sep 2023 20:12:45.593,313.362,0.000,2721.553131
23 Sep 2023 20:13:45.000,319.193,3.049,2403.395627
23 Sep 2023 20:14:45.000,326.781,6.310,2109.273670
23 Sep 2023 20:15:45.000,336.681,9.618,1856.919916
23 Sep 2023 20:16:45.000,349.421,12.570,1666.637629
23 Sep 2023 20:17:45.000,4.851,14.422,1562.169638
23 Sep 2023 20:18:45.000,21.468,14.434,1561.312645
23 Sep 2023 20:19:45.000,36.933,12.599,1664.279332
23 Sep 2023 20:20:45.000,49.716,9.649,1853.547741
23 Sep 2023 20:21:45.000,59.650,6.335,2105.403460
23 Sep 2023 20:22:45.000,67.257,3.065,2399.453915
23 Sep 2023 20:23:44.549,73.105,0.000,2718.651872
23 Sep 2023 21:52:27.677,313.988,0.000,2722.253686
23 Sep 2023 21:53:27.000,316.530,3.728,2338.401638
23 Sep 2023 21:54:27.000,320.058,8.234,1956.766012
23 Sep 2023 21:55:27.000,325.297,13.923,1588.634339
23 Sep 2023 21:56:27.000,333.921,21.508,1248.180264
23 Sep 2023 21:57:27.000,350.037,31.548,967.233507
23 Sep 2023 21:58:27.000,21.311,40.507,811.903365
23 Sep 2023 21:59:27.000,60.456,37.602,854.517824
23 Sep 2023 22:00:27.000,84.642,27.100,1071.688852
23 Sep 2023 22:01:27.000,96.903,18.022,1383.000124
23 Sep 2023 22:02:27.000,103.800,11.304,1737.783945
23 Sep 2023 22:03:27.000,108.167,6.161,2113.276114
23 Sep 2023 22:04:27.000,111.189,1.991,2499.055002
23 Sep 2023 22:04:59.598,112.478,0.000,2710.963662
23 Sep 2023 23:32:10.346,300.888,0.000,2720.819086
23 Sep 2023 23:33:10.000,297.507,3.635,2345.195577
23 Sep 2023 23:34:10.000,292.711,7.896,1980.015502
23 Sep 2023 23:35:10.000,285.581,13.002,1637.880438
23 Sep 2023 23:36:10.000,274.387,19.093,1338.429500
23 Sep 2023 23:37:10.000,256.420,25.404,1118.103530
23 Sep 2023 23:38:10.000,230.775,28.652,1030.044485
23 Sep 2023 23:39:10.000,204.764,25.734,1106.584201
23 Sep 2023 23:40:10.000,186.220,19.460,1319.074975
23 Sep 2023 23:41:10.000,174.624,13.288,1614.013147
23 Sep 2023 23:42:10.000,167.238,8.104,1953.483133
23 Sep 2023 23:43:10.000,162.260,3.788,2316.905050
23 Sep 2023 23:44:10.000,158.715,0.096,2693.403912
23 Sep 2023 23:44:11.667,158.631,0.000,2703.987004
24 Sep 2023 13:28:22.536,164.169,0.000,2698.871098
24 Sep 2023 13:29:22.000,156.526,2.323,2454.573604
24 Sep 2023 13:30:22.000,147.239,4.418,2255.630579
24 Sep 2023 13:31:22.000,136.397,5.998,2118.949977
24 Sep 2023 13:32:22.000,124.435,6.762,2057.709901
24 Sep 2023 13:33:22.000,112.225,6.523,2078.970910
24 Sep 2023 13:34:22.000,100.751,5.344,2180.359382
24 Sep 2023 13:35:22.000,90.685,3.490,2351.267185
24 Sep 2023 13:36:22.000,82.244,1.256,2577.386321
24 Sep 2023 13:36:53.739,78.405,0.000,2714.515420
24 Sep 2023 15:05:08.199,219.170,0.000,2701.434558
24 Sep 2023 15:06:08.000,218.094,3.913,2302.567096
24 Sep 2023 15:07:08.000,216.501,8.713,1905.822693
24 Sep 2023 15:08:08.000,213.938,15.034,1517.462734
24 Sep 2023 15:09:08.000,209.225,24.236,1148.369758
24 Sep 2023 15:10:08.000,198.237,39.108,827.212870
24 Sep 2023 15:11:08.000,159.838,59.217,633.880030
24 Sep 2023 15:12:08.000,89.982,51.735,687.337502
24 Sep 2023 15:13:08.000,67.716,32.395,946.497909
24 Sep 2023 15:14:08.000,60.187,20.233,1292.416753
24 Sep 2023 15:15:08.000,56.599,12.425,1671.144440
24 Sep 2023 15:16:08.000,54.552,6.825,2063.602117
24 Sep 2023 15:17:08.000,53.260,2.431,2462.030725
24 Sep 2023 15:17:46.640,52.666,0.000,2719.944243
24 Sep 2023 16:45:17.353,262.989,0.000,2710.219866
24 Sep 2023 16:46:17.000,267.116,3.532,2346.791484
24 Sep 2023 16:47:17.000,272.748,7.611,1996.253792
24 Sep 2023 16:48:17.000,280.768,12.367,1672.020912
24 Sep 2023 16:49:17.000,292.682,17.763,1394.180023
24 Sep 2023 16:50:17.000,310.400,22.907,1196.820728
24 Sep 2023 16:51:17.000,333.755,25.254,1123.984265
24 Sep 2023 16:52:17.000,357.067,22.892,1198.765523
24 Sep 2023 16:53:17.000,14.714,17.762,1397.336189
24 Sep 2023 16:54:17.000,26.585,12.394,1675.590162
24 Sep 2023 16:55:17.000,34.593,7.662,1999.650955
24 Sep 2023 16:56:17.000,40.236,3.602,2349.604951
24 Sep 2023 16:57:17.000,44.411,0.067,2714.318578
24 Sep 2023 16:57:18.207,44.484,0.000,2721.758879
24 Sep 2023 18:26:46.483,298.214,0.000,2718.062587
24 Sep 2023 18:27:46.000,304.516,2.903,2414.668993
24 Sep 2023 18:28:46.000,312.581,5.914,2140.215237
24 Sep 2023 18:29:46.000,322.838,8.819,1912.117838
24 Sep 2023 18:30:46.000,335.547,11.205,1749.607844
24 Sep 2023 18:31:46.000,350.257,12.457,1672.583077
24 Sep 2023 18:32:46.000,5.514,12.122,1693.030631
24 Sep 2023 18:33:46.000,19.518,10.333,1807.551562
24 Sep 2023 18:34:46.000,31.215,7.673,1999.646166
24 Sep 2023 18:35:46.000,40.517,4.694,2248.885846
24 Sep 2023 18:36:46.000,47.818,1.710,2537.675790
24 Sep 2023 18:37:21.442,51.388,0.000,2721.420947
24 Sep 2023 20:07:27.171,314.583,0.000,2721.411697
24 Sep 2023 20:08:27.000,320.133,3.173,2391.070212
24 Sep 2023 20:09:27.000,327.387,6.607,2084.445759
24 Sep 2023 20:10:27.000,337.021,10.199,1816.576762
24 Sep 2023 20:11:27.000,349.757,13.574,1608.279441
24 Sep 2023 20:12:27.000,5.714,15.899,1485.834771
24 Sep 2023 20:13:27.000,23.397,16.188,1471.408052
24 Sep 2023 20:14:27.000,40.008,14.288,1568.099454
24 Sep 2023 20:15:27.000,53.592,11.071,1757.397141
24 Sep 2023 20:16:27.000,63.942,7.472,2012.788982
24 Sep 2023 20:17:27.000,71.711,3.973,2311.712089
24 Sep 2023 20:18:27.000,77.625,0.719,2638.501334
24 Sep 2023 20:18:40.934,78.796,0.000,2717.215166
24 Sep 2023 21:47:03.107,312.765,0.000,2721.730508
24 Sep 2023 21:48:03.000,314.517,3.845,2326.778560
24 Sep 2023 21:49:03.000,316.924,8.514,1935.179460
24 Sep 2023 21:50:03.000,320.533,14.572,1552.903341
24 Sep 2023 21:51:03.000,326.702,23.139,1191.270554
24 Sep 2023 21:52:03.000,339.648,36.167,878.568986
24 Sep 2023 21:53:03.000,14.701,51.981,687.407309
24 Sep 2023 21:54:03.000,71.888,48.007,722.796181
24 Sep 2023 21:55:03.000,97.851,31.772,959.993998
24 Sep 2023 21:56:03.000,108.010,20.220,1291.736172
24 Sep 2023 21:57:03.000,113.176,12.526,1661.509297
24 Sep 2023 21:58:03.000,116.311,6.943,2047.804113
24 Sep 2023 21:59:03.000,118.439,2.545,2441.658701
24 Sep 2023 21:59:43.460,119.537,0.000,2709.227253
24 Sep 2023 23:26:55.660,297.218,0.000,2719.820245
24 Sep 2023 23:27:55.000,292.770,3.410,2365.545021
24 Sep 2023 23:28:55.000,286.614,7.277,2027.002160
24 Sep 2023 23:29:55.000,277.906,11.592,1721.598836
24 Sep 2023 23:30:55.000,265.399,16.092,1471.640772
24 Sep 2023 23:31:55.000,248.114,19.734,1310.430419
24 Sep 2023 23:32:55.000,227.424,20.679,1272.792615
24 Sep 2023 23:33:55.000,207.845,18.258,1369.017554
24 Sep 2023 23:34:55.000,192.734,14.000,1574.350357
24 Sep 2023 23:35:55.000,182.076,9.497,1852.135140
24 Sep 2023 23:36:55.000,174.607,5.368,2173.834581
24 Sep 2023 23:37:55.000,169.228,1.697,2521.606846
24 Sep 2023 23:38:25.209,167.070,0.000,2703.033331
25 Sep 2023 13:22:06.293,175.099,0.000,2698.042662
25 Sep 2023 13:23:06.000,168.430,2.821,2404.190672
25 Sep 2023 13:24:06.000,159.931,5.642,2146.519946
25 Sep 2023 13:25:06.000,149.270,8.198,1942.962378
25 Sep 2023 13:26:06.000,136.457,10.042,1812.910812
25 Sep 2023 13:27:06.000,122.278,10.660,1773.305112
25 Sep 2023 13:28:06.000,108.247,9.836,1830.302845
25 Sep 2023 13:29:06.000,95.794,7.859,1975.453586
25 Sep 2023 13:30:06.000,85.555,5.250,2190.886802
25 Sep 2023 13:31:06.000,77.444,2.426,2457.527103
25 Sep 2023 13:31:57.566,71.883,0.000,2715.569714
25 Sep 2023 14:59:38.540,226.658,0.000,2702.288858
25 Sep 2023 15:00:38.000,226.597,3.913,2303.418425
25 Sep 2023 15:01:38.000,226.461,8.758,1903.221542
25 Sep 2023 15:02:38.000,226.176,15.202,1509.371048
25 Sep 2023 15:03:38.000,225.546,24.823,1130.883478
25 Sep 2023 15:04:38.000,223.795,41.613,792.632447
25 Sep 2023 15:05:38.000,211.725,73.730,573.433399
25 Sep 2023 15:06:38.000,57.776,62.283,617.809708
25 Sep 2023 15:07:38.000,52.362,35.559,886.880530
25 Sep 2023 15:08:38.000,51.145,21.602,1241.656764
25 Sep 2023 15:09:38.000,50.690,13.199,1626.045540
25 Sep 2023 15:10:38.000,50.508,7.345,2022.122465
25 Sep 2023 15:11:38.000,50.457,2.824,2422.951569
25 Sep 2023 15:12:22.304,50.470,0.000,2719.977518
25 Sep 2023 16:40:08.526,269.514,0.000,2711.300718
25 Sep 2023 16:41:08.000,274.194,3.397,2360.669476
25 Sep 2023 16:42:08.000,280.512,7.246,2025.658051
25 Sep 2023 16:43:08.000,289.285,11.561,1722.032587
25 Sep 2023 16:44:08.000,301.735,16.122,1470.812871
25 Sep 2023 16:45:08.000,318.925,19.963,1303.790215
25 Sep 2023 16:46:08.000,339.788,21.253,1255.667809
25 Sep 2023 16:47:08.000,359.965,19.109,1339.413934
25 Sep 2023 16:48:08.000,15.821,14.936,1533.220111
25 Sep 2023 16:49:08.000,27.137,10.409,1801.246645
25 Sep 2023 16:50:08.000,35.148,6.233,2114.586912
25 Sep 2023 16:51:08.000,40.985,2.520,2454.934419
25 Sep 2023 16:51:53.040,44.404,0.000,2721.412081
25 Sep 2023 18:21:37.557,302.356,0.000,2718.482516
25 Sep 2023 18:22:37.000,308.721,2.870,2418.182734
25 Sep 2023 18:23:37.000,316.851,5.835,2147.033027
25 Sep 2023 18:24:37.000,327.146,8.673,1922.822525
25 Sep 2023 18:25:37.000,339.824,10.972,1764.532544
25 Sep 2023 18:26:37.000,354.404,12.141,1691.435333
25 Sep 2023 18:27:37.000,9.453,11.764,1714.737877
25 Sep 2023 18:28:37.000,23.248,9.986,1830.672123
25 Sep 2023 18:29:37.000,34.793,7.367,2022.980048
25 Sep 2023 18:30:37.000,44.003,4.436,2271.719674
25 Sep 2023 18:31:37.000,51.260,1.492,2559.688929
25 Sep 2023 18:32:08.212,54.415,0.000,2720.614739
25 Sep 2023 20:02:04.401,315.318,0.000,2721.176876
25 Sep 2023 20:03:04.000,320.438,3.274,2380.950441
25 Sep 2023 20:04:04.000,327.232,6.905,2059.850740
25 Sep 2023 20:05:04.000,336.443,10.840,1773.545223
25 Sep 2023 20:06:04.000,349.037,14.768,1542.994930
25 Sep 2023 20:07:04.000,5.557,17.783,1397.241870
25 Sep 2023 20:08:04.000,24.667,18.531,1364.442407
25 Sep 2023 20:09:04.000,42.909,16.560,1452.467752
25 Sep 2023 20:10:04.000,57.610,12.946,1641.773347
25 Sep 2023 20:11:04.000,68.500,8.933,1901.818049
25 Sep 2023 20:12:04.000,76.454,5.115,2206.980555
25 Sep 2023 20:13:04.000,82.378,1.635,2540.136777
25 Sep 2023 20:13:34.336,84.816,0.000,2715.655601
25 Sep 2023 21:41:36.409,311.218,0.000,2721.154535
25 Sep 2023 21:42:36.000,312.079,3.873,2323.430159
25 Sep 2023 21:43:36.000,313.228,8.637,1925.412819
25 Sep 2023 21:44:36.000,314.914,14.919,1533.981110
25 Sep 2023 21:45:36.000,317.798,24.148,1158.232825
25 Sep 2023 21:46:36.000,324.320,39.709,822.554650
25 Sep 2023 21:47:36.000,353.285,66.188,600.968167
25 Sep 2023 21:48:36.000,96.427,60.215,629.764269
25 Sep 2023 21:49:36.000,115.786,35.658,884.828582
25 Sep 2023 21:50:36.000,121.098,21.799,1232.360147
25 Sep 2023 21:51:36.000,123.606,13.345,1612.810920
25 Sep 2023 21:52:36.000,125.105,7.446,2006.504723
25 Sep 2023 21:53:36.000,126.127,2.892,2405.791500
25 Sep 2023 21:54:21.123,126.715,0.000,2707.503655
25 Sep 2023 23:21:43.044,292.875,0.000,2718.731708
25 Sep 2023 23:22:43.000,287.279,3.164,2388.089478
25 Sep 2023 23:23:43.000,279.864,6.532,2085.753990
25 Sep 2023 23:24:43.000,269.965,9.952,1827.634727
25 Sep 2023 23:25:43.000,257.003,12.973,1635.973434
25 Sep 2023 23:26:43.000,241.201,14.754,1536.631400
25 Sep 2023 23:27:43.000,224.350,14.517,1547.801123
25 Sep 2023 23:28:43.000,209.023,12.374,1667.121012
25 Sep 2023 23:29:43.000,196.681,9.191,1873.537474
25 Sep 2023 23:30:43.000,187.304,5.744,2141.239688
25 Sep 2023 23:31:43.000,180.255,2.405,2449.253708
25 Sep 2023 23:32:28.798,176.033,0.000,2702.334947
26 Sep 2023 13:16:00.169,184.770,0.000,2697.695918
26 Sep 2023 13:17:00.000,179.151,3.198,2367.003690
26 Sep 2023 13:18:00.000,171.696,6.631,2063.388483
26 Sep 2023 13:19:00.000,161.718,10.147,1803.662180
26 Sep 2023 13:20:00.000,148.588,13.288,1610.597002
26 Sep 2023 13:21:00.000,132.504,15.167,1510.984632
26 Sep 2023 13:22:00.000,115.339,14.946,1523.795178
26 Sep 2023 13:23:00.000,99.807,12.745,1646.456308
26 Sep 2023 13:24:00.000,87.409,9.489,1856.987233
26 Sep 2023 13:25:00.000,78.077,5.983,2128.848651
26 Sep 2023 13:26:00.000,71.125,2.602,2440.794761
26 Sep 2023 13:26:49.211,66.720,0.000,2716.249873
26 Sep 2023 14:54:10.855,233.962,0.000,2703.258814
26 Sep 2023 14:55:10.000,234.848,3.872,2308.106640
26 Sep 2023 14:56:10.000,236.083,8.676,1909.980498
26 Sep 2023 14:57:10.000,237.949,15.028,1518.939562
26 Sep 2023 14:58:10.000,241.220,24.388,1144.569744
26 Sep 2023 14:59:10.000,248.765,40.159,812.687141
26 Sep 2023 15:00:10.000,281.986,65.851,600.741479
26 Sep 2023 15:01:10.000,17.203,58.016,642.172396
26 Sep 2023 15:02:10.000,36.635,34.692,902.552845
26 Sep 2023 15:03:10.000,42.334,21.340,1251.313815
26 Sep 2023 15:04:10.000,45.091,13.101,1631.805480
26 Sep 2023 15:05:10.000,46.771,7.308,2025.113824
26 Sep 2023 15:06:10.000,47.942,2.815,2423.796922
26 Sep 2023 15:06:54.368,48.623,0.000,2719.912385
26 Sep 2023 16:34:58.884,275.790,0.000,2712.328869
26 Sep 2023 16:35:58.000,280.918,3.253,2375.423764
26 Sep 2023 16:36:58.000,287.784,6.881,2055.578301
26 Sep 2023 16:37:58.000,297.095,10.798,1771.530444
26 Sep 2023 16:38:58.000,309.791,14.675,1544.475191
26 Sep 2023 16:39:58.000,326.343,17.595,1403.338632
26 Sep 2023 16:40:58.000,345.330,18.247,1375.347592
26 Sep 2023 16:41:58.000,3.341,16.251,1467.019439
26 Sep 2023 16:42:58.000,17.838,12.679,1658.256654
26 Sep 2023 16:43:58.000,28.606,8.728,1918.863645
26 Sep 2023 16:44:58.000,36.505,4.964,2223.727472
26 Sep 2023 16:45:58.000,42.416,1.528,2556.063554
26 Sep 2023 16:46:26.621,44.729,0.000,2721.043966
26 Sep 2023 18:16:24.065,305.918,0.000,2718.743636
26 Sep 2023 18:17:24.000,312.338,2.895,2415.971469
26 Sep 2023 18:18:24.000,320.480,5.860,2144.969527
26 Sep 2023 18:19:24.000,330.789,8.698,1920.967544
26 Sep 2023 18:20:24.000,343.484,10.994,1762.982238
26 Sep 2023 18:21:24.000,358.080,12.156,1690.302976
26 Sep 2023 18:22:24.000,13.136,11.769,1714.105434
26 Sep 2023 18:23:24.000,26.929,9.981,1830.551124
26 Sep 2023 18:24:24.000,38.464,7.355,2023.323561
26 Sep 2023 18:25:24.000,47.664,4.419,2272.461648
26 Sep 2023 18:26:24.000,54.909,1.473,2560.771162
26 Sep 2023 18:26:54.803,58.021,0.000,2719.704339
26 Sep 2023 19:56:37.622,315.610,0.000,2720.874795
26 Sep 2023 19:57:37.000,320.226,3.381,2370.268265
26 Sep 2023 19:58:37.000,326.445,7.225,2033.835811
26 Sep 2023 19:59:37.000,335.071,11.550,1727.554660
26 Sep 2023 20:00:37.000,347.339,16.165,1471.991920
26 Sep 2023 20:01:37.000,4.410,20.140,1298.789025
26 Sep 2023 20:02:37.000,25.395,21.605,1243.716256
26 Sep 2023 20:03:37.000,45.920,19.532,1321.921193
26 Sep 2023 20:04:37.000,62.095,15.305,1512.693708
26 Sep 2023 20:05:37.000,73.597,10.688,1779.676676
26 Sep 2023 20:06:37.000,81.691,6.435,2093.152312
26 Sep 2023 20:07:37.000,87.551,2.665,2434.302084
26 Sep 2023 20:08:24.092,91.103,0.000,2714.006383
26 Sep 2023 21:36:07.972,309.344,0.000,2720.541813
26 Sep 2023 21:37:07.000,309.265,3.849,2325.043155
26 Sep 2023 21:38:07.000,309.062,8.631,1925.158384
26 Sep 2023 21:39:07.000,308.632,14.956,1531.328892
26 Sep 2023 21:40:07.000,307.702,24.320,1152.194671
26 Sep 2023 21:41:07.000,305.221,40.468,811.260397
26 Sep 2023 21:42:07.000,290.532,71.032,582.670079
26 Sep 2023 21:43:07.000,146.589,63.784,610.738363
26 Sep 2023 21:44:07.000,137.623,36.426,870.972745
26 Sep 2023 21:45:07.000,135.607,22.047,1222.627186
26 Sep 2023 21:46:07.000,134.778,13.446,1605.861537
26 Sep 2023 21:47:07.000,134.359,7.491,2001.558120
26 Sep 2023 21:48:07.000,134.127,2.911,2402.389671
26 Sep 2023 21:48:52.247,134.021,0.000,2705.895826
26 Sep 2023 23:16:34.433,287.618,0.000,2717.403594
26 Sep 2023 23:17:34.000,281.000,2.770,2425.216174
26 Sep 2023 23:18:34.000,272.552,5.526,2169.025726
26 Sep 2023 23:19:34.000,261.986,7.997,1967.183416
26 Sep 2023 23:20:34.000,249.335,9.752,1838.499971
26 Sep 2023 23:21:34.000,235.372,10.308,1799.184479
26 Sep 2023 23:22:34.000,221.549,9.473,1854.969231
26 Sep 2023 23:23:34.000,209.232,7.523,1997.584961
26 Sep 2023 23:24:34.000,199.038,4.955,2209.676922
26 Sep 2023 23:25:34.000,190.904,2.170,2472.606265
26 Sep 2023 23:26:20.620,185.776,0.000,2701.991761
27 Sep 2023 13:10:00.817,193.648,0.000,2697.672248
27 Sep 2023 13:11:00.000,189.177,3.439,2343.803182
27 Sep 2023 13:12:00.000,182.986,7.369,2004.308535
27 Sep 2023 13:13:00.000,174.212,11.787,1697.674504
27 Sep 2023 13:14:00.000,161.540,16.439,1446.657454
27 Sep 2023 13:15:00.000,143.900,20.232,1285.637078
27 Sep 2023 13:16:00.000,122.734,21.198,1250.703595
27 Sep 2023 13:17:00.000,102.865,18.650,1351.887313
27 Sep 2023 13:18:00.000,87.733,14.256,1562.700810
