xian_to_starlink-1130_darksat_Access_AER.csv

"Time (UTCG)","Azimuth (deg)","Elevation (deg)","Range (km)"
14 Sep 2023 05:26:45.080,316.661,0.000,2714.233494
14 Sep 2023 05:26:50.000,317.291,0.167,2695.779221
14 Sep 2023 05:26:55.000,317.939,0.335,2677.297488
14 Sep 2023 05:27:00.000,318.596,0.502,2659.095528
14 Sep 2023 05:27:05.000,319.262,0.667,2641.179601
14 Sep 2023 05:27:10.000,319.937,0.830,2623.556034
14 Sep 2023 05:27:15.000,320.621,0.992,2606.231217
14 Sep 2023 05:27:20.000,321.313,1.153,2589.211598
14 Sep 2023 05:27:25.000,322.015,1.311,2572.503680
14 Sep 2023 05:27:30.000,322.725,1.468,2556.114005
14 Sep 2023 05:27:35.000,323.444,1.622,2540.049163
14 Sep 2023 05:27:40.000,324.173,1.774,2524.315770
14 Sep 2023 05:27:45.000,324.910,1.924,2508.920468
14 Sep 2023 05:27:50.000,325.656,2.072,2493.869922
14 Sep 2023 05:27:55.000,326.411,2.217,2479.170797
14 Sep 2023 05:28:00.000,327.175,2.359,2464.829760
14 Sep 2023 05:28:05.000,327.948,2.499,2450.853469
14 Sep 2023 05:28:10.000,328.729,2.636,2437.248557
14 Sep 2023 05:28:15.000,329.519,2.770,2424.021629
14 Sep 2023 05:28:20.000,330.318,2.901,2411.179243
14 Sep 2023 05:28:25.000,331.124,3.029,2398.727909
14 Sep 2023 05:28:30.000,331.940,3.153,2386.674063
14 Sep 2023 05:28:35.000,332.763,3.274,2375.024068
14 Sep 2023 05:28:40.000,333.594,3.391,2363.784190
14 Sep 2023 05:28:45.000,334.434,3.505,2352.960597
14 Sep 2023 05:28:50.000,335.280,3.614,2342.559329
14 Sep 2023 05:28:55.000,336.135,3.720,2332.586304
14 Sep 2023 05:29:00.000,336.996,3.822,2323.047287
14 Sep 2023 05:29:05.000,337.865,3.919,2313.947889
14 Sep 2023 05:29:10.000,338.740,4.012,2305.293542
14 Sep 2023 05:29:15.000,339.621,4.101,2297.089495
14 Sep 2023 05:29:20.000,340.509,4.185,2289.340795
14 Sep 2023 05:29:25.000,341.403,4.264,2282.052270
14 Sep 2023 05:29:30.000,342.303,4.339,2275.228526
14 Sep 2023 05:29:35.000,343.207,4.409,2268.873923
14 Sep 2023 05:29:40.000,344.117,4.474,2262.992569
14 Sep 2023 05:29:45.000,345.031,4.534,2257.588306
14 Sep 2023 05:29:50.000,345.950,4.588,2252.664697
14 Sep 2023 05:29:55.000,346.872,4.638,2248.225018
14 Sep 2023 05:30:00.000,347.798,4.682,2244.272246
14 Sep 2023 05:30:05.000,348.727,4.720,2240.809048
14 Sep 2023 05:30:10.000,349.659,4.754,2237.837777
14 Sep 2023 05:30:15.000,350.593,4.782,2235.360459
14 Sep 2023 05:30:20.000,351.529,4.804,2233.378791
14 Sep 2023 05:30:25.000,352.466,4.821,2231.894133
14 Sep 2023 05:30:30.000,353.405,4.832,2230.907502
14 Sep 2023 05:30:35.000,354.344,4.838,2230.419573
14 Sep 2023 05:30:40.000,355.283,4.838,2230.430673
14 Sep 2023 05:30:45.000,356.222,4.833,2230.940780
14 Sep 2023 05:30:50.000,357.161,4.822,2231.949528
14 Sep 2023 05:30:55.000,358.098,4.805,2233.456199
14 Sep 2023 05:31:00.000,359.034,4.783,2235.459735
14 Sep 2023 05:31:05.000,359.968,4.755,2237.958736
14 Sep 2023 05:31:10.000,0.900,4.722,2240.951465
14 Sep 2023 05:31:15.000,1.829,4.684,2244.435855
14 Sep 2023 05:31:20.000,2.754,4.640,2248.409517
14 Sep 2023 05:31:25.000,3.677,4.591,2252.869743
14 Sep 2023 05:31:30.000,4.595,4.536,2257.813519
14 Sep 2023 05:31:35.000,5.509,4.477,2263.237535
14 Sep 2023 05:31:40.000,6.419,4.412,2269.138191
14 Sep 2023 05:31:45.000,7.323,4.343,2275.511611
14 Sep 2023 05:31:50.000,8.222,4.268,2282.353654
14 Sep 2023 05:31:55.000,9.116,4.189,2289.659928
14 Sep 2023 05:32:00.000,10.004,4.105,2297.425797
14 Sep 2023 05:32:05.000,10.885,4.017,2305.646403
14 Sep 2023 05:32:10.000,11.760,3.924,2314.316671
14 Sep 2023 05:32:15.000,12.628,3.827,2323.431327
14 Sep 2023 05:32:20.000,13.489,3.726,2332.984911
14 Sep 2023 05:32:25.000,14.343,3.620,2342.971790
14 Sep 2023 05:32:30.000,15.190,3.511,2353.386175
14 Sep 2023 05:32:35.000,16.029,3.398,2364.222130
14 Sep 2023 05:32:40.000,16.860,3.281,2375.473713
14 Sep 2023 05:32:45.000,17.683,3.160,2387.134502
14 Sep 2023 05:32:50.000,18.498,3.036,2399.198328
14 Sep 2023 05:32:55.000,19.304,2.909,2411.658815
14 Sep 2023 05:33:00.000,20.103,2.778,2424.509510
14 Sep 2023 05:33:05.000,20.892,2.645,2437.743891
14 Sep 2023 05:33:10.000,21.673,2.508,2451.355389
14 Sep 2023 05:33:15.000,22.446,2.369,2465.337387
14 Sep 2023 05:33:20.000,23.209,2.227,2479.683242
14 Sep 2023 05:33:25.000,23.964,2.082,2494.386290
14 Sep 2023 05:33:30.000,24.710,1.935,2509.439853
14 Sep 2023 05:33:35.000,25.447,1.785,2524.837257
14 Sep 2023 05:33:40.000,26.175,1.633,2540.571839
14 Sep 2023 05:33:45.000,26.894,1.479,2556.636951
14 Sep 2023 05:33:50.000,27.604,1.323,2573.025969
14 Sep 2023 05:33:55.000,28.306,1.165,2589.732302
14 Sep 2023 05:34:00.000,28.998,1.005,2606.749405
14 Sep 2023 05:34:05.000,29.682,0.843,2624.070776
14 Sep 2023 05:34:10.000,30.356,0.680,2641.689965
14 Sep 2023 05:34:15.000,31.022,0.515,2659.600582
14 Sep 2023 05:34:20.000,31.679,0.349,2677.796301
14 Sep 2023 05:34:25.000,32.327,0.181,2696.270865
14 Sep 2023 05:34:30.000,32.967,0.012,2715.018087
14 Sep 2023 05:34:30.365,33.013,0.000,2716.397571
14 Sep 2023 07:07:35.683,330.696,0.000,2716.341616
14 Sep 2023 07:07:40.000,331.188,0.176,2696.845351
14 Sep 2023 07:07:45.000,331.767,0.379,2674.465004
14 Sep 2023 07:07:50.000,332.355,0.582,2652.305731
14 Sep 2023 07:07:55.000,332.953,0.785,2630.373743
14 Sep 2023 07:08:00.000,333.560,0.987,2608.675396
14 Sep 2023 07:08:05.000,334.178,1.188,2587.217182
14 Sep 2023 07:08:10.000,334.805,1.389,2566.005735
14 Sep 2023 07:08:15.000,335.443,1.590,2545.047825
14 Sep 2023 07:08:20.000,336.091,1.789,2524.350364
14 Sep 2023 07:08:25.000,336.749,1.988,2503.920400
14 Sep 2023 07:08:30.000,337.419,2.186,2483.765114
14 Sep 2023 07:08:35.000,338.098,2.383,2463.891824
14 Sep 2023 07:08:40.000,338.789,2.579,2444.307976
14 Sep 2023 07:08:45.000,339.491,2.773,2425.021139
14 Sep 2023 07:08:50.000,340.204,2.966,2406.039013
14 Sep 2023 07:08:55.000,340.928,3.158,2387.369406
14 Sep 2023 07:09:00.000,341.663,3.348,2369.020246
14 Sep 2023 07:09:05.000,342.410,3.536,2350.999561
14 Sep 2023 07:09:10.000,343.168,3.723,2333.315484
14 Sep 2023 07:09:15.000,343.938,3.907,2315.976236
14 Sep 2023 07:09:20.000,344.719,4.089,2298.990118
14 Sep 2023 07:09:25.000,345.512,4.269,2282.365508
14 Sep 2023 07:09:30.000,346.316,4.447,2266.110846
14 Sep 2023 07:09:35.000,347.132,4.622,2250.234620
14 Sep 2023 07:09:40.000,347.960,4.794,2234.745360
14 Sep 2023 07:09:45.000,348.799,4.962,2219.651620
14 Sep 2023 07:09:50.000,349.650,5.128,2204.961963
14 Sep 2023 07:09:55.000,350.512,5.291,2190.684951
14 Sep 2023 07:10:00.000,351.386,5.450,2176.829123
14 Sep 2023 07:10:05.000,352.270,5.605,2163.402982
14 Sep 2023 07:10:10.000,353.166,5.756,2150.414975
14 Sep 2023 07:10:15.000,354.073,5.904,2137.873473
14 Sep 2023 07:10:20.000,354.991,6.046,2125.786754
14 Sep 2023 07:10:25.000,355.919,6.185,2114.162981
14 Sep 2023 07:10:30.000,356.858,6.319,2103.010182
14 Sep 2023 07:10:35.000,357.807,6.447,2092.336224
14 Sep 2023 07:10:40.000,358.765,6.571,2082.148798
14 Sep 2023 07:10:45.000,359.733,6.690,2072.455392
14 Sep 2023 07:10:50.000,0.710,6.803,2063.263268
14 Sep 2023 07:10:55.000,1.696,6.910,2054.579440
14 Sep 2023 07:11:00.000,2.690,7.011,2046.410650
14 Sep 2023 07:11:05.000,3.693,7.107,2038.763350
14 Sep 2023 07:11:10.000,4.703,7.196,2031.643672
14 Sep 2023 07:11:15.000,5.720,7.279,2025.057413
14 Sep 2023 07:11:20.000,6.743,7.356,2019.010010
14 Sep 2023 07:11:25.000,7.773,7.426,2013.506520
14 Sep 2023 07:11:30.000,8.808,7.489,2008.551603
14 Sep 2023 07:11:35.000,9.849,7.545,2004.149500
14 Sep 2023 07:11:40.000,10.894,7.594,2000.304019
14 Sep 2023 07:11:45.000,11.942,7.636,1997.018521
14 Sep 2023 07:11:50.000,12.994,7.671,1994.295901
14 Sep 2023 07:11:55.000,14.049,7.698,1992.138582
14 Sep 2023 07:12:00.000,15.106,7.719,1990.548500
14 Sep 2023 07:12:05.000,16.164,7.732,1989.527098
14 Sep 2023 07:12:10.000,17.223,7.737,1989.075321
14 Sep 2023 07:12:15.000,18.282,7.735,1989.193611
14 Sep 2023 07:12:20.000,19.341,7.726,1989.881905
14 Sep 2023 07:12:25.000,20.399,7.709,1991.139634
14 Sep 2023 07:12:30.000,21.455,7.685,1992.965726
14 Sep 2023 07:12:35.000,22.509,7.654,1995.358617
14 Sep 2023 07:12:40.000,23.559,7.615,1998.316245
14 Sep 2023 07:12:45.000,24.606,7.570,2001.836070
14 Sep 2023 07:12:50.000,25.650,7.517,2005.915079
14 Sep 2023 07:12:55.000,26.688,7.457,2010.549803
14 Sep 2023 07:13:00.000,27.721,7.391,2015.736325
14 Sep 2023 07:13:05.000,28.748,7.317,2021.470302
14 Sep 2023 07:13:10.000,29.769,7.237,2027.746976
14 Sep 2023 07:13:15.000,30.783,7.151,2034.561200
14 Sep 2023 07:13:20.000,31.790,7.058,2041.907538
14 Sep 2023 07:13:25.000,32.789,6.960,2049.779944
14 Sep 2023 07:13:30.000,33.780,6.855,2058.172298
14 Sep 2023 07:13:35.000,34.762,6.745,2067.078080
14 Sep 2023 07:13:40.000,35.736,6.629,2076.490488
14 Sep 2023 07:13:45.000,36.700,6.507,2086.402455
14 Sep 2023 07:13:50.000,37.654,6.380,2096.806676
14 Sep 2023 07:13:55.000,38.599,6.249,2107.695623
14 Sep 2023 07:14:00.000,39.533,6.112,2119.061571
14 Sep 2023 07:14:05.000,40.456,5.971,2130.896627
14 Sep 2023 07:14:10.000,41.370,5.826,2143.192745
14 Sep 2023 07:14:15.000,42.272,5.676,2155.941748
14 Sep 2023 07:14:20.000,43.163,5.522,2169.135349
14 Sep 2023 07:14:25.000,44.043,5.365,2182.765179
14 Sep 2023 07:14:30.000,44.911,5.203,2196.822790
14 Sep 2023 07:14:35.000,45.768,5.039,2211.299695
14 Sep 2023 07:14:40.000,46.614,4.871,2226.187360
14 Sep 2023 07:14:45.000,47.448,4.700,2241.477249
14 Sep 2023 07:14:50.000,48.271,4.526,2257.160814
14 Sep 2023 07:14:55.000,49.081,4.349,2273.229536
14 Sep 2023 07:15:00.000,49.880,4.170,2289.674912
14 Sep 2023 07:15:05.000,50.668,3.988,2306.488485
14 Sep 2023 07:15:10.000,51.444,3.804,2323.661859
14 Sep 2023 07:15:15.000,52.208,3.618,2341.186689
14 Sep 2023 07:15:20.000,52.961,3.430,2359.054719
14 Sep 2023 07:15:25.000,53.702,3.240,2377.257771
14 Sep 2023 07:15:30.000,54.432,3.049,2395.787761
14 Sep 2023 07:15:35.000,55.151,2.855,2414.636705
14 Sep 2023 07:15:40.000,55.858,2.661,2433.796733
14 Sep 2023 07:15:45.000,56.554,2.465,2453.260080
14 Sep 2023 07:15:50.000,57.239,2.268,2473.019099
14 Sep 2023 07:15:55.000,57.914,2.070,2493.066278
14 Sep 2023 07:16:00.000,58.577,1.871,2513.394218
14 Sep 2023 07:16:05.000,59.230,1.671,2533.995659
14 Sep 2023 07:16:10.000,59.873,1.470,2554.863472
14 Sep 2023 07:16:15.000,60.505,1.268,2575.990665
14 Sep 2023 07:16:20.000,61.127,1.066,2597.370381
14 Sep 2023 07:16:25.000,61.739,0.864,2618.995901
14 Sep 2023 07:16:30.000,62.341,0.660,2640.860646
14 Sep 2023 07:16:35.000,62.934,0.457,2662.958172
14 Sep 2023 07:16:40.000,63.517,0.253,2685.282185
14 Sep 2023 07:16:45.000,64.090,0.049,2707.826518
14 Sep 2023 07:16:46.194,64.225,0.000,2713.243811
14 Sep 2023 08:46:47.021,323.296,0.000,2716.168349
14 Sep 2023 08:46:52.000,323.560,0.283,2684.804734
14 Sep 2023 08:46:57.000,323.831,0.570,2653.351256
14 Sep 2023 08:47:02.000,324.108,0.860,2621.944036
14 Sep 2023 08:47:07.000,324.391,1.153,2590.585657
14 Sep 2023 08:47:12.000,324.682,1.450,2559.278827
14 Sep 2023 08:47:17.000,324.978,1.750,2528.026361
14 Sep 2023 08:47:22.000,325.282,2.054,2496.831209
14 Sep 2023 08:47:27.000,325.594,2.361,2465.696444
14 Sep 2023 08:47:32.000,325.913,2.671,2434.625292
14 Sep 2023 08:47:37.000,326.240,2.986,2403.621117
14 Sep 2023 08:47:42.000,326.575,3.304,2372.687444
14 Sep 2023 08:47:47.000,326.919,3.627,2341.827968
14 Sep 2023 08:47:52.000,327.271,3.954,2311.046559
14 Sep 2023 08:47:57.000,327.634,4.285,2280.347274
14 Sep 2023 08:48:02.000,328.005,4.620,2249.734366
14 Sep 2023 08:48:07.000,328.387,4.960,2219.212308
14 Sep 2023 08:48:12.000,328.780,5.305,2188.785790
14 Sep 2023 08:48:17.000,329.183,5.655,2158.459741
14 Sep 2023 08:48:22.000,329.598,6.010,2128.239344
14 Sep 2023 08:48:27.000,330.025,6.369,2098.130049
14 Sep 2023 08:48:32.000,330.465,6.735,2068.137592
14 Sep 2023 08:48:37.000,330.917,7.105,2038.268011
14 Sep 2023 08:48:42.000,331.383,7.482,2008.527666
14 Sep 2023 08:48:47.000,331.864,7.864,1978.923260
14 Sep 2023 08:48:52.000,332.359,8.252,1949.461858
14 Sep 2023 08:48:57.000,332.871,8.647,1920.150912
14 Sep 2023 08:49:02.000,333.398,9.047,1890.998284
14 Sep 2023 08:49:07.000,333.943,9.454,1862.012276
14 Sep 2023 08:49:12.000,334.505,9.868,1833.201646
14 Sep 2023 08:49:17.000,335.087,10.289,1804.575651
14 Sep 2023 08:49:22.000,335.688,10.716,1776.144071
14 Sep 2023 08:49:27.000,336.310,11.151,1747.917238
14 Sep 2023 08:49:32.000,336.954,11.593,1719.906073
14 Sep 2023 08:49:37.000,337.620,12.042,1692.122127
14 Sep 2023 08:49:42.000,338.310,12.499,1664.577607
14 Sep 2023 08:49:47.000,339.026,12.963,1637.285421
14 Sep 2023 08:49:52.000,339.767,13.435,1610.259223
14 Sep 2023 08:49:57.000,340.537,13.915,1583.513445
14 Sep 2023 08:50:02.000,341.335,14.403,1557.063343
14 Sep 2023 08:50:07.000,342.164,14.898,1530.925041
14 Sep 2023 08:50:12.000,343.024,15.401,1505.115577
14 Sep 2023 08:50:17.000,343.919,15.911,1479.652944
14 Sep 2023 08:50:22.000,344.848,16.429,1454.556128
14 Sep 2023 08:50:27.000,345.815,16.954,1429.845161
14 Sep 2023 08:50:32.000,346.820,17.486,1405.541150
14 Sep 2023 08:50:37.000,347.866,18.024,1381.666315
14 Sep 2023 08:50:42.000,348.954,18.568,1358.244025
14 Sep 2023 08:50:47.000,350.087,19.118,1335.298816
14 Sep 2023 08:50:52.000,351.266,19.672,1312.856416
14 Sep 2023 08:50:57.000,352.494,20.230,1290.943746
14 Sep 2023 08:51:02.000,353.772,20.791,1269.588919
14 Sep 2023 08:51:07.000,355.102,21.354,1248.821223
14 Sep 2023 08:51:12.000,356.487,21.917,1228.671085
14 Sep 2023 08:51:17.000,357.928,22.479,1209.170017
14 Sep 2023 08:51:22.000,359.426,23.037,1190.350540
14 Sep 2023 08:51:27.000,0.985,23.591,1172.246085
14 Sep 2023 08:51:32.000,2.604,24.138,1154.890863
14 Sep 2023 08:51:37.000,4.284,24.676,1138.319707
14 Sep 2023 08:51:42.000,6.028,25.202,1122.567883
14 Sep 2023 08:51:47.000,7.835,25.712,1107.670864
14 Sep 2023 08:51:52.000,9.704,26.206,1093.664080
14 Sep 2023 08:51:57.000,11.636,26.678,1080.582623
14 Sep 2023 08:52:02.000,13.629,27.126,1068.460926
14 Sep 2023 08:52:07.000,15.682,27.547,1057.332421
14 Sep 2023 08:52:12.000,17.791,27.937,1047.229166
14 Sep 2023 08:52:17.000,19.954,28.293,1038.181458
14 Sep 2023 08:52:22.000,22.166,28.611,1030.217448
14 Sep 2023 08:52:27.000,24.422,28.889,1023.362742
14 Sep 2023 08:52:32.000,26.718,29.124,1017.640033
14 Sep 2023 08:52:37.000,29.046,29.314,1013.068751
14 Sep 2023 08:52:42.000,31.401,29.455,1009.664749
14 Sep 2023 08:52:47.000,33.773,29.548,1007.440043
14 Sep 2023 08:52:52.000,36.157,29.590,1006.402605
14 Sep 2023 08:52:57.000,38.543,29.581,1006.556227
14 Sep 2023 08:53:02.000,40.925,29.522,1007.900441
14 Sep 2023 08:53:07.000,43.293,29.413,1010.430545
14 Sep 2023 08:53:12.000,45.641,29.255,1014.137681
14 Sep 2023 08:53:17.000,47.961,29.049,1019.008987
14 Sep 2023 08:53:22.000,50.246,28.799,1025.027822
14 Sep 2023 08:53:27.000,52.491,28.506,1032.174032
14 Sep 2023 08:53:32.000,54.689,28.174,1040.424276
14 Sep 2023 08:53:37.000,56.837,27.805,1049.752389
14 Sep 2023 08:53:42.000,58.931,27.403,1060.129739
14 Sep 2023 08:53:47.000,60.967,26.972,1071.525654
14 Sep 2023 08:53:52.000,62.943,26.513,1083.907772
14 Sep 2023 08:53:57.000,64.857,26.032,1097.242452
14 Sep 2023 08:54:02.000,66.709,25.531,1111.495135
14 Sep 2023 08:54:07.000,68.497,25.013,1126.630670
14 Sep 2023 08:54:12.000,70.223,24.481,1142.613643
14 Sep 2023 08:54:17.000,71.885,23.938,1159.408649
14 Sep 2023 08:54:22.000,73.487,23.386,1176.980552
14 Sep 2023 08:54:27.000,75.027,22.828,1195.294689
14 Sep 2023 08:54:32.000,76.509,22.266,1214.317056
14 Sep 2023 08:54:37.000,77.932,21.701,1234.014460
14 Sep 2023 08:54:42.000,79.301,21.135,1254.354637
14 Sep 2023 08:54:47.000,80.615,20.571,1275.306356
14 Sep 2023 08:54:52.000,81.877,20.008,1296.839481
14 Sep 2023 08:54:57.000,83.090,19.449,1318.925022
14 Sep 2023 08:55:02.000,84.254,18.894,1341.535165
14 Sep 2023 08:55:07.000,85.373,18.344,1364.643297
14 Sep 2023 08:55:12.000,86.448,17.799,1388.223983
14 Sep 2023 08:55:17.000,87.480,17.261,1412.252983
14 Sep 2023 08:55:22.000,88.473,16.729,1436.707219
14 Sep 2023 08:55:27.000,89.427,16.204,1461.564746
14 Sep 2023 08:55:32.000,90.344,15.686,1486.804724
14 Sep 2023 08:55:37.000,91.227,15.176,1512.407390
14 Sep 2023 08:55:42.000,92.076,14.674,1538.353997
14 Sep 2023 08:55:47.000,92.894,14.179,1564.626798
14 Sep 2023 08:55:52.000,93.682,13.693,1591.208975
14 Sep 2023 08:55:57.000,94.441,13.213,1618.084622
14 Sep 2023 08:56:02.000,95.173,12.742,1645.238687
14 Sep 2023 08:56:07.000,95.878,12.278,1672.656929
14 Sep 2023 08:56:12.000,96.559,11.822,1700.325883
14 Sep 2023 08:56:17.000,97.216,11.374,1728.232806
14 Sep 2023 08:56:22.000,97.850,10.933,1756.365659
14 Sep 2023 08:56:27.000,98.463,10.499,1784.713046
14 Sep 2023 08:56:32.000,99.056,10.072,1813.264183
14 Sep 2023 08:56:37.000,99.629,9.652,1842.008876
14 Sep 2023 08:56:42.000,100.183,9.239,1870.937479
14 Sep 2023 08:56:47.000,100.719,8.832,1900.040848
14 Sep 2023 08:56:52.000,101.239,8.432,1929.310649
14 Sep 2023 08:56:57.000,101.742,8.038,1958.738069
14 Sep 2023 08:57:02.000,102.230,7.651,1988.315648
14 Sep 2023 08:57:07.000,102.702,7.269,2018.036030
14 Sep 2023 08:57:12.000,103.161,6.893,2047.892236
14 Sep 2023 08:57:17.000,103.606,6.523,2077.877647
14 Sep 2023 08:57:22.000,104.038,6.158,2107.985977
14 Sep 2023 08:57:27.000,104.458,5.799,2138.211261
14 Sep 2023 08:57:32.000,104.865,5.445,2168.547828
14 Sep 2023 08:57:37.000,105.261,5.095,2198.990292
14 Sep 2023 08:57:42.000,105.646,4.751,2229.533529
14 Sep 2023 08:57:47.000,106.021,4.411,2260.172660
14 Sep 2023 08:57:52.000,106.386,4.076,2290.903052
14 Sep 2023 08:57:57.000,106.741,3.745,2321.720283
14 Sep 2023 08:58:02.000,107.086,3.419,2352.620139
14 Sep 2023 08:58:07.000,107.423,3.096,2383.598604
14 Sep 2023 08:58:12.000,107.751,2.778,2414.651852
14 Sep 2023 08:58:17.000,108.071,2.464,2445.776222
14 Sep 2023 08:58:22.000,108.383,2.153,2476.968229
14 Sep 2023 08:58:27.000,108.687,1.846,2508.224533
14 Sep 2023 08:58:32.000,108.984,1.543,2539.541943
14 Sep 2023 08:58:37.000,109.274,1.243,2570.917413
14 Sep 2023 08:58:42.000,109.557,0.946,2602.348019
14 Sep 2023 08:58:47.000,109.833,0.653,2633.830970
14 Sep 2023 08:58:52.000,110.103,0.363,2665.363582
14 Sep 2023 08:58:57.000,110.367,0.076,2696.943295
14 Sep 2023 08:58:58.322,110.436,0.000,2705.298988
14 Sep 2023 10:26:20.127,304.696,0.000,2714.388970
14 Sep 2023 10:26:25.000,304.477,0.282,2683.099998
14 Sep 2023 10:26:30.000,304.247,0.574,2651.034818
14 Sep 2023 10:26:35.000,304.010,0.870,2619.013339
14 Sep 2023 10:26:40.000,303.768,1.169,2587.038080
14 Sep 2023 10:26:45.000,303.518,1.471,2555.111681
14 Sep 2023 10:26:50.000,303.262,1.777,2523.236899
14 Sep 2023 10:26:55.000,302.999,2.087,2491.416607
14 Sep 2023 10:27:00.000,302.729,2.400,2459.653819
14 Sep 2023 10:27:05.000,302.451,2.718,2427.951691
14 Sep 2023 10:27:10.000,302.165,3.039,2396.313515
14 Sep 2023 10:27:15.000,301.871,3.365,2364.742757
14 Sep 2023 10:27:20.000,301.569,3.695,2333.243036
14 Sep 2023 10:27:25.000,301.257,4.029,2301.818163
14 Sep 2023 10:27:30.000,300.936,4.368,2270.472123
14 Sep 2023 10:27:35.000,300.606,4.712,2239.209116
14 Sep 2023 10:27:40.000,300.265,5.060,2208.033542
14 Sep 2023 10:27:45.000,299.914,5.414,2176.950043
14 Sep 2023 10:27:50.000,299.552,5.773,2145.963491
14 Sep 2023 10:27:55.000,299.178,6.138,2115.079015
14 Sep 2023 10:28:00.000,298.792,6.508,2084.302029
14 Sep 2023 10:28:05.000,298.393,6.884,2053.638228
14 Sep 2023 10:28:10.000,297.982,7.266,2023.093621
14 Sep 2023 10:28:15.000,297.556,7.654,1992.674545
14 Sep 2023 10:28:20.000,297.117,8.048,1962.387699
14 Sep 2023 10:28:25.000,296.662,8.449,1932.240150
14 Sep 2023 10:28:30.000,296.191,8.857,1902.239367
14 Sep 2023 10:28:35.000,295.703,9.272,1872.393247
14 Sep 2023 10:28:40.000,295.199,9.694,1842.710145
14 Sep 2023 10:28:45.000,294.675,10.123,1813.198900
14 Sep 2023 10:28:50.000,294.133,10.560,1783.868871
14 Sep 2023 10:28:55.000,293.570,11.005,1754.729963
14 Sep 2023 10:29:00.000,292.987,11.458,1725.792677
14 Sep 2023 10:29:05.000,292.381,11.919,1697.068140
14 Sep 2023 10:29:10.000,291.751,12.388,1668.568138
14 Sep 2023 10:29:15.000,291.097,12.866,1640.305179
14 Sep 2023 10:29:20.000,290.417,13.353,1612.292514
14 Sep 2023 10:29:25.000,289.709,13.848,1584.544206
14 Sep 2023 10:29:30.000,288.973,14.353,1557.075160
14 Sep 2023 10:29:35.000,288.206,14.866,1529.901186
14 Sep 2023 10:29:40.000,287.408,15.389,1503.039042
14 Sep 2023 10:29:45.000,286.576,15.921,1476.506506
14 Sep 2023 10:29:50.000,285.708,16.461,1450.322396
14 Sep 2023 10:29:55.000,284.803,17.011,1424.506657
14 Sep 2023 10:30:00.000,283.859,17.570,1399.080400
14 Sep 2023 10:30:05.000,282.874,18.137,1374.065945
14 Sep 2023 10:30:10.000,281.845,18.712,1349.486892
14 Sep 2023 10:30:15.000,280.771,19.295,1325.368139
14 Sep 2023 10:30:20.000,279.648,19.885,1301.735938
14 Sep 2023 10:30:25.000,278.475,20.482,1278.617917
14 Sep 2023 10:30:30.000,277.250,21.084,1256.043104
14 Sep 2023 10:30:35.000,275.969,21.691,1234.041930
14 Sep 2023 10:30:40.000,274.630,22.300,1212.646218
14 Sep 2023 10:30:45.000,273.232,22.912,1191.889156
14 Sep 2023 10:30:50.000,271.771,23.524,1171.805246
14 Sep 2023 10:30:55.000,270.245,24.133,1152.430227
14 Sep 2023 10:31:00.000,268.653,24.739,1133.800965
14 Sep 2023 10:31:05.000,266.992,25.338,1115.955305
14 Sep 2023 10:31:10.000,265.261,25.928,1098.931898
14 Sep 2023 10:31:15.000,263.458,26.505,1082.769977
14 Sep 2023 10:31:20.000,261.584,27.066,1067.509102
14 Sep 2023 10:31:25.000,259.638,27.608,1053.188835
14 Sep 2023 10:31:30.000,257.619,28.127,1039.848412
14 Sep 2023 10:31:35.000,255.531,28.619,1027.526332
14 Sep 2023 10:31:40.000,253.374,29.080,1016.259956
14 Sep 2023 10:31:45.000,251.152,29.505,1006.085029
14 Sep 2023 10:31:50.000,248.868,29.891,997.035213
14 Sep 2023 10:31:55.000,246.528,30.233,989.141604
14 Sep 2023 10:32:00.000,244.137,30.528,982.432253
14 Sep 2023 10:32:05.000,241.703,30.773,976.931711
14 Sep 2023 10:32:10.000,239.233,30.965,972.660597
14 Sep 2023 10:32:15.000,236.736,31.101,969.635232
14 Sep 2023 10:32:20.000,234.220,31.179,967.867313
14 Sep 2023 10:32:25.000,231.696,31.199,967.363806
14 Sep 2023 10:32:30.000,229.173,31.161,968.126617
14 Sep 2023 10:32:35.000,226.661,31.064,970.152687
14 Sep 2023 10:32:40.000,224.170,30.910,973.434032
14 Sep 2023 10:32:45.000,221.708,30.701,977.957877
14 Sep 2023 10:32:50.000,219.283,30.440,983.706912
14 Sep 2023 10:32:55.000,216.904,30.129,990.659600
14 Sep 2023 10:33:00.000,214.577,29.771,998.790568
14 Sep 2023 10:33:05.000,212.307,29.372,1008.071033
14 Sep 2023 10:33:10.000,210.100,28.934,1018.469274
14 Sep 2023 10:33:15.000,207.959,28.461,1029.951101
14 Sep 2023 10:33:20.000,205.887,27.959,1042.480354
14 Sep 2023 10:33:25.000,203.885,27.431,1056.019359
14 Sep 2023 10:33:30.000,201.955,26.880,1070.529389
14 Sep 2023 10:33:35.000,200.098,26.311,1085.971081
14 Sep 2023 10:33:40.000,198.312,25.728,1102.304813
14 Sep 2023 10:33:45.000,196.597,25.133,1119.491048
14 Sep 2023 10:33:50.000,194.951,24.529,1137.490633
14 Sep 2023 10:33:55.000,193.374,23.919,1156.265047
14 Sep 2023 10:34:00.000,191.863,23.306,1175.776618
14 Sep 2023 10:34:05.000,190.416,22.692,1195.988691
14 Sep 2023 10:34:10.000,189.031,22.078,1216.865767
14 Sep 2023 10:34:15.000,187.705,21.467,1238.373601
14 Sep 2023 10:34:20.000,186.435,20.859,1260.479277
14 Sep 2023 10:34:25.000,185.221,20.256,1283.151252
14 Sep 2023 10:34:30.000,184.058,19.659,1306.359381
14 Sep 2023 10:34:35.000,182.946,19.069,1330.074926
14 Sep 2023 10:34:40.000,181.880,18.486,1354.270543
14 Sep 2023 10:34:45.000,180.859,17.911,1378.920261
14 Sep 2023 10:34:50.000,179.882,17.344,1403.999451
14 Sep 2023 10:34:55.000,178.945,16.786,1429.484784
14 Sep 2023 10:35:00.000,178.046,16.237,1455.354192
14 Sep 2023 10:35:05.000,177.185,15.697,1481.586811
14 Sep 2023 10:35:10.000,176.358,15.166,1508.162935
14 Sep 2023 10:35:15.000,175.564,14.645,1535.063961
14 Sep 2023 10:35:20.000,174.802,14.132,1562.272334
14 Sep 2023 10:35:25.000,174.070,13.629,1589.771493
14 Sep 2023 10:35:30.000,173.365,13.134,1617.545822
14 Sep 2023 10:35:35.000,172.688,12.649,1645.580592
14 Sep 2023 10:35:40.000,172.036,12.172,1673.861917
14 Sep 2023 10:35:45.000,171.409,11.704,1702.376701
14 Sep 2023 10:35:50.000,170.804,11.244,1731.112886
14 Sep 2023 10:35:55.000,170.222,10.792,1760.058238
14 Sep 2023 10:36:00.000,169.660,10.349,1789.202057
14 Sep 2023 10:36:05.000,169.118,9.913,1818.533971
14 Sep 2023 10:36:10.000,168.596,9.485,1848.044186
14 Sep 2023 10:36:15.000,168.091,9.064,1877.723457
14 Sep 2023 10:36:20.000,167.603,8.650,1907.563047
14 Sep 2023 10:36:25.000,167.131,8.244,1937.554700
14 Sep 2023 10:36:30.000,166.675,7.844,1967.690609
14 Sep 2023 10:36:35.000,166.234,7.451,1997.963390
14 Sep 2023 10:36:40.000,165.807,7.064,2028.366052
14 Sep 2023 10:36:45.000,165.394,6.683,2058.891979
14 Sep 2023 10:36:50.000,164.993,6.308,2089.534899
14 Sep 2023 10:36:55.000,164.605,5.939,2120.288871
14 Sep 2023 10:37:00.000,164.229,5.575,2151.148257
14 Sep 2023 10:37:05.000,163.864,5.217,2182.107708
14 Sep 2023 10:37:10.000,163.510,4.864,2213.162145
14 Sep 2023 10:37:15.000,163.166,4.517,2244.306745
14 Sep 2023 10:37:20.000,162.832,4.174,2275.536918
14 Sep 2023 10:37:25.000,162.507,3.836,2306.848306
14 Sep 2023 10:37:30.000,162.192,3.502,2338.236755
14 Sep 2023 10:37:35.000,161.885,3.173,2369.698313
14 Sep 2023 10:37:40.000,161.587,2.849,2401.229213
14 Sep 2023 10:37:45.000,161.297,2.528,2432.825865
14 Sep 2023 10:37:50.000,161.015,2.211,2464.484842
14 Sep 2023 10:37:55.000,160.740,1.899,2496.202876
14 Sep 2023 10:38:00.000,160.472,1.590,2527.976843
14 Sep 2023 10:38:05.000,160.211,1.285,2559.803761
14 Sep 2023 10:38:10.000,159.956,0.983,2591.680774
14 Sep 2023 10:38:15.000,159.708,0.685,2623.605153
14 Sep 2023 10:38:20.000,159.466,0.390,2655.574286
14 Sep 2023 10:38:25.000,159.230,0.099,2687.585667
14 Sep 2023 10:38:26.702,159.151,0.000,2698.490348
15 Sep 2023 00:18:45.266,184.759,0.000,2693.498931
15 Sep 2023 00:18:50.000,184.380,0.248,2666.204084
15 Sep 2023 00:18:55.000,183.971,0.511,2637.487824
15 Sep 2023 00:19:00.000,183.553,0.776,2608.892503
15 Sep 2023 00:19:05.000,183.125,1.043,2580.423008
15 Sep 2023 00:19:10.000,182.688,1.312,2552.084414
15 Sep 2023 00:19:15.000,182.241,1.583,2523.881991
15 Sep 2023 00:19:20.000,181.784,1.856,2495.821213
15 Sep 2023 00:19:25.000,181.316,2.130,2467.907766
15 Sep 2023 00:19:30.000,180.837,2.407,2440.147556
15 Sep 2023 00:19:35.000,180.346,2.685,2412.546719
15 Sep 2023 00:19:40.000,179.844,2.966,2385.111631
15 Sep 2023 00:19:45.000,179.330,3.248,2357.848915
15 Sep 2023 00:19:50.000,178.804,3.533,2330.765454
15 Sep 2023 00:19:55.000,178.264,3.819,2303.868399
15 Sep 2023 00:20:00.000,177.712,4.107,2277.165179
15 Sep 2023 00:20:05.000,177.146,4.397,2250.663514
15 Sep 2023 00:20:10.000,176.566,4.689,2224.371421
15 Sep 2023 00:20:15.000,175.971,4.983,2198.297229
15 Sep 2023 00:20:20.000,175.362,5.278,2172.449587
15 Sep 2023 00:20:25.000,174.737,5.576,2146.837474
15 Sep 2023 00:20:30.000,174.096,5.874,2121.470212
15 Sep 2023 00:20:35.000,173.439,6.175,2096.357474
15 Sep 2023 00:20:40.000,172.765,6.477,2071.509293
15 Sep 2023 00:20:45.000,172.074,6.780,2046.936076
15 Sep 2023 00:20:50.000,171.366,7.085,2022.648605
15 Sep 2023 00:20:55.000,170.639,7.390,1998.658056
15 Sep 2023 00:21:00.000,169.893,7.697,1974.975994
15 Sep 2023 00:21:05.000,169.128,8.005,1951.614389
15 Sep 2023 00:21:10.000,168.343,8.313,1928.585618
15 Sep 2023 00:21:15.000,167.538,8.621,1905.902466
15 Sep 2023 00:21:20.000,166.712,8.930,1883.578132
15 Sep 2023 00:21:25.000,165.865,9.239,1861.626225
15 Sep 2023 00:21:30.000,164.996,9.548,1840.060769
15 Sep 2023 00:21:35.000,164.105,9.856,1818.896191
15 Sep 2023 00:21:40.000,163.191,10.163,1798.147314
15 Sep 2023 00:21:45.000,162.255,10.469,1777.829352
15 Sep 2023 00:21:50.000,161.294,10.773,1757.957895
15 Sep 2023 00:21:55.000,160.310,11.075,1738.548889
15 Sep 2023 00:22:00.000,159.302,11.375,1719.618610
15 Sep 2023 00:22:05.000,158.269,11.672,1701.183652
15 Sep 2023 00:22:10.000,157.212,11.966,1683.260882
15 Sep 2023 00:22:15.000,156.129,12.255,1665.867412
15 Sep 2023 00:22:20.000,155.021,12.540,1649.020557
15 Sep 2023 00:22:25.000,153.889,12.820,1632.737785
15 Sep 2023 00:22:30.000,152.731,13.094,1617.036673
15 Sep 2023 00:22:35.000,151.548,13.362,1601.934840
15 Sep 2023 00:22:40.000,150.340,13.623,1587.449891
15 Sep 2023 00:22:45.000,149.108,13.876,1573.599346
15 Sep 2023 00:22:50.000,147.851,14.120,1560.400560
15 Sep 2023 00:22:55.000,146.571,14.356,1547.870656
15 Sep 2023 00:23:00.000,145.267,14.582,1536.026431
15 Sep 2023 00:23:05.000,143.941,14.797,1524.884271
15 Sep 2023 00:23:10.000,142.594,15.000,1514.460060
15 Sep 2023 00:23:15.000,141.226,15.192,1504.769086
15 Sep 2023 00:23:20.000,139.838,15.371,1495.825949
15 Sep 2023 00:23:25.000,138.432,15.536,1487.644463
15 Sep 2023 00:23:30.000,137.008,15.687,1480.237561
15 Sep 2023 00:23:35.000,135.569,15.824,1473.617203
15 Sep 2023 00:23:40.000,134.116,15.945,1467.794294
15 Sep 2023 00:23:45.000,132.650,16.050,1462.778595
15 Sep 2023 00:23:50.000,131.174,16.140,1458.578648
15 Sep 2023 00:23:55.000,129.688,16.212,1455.201704
15 Sep 2023 00:24:00.000,128.196,16.267,1452.653673
15 Sep 2023 00:24:05.000,126.698,16.305,1450.939064
15 Sep 2023 00:24:10.000,125.197,16.326,1450.060953
15 Sep 2023 00:24:15.000,123.695,16.329,1450.020956
15 Sep 2023 00:24:20.000,122.194,16.315,1450.819217
15 Sep 2023 00:24:25.000,120.696,16.283,1452.454438
15 Sep 2023 00:24:30.000,119.203,16.234,1454.923752
15 Sep 2023 00:24:35.000,117.716,16.168,1458.222954
15 Sep 2023 00:24:40.000,116.238,16.084,1462.346404
15 Sep 2023 00:24:45.000,114.771,15.985,1467.287102
15 Sep 2023 00:24:50.000,113.316,15.870,1473.036759
15 Sep 2023 00:24:55.000,111.875,15.739,1479.585850
15 Sep 2023 00:25:00.000,110.450,15.593,1486.923695
15 Sep 2023 00:25:05.000,109.041,15.433,1495.038538
15 Sep 2023 00:25:10.000,107.651,15.259,1503.917648
15 Sep 2023 00:25:15.000,106.280,15.073,1513.547381
15 Sep 2023 00:25:20.000,104.930,14.874,1523.913313
15 Sep 2023 00:25:25.000,103.602,14.664,1535.000300
15 Sep 2023 00:25:30.000,102.296,14.442,1546.792587
15 Sep 2023 00:25:35.000,101.013,14.211,1559.273909
15 Sep 2023 00:25:40.000,99.753,13.971,1572.427570
15 Sep 2023 00:25:45.000,98.518,13.721,1586.236544
15 Sep 2023 00:25:50.000,97.308,13.464,1600.683539
15 Sep 2023 00:25:55.000,96.123,13.200,1615.751103
15 Sep 2023 00:26:00.000,94.962,12.929,1631.421680
15 Sep 2023 00:26:05.000,93.827,12.652,1647.677686
15 Sep 2023 00:26:10.000,92.718,12.370,1664.501571
15 Sep 2023 00:26:15.000,91.633,12.084,1681.875888
15 Sep 2023 00:26:20.000,90.573,11.793,1699.783325
15 Sep 2023 00:26:25.000,89.539,11.498,1718.206772
15 Sep 2023 00:26:30.000,88.529,11.201,1737.129350
15 Sep 2023 00:26:35.000,87.543,10.901,1756.534464
15 Sep 2023 00:26:40.000,86.582,10.599,1776.405806
15 Sep 2023 00:26:45.000,85.644,10.295,1796.727413
15 Sep 2023 00:26:50.000,84.729,9.989,1817.483663
15 Sep 2023 00:26:55.000,83.837,9.683,1838.659311
15 Sep 2023 00:27:00.000,82.968,9.376,1860.239498
15 Sep 2023 00:27:05.000,82.120,9.068,1882.209759
15 Sep 2023 00:27:10.000,81.294,8.760,1904.556028
15 Sep 2023 00:27:15.000,80.489,8.453,1927.264661
15 Sep 2023 00:27:20.000,79.704,8.146,1950.322409
15 Sep 2023 00:27:25.000,78.940,7.839,1973.716446
15 Sep 2023 00:27:30.000,78.195,7.534,1997.434352
15 Sep 2023 00:27:35.000,77.468,7.229,2021.464114
15 Sep 2023 00:27:40.000,76.761,6.925,2045.794119
15 Sep 2023 00:27:45.000,76.071,6.622,2070.413150
15 Sep 2023 00:27:50.000,75.398,6.321,2095.310379
15 Sep 2023 00:27:55.000,74.743,6.021,2120.475358
15 Sep 2023 00:28:00.000,74.104,5.723,2145.898005
15 Sep 2023 00:28:05.000,73.481,5.426,2171.568614
15 Sep 2023 00:28:10.000,72.874,5.131,2197.477815
15 Sep 2023 00:28:15.000,72.281,4.837,2223.616591
15 Sep 2023 00:28:20.000,71.704,4.546,2249.976259
15 Sep 2023 00:28:25.000,71.140,4.256,2276.548444
15 Sep 2023 00:28:30.000,70.591,3.968,2303.325096
15 Sep 2023 00:28:35.000,70.054,3.682,2330.298458
15 Sep 2023 00:28:40.000,69.531,3.397,2357.461068
15 Sep 2023 00:28:45.000,69.021,3.115,2384.805740
15 Sep 2023 00:28:50.000,68.522,2.835,2412.325559
15 Sep 2023 00:28:55.000,68.035,2.556,2440.013866
15 Sep 2023 00:29:00.000,67.560,2.279,2467.864262
15 Sep 2023 00:29:05.000,67.096,2.005,2495.870580
15 Sep 2023 00:29:10.000,66.643,1.732,2524.026879
15 Sep 2023 00:29:15.000,66.200,1.461,2552.327455
15 Sep 2023 00:29:20.000,65.768,1.192,2580.766803
15 Sep 2023 00:29:25.000,65.345,0.924,2609.339626
15 Sep 2023 00:29:30.000,64.932,0.659,2638.040830
15 Sep 2023 00:29:35.000,64.528,0.395,2666.865497
15 Sep 2023 00:29:40.000,64.133,0.134,2695.808899
15 Sep 2023 00:29:42.564,63.934,0.000,2710.693920
15 Sep 2023 01:57:08.083,235.736,0.000,2698.912657
15 Sep 2023 01:57:13.000,235.867,0.295,2666.377147
15 Sep 2023 01:57:18.000,236.003,0.599,2633.301454
15 Sep 2023 01:57:23.000,236.143,0.906,2600.239511
15 Sep 2023 01:57:28.000,236.286,1.218,2567.192767
15 Sep 2023 01:57:33.000,236.432,1.534,2534.162732
15 Sep 2023 01:57:38.000,236.582,1.854,2501.150985
15 Sep 2023 01:57:43.000,236.736,2.178,2468.159173
15 Sep 2023 01:57:48.000,236.894,2.507,2435.189022
15 Sep 2023 01:57:53.000,237.057,2.841,2402.242337
15 Sep 2023 01:57:58.000,237.223,3.180,2369.321010
15 Sep 2023 01:58:03.000,237.394,3.524,2336.427023
15 Sep 2023 01:58:08.000,237.570,3.874,2303.562460
15 Sep 2023 01:58:13.000,237.751,4.229,2270.729507
15 Sep 2023 01:58:18.000,237.938,4.590,2237.930464
15 Sep 2023 01:58:23.000,238.129,4.957,2205.167755
15 Sep 2023 01:58:28.000,238.327,5.330,2172.443924
15 Sep 2023 01:58:33.000,238.530,5.711,2139.761662
15 Sep 2023 01:58:38.000,238.740,6.098,2107.123807
15 Sep 2023 01:58:43.000,238.956,6.492,2074.533357
15 Sep 2023 01:58:48.000,239.179,6.894,2041.993483
15 Sep 2023 01:58:53.000,239.410,7.304,2009.507539
15 Sep 2023 01:58:58.000,239.648,7.722,1977.079080
15 Sep 2023 01:59:03.000,239.895,8.149,1944.711882
15 Sep 2023 01:59:08.000,240.150,8.585,1912.409940
15 Sep 2023 01:59:13.000,240.414,9.030,1880.177512
15 Sep 2023 01:59:18.000,240.687,9.485,1848.019123
15 Sep 2023 01:59:23.000,240.971,9.951,1815.939597
15 Sep 2023 01:59:28.000,241.265,10.427,1783.944065
15 Sep 2023 01:59:33.000,241.570,10.916,1752.038012
15 Sep 2023 01:59:38.000,241.888,11.416,1720.227298
15 Sep 2023 01:59:43.000,242.218,11.928,1688.518179
15 Sep 2023 01:59:48.000,242.562,12.454,1656.917364
15 Sep 2023 01:59:53.000,242.920,12.994,1625.432040
15 Sep 2023 01:59:58.000,243.294,13.548,1594.069907
15 Sep 2023 02:00:03.000,243.683,14.118,1562.839249
15 Sep 2023 02:00:08.000,244.091,14.704,1531.748960
15 Sep 2023 02:00:13.000,244.517,15.307,1500.808612
15 Sep 2023 02:00:18.000,244.963,15.928,1470.028525
15 Sep 2023 02:00:23.000,245.430,16.568,1439.419818
15 Sep 2023 02:00:28.000,245.921,17.227,1408.994497
15 Sep 2023 02:00:33.000,246.436,17.907,1378.765528
15 Sep 2023 02:00:38.000,246.978,18.609,1348.746943
15 Sep 2023 02:00:43.000,247.549,19.334,1318.953921
15 Sep 2023 02:00:48.000,248.150,20.084,1289.402911
15 Sep 2023 02:00:53.000,248.786,20.858,1260.111734
15 Sep 2023 02:00:58.000,249.458,21.659,1231.099733
15 Sep 2023 02:01:03.000,250.169,22.488,1202.387901
15 Sep 2023 02:01:08.000,250.924,23.346,1173.999041
15 Sep 2023 02:01:13.000,251.726,24.235,1145.957913
15 Sep 2023 02:01:18.000,252.579,25.154,1118.291436
15 Sep 2023 02:01:23.000,253.488,26.107,1091.028850
15 Sep 2023 02:01:28.000,254.458,27.094,1064.201923
15 Sep 2023 02:01:33.000,255.496,28.115,1037.845157
15 Sep 2023 02:01:38.000,256.608,29.172,1011.995985
15 Sep 2023 02:01:43.000,257.802,30.264,986.694989
15 Sep 2023 02:01:48.000,259.085,31.393,961.986082
15 Sep 2023 02:01:53.000,260.468,32.557,937.916714
15 Sep 2023 02:01:58.000,261.961,33.756,914.538006
15 Sep 2023 02:02:03.000,263.574,34.988,891.904879
15 Sep 2023 02:02:08.000,265.322,36.250,870.076094
15 Sep 2023 02:02:13.000,267.218,37.538,849.114251
15 Sep 2023 02:02:18.000,269.277,38.847,829.085636
15 Sep 2023 02:02:23.000,271.516,40.169,810.059976
15 Sep 2023 02:02:28.000,273.952,41.496,792.110012
15 Sep 2023 02:02:33.000,276.602,42.815,775.310897
15 Sep 2023 02:02:38.000,279.484,44.114,759.739378
15 Sep 2023 02:02:43.000,282.613,45.376,745.472752
15 Sep 2023 02:02:48.000,286.002,46.581,732.587584
15 Sep 2023 02:02:53.000,289.658,47.708,721.158206
15 Sep 2023 02:02:58.000,293.582,48.734,711.255042
15 Sep 2023 02:03:03.000,297.765,49.633,702.942799
15 Sep 2023 02:03:08.000,302.183,50.383,696.278605
15 Sep 2023 02:03:13.000,306.803,50.960,691.310221
15 Sep 2023 02:03:18.000,311.575,51.345,688.074407
15 Sep 2023 02:03:23.000,316.440,51.527,686.595745
15 Sep 2023 02:03:28.000,321.330,51.499,686.885489
15 Sep 2023 02:03:33.000,326.174,51.260,688.941313
15 Sep 2023 02:03:38.000,330.908,50.821,692.747353
15 Sep 2023 02:03:43.000,335.474,50.196,698.274800
15 Sep 2023 02:03:48.000,339.826,49.405,705.482960
15 Sep 2023 02:03:53.000,343.935,48.471,714.320674
15 Sep 2023 02:03:58.000,347.781,47.418,724.728008
15 Sep 2023 02:04:03.000,351.359,46.271,736.638073
15 Sep 2023 02:04:08.000,354.672,45.051,749.978879
15 Sep 2023 02:04:13.000,357.728,43.782,764.675106
15 Sep 2023 02:04:18.000,0.541,42.480,780.649735
15 Sep 2023 02:04:23.000,3.127,41.161,797.825473
15 Sep 2023 02:04:28.000,5.504,39.839,816.125954
15 Sep 2023 02:04:33.000,7.690,38.525,835.476707
15 Sep 2023 02:04:38.000,9.701,37.226,855.805902
15 Sep 2023 02:04:43.000,11.553,35.949,877.044889
15 Sep 2023 02:04:48.000,13.262,34.700,899.128560
15 Sep 2023 02:04:53.000,14.840,33.481,921.995566
15 Sep 2023 02:04:58.000,16.301,32.296,945.588399
15 Sep 2023 02:05:03.000,17.655,31.145,969.853399
15 Sep 2023 02:05:08.000,18.913,30.030,994.740667
15 Sep 2023 02:05:13.000,20.083,28.951,1020.203936
15 Sep 2023 02:05:18.000,21.175,27.908,1046.200413
15 Sep 2023 02:05:23.000,22.194,26.900,1072.690577
15 Sep 2023 02:05:28.000,23.148,25.926,1099.637985
15 Sep 2023 02:05:33.000,24.042,24.985,1127.009349
15 Sep 2023 02:05:38.000,24.882,24.077,1154.773191
15 Sep 2023 02:05:43.000,25.672,23.200,1182.901341
15 Sep 2023 02:05:48.000,26.416,22.353,1211.367616
15 Sep 2023 02:05:53.000,27.118,21.534,1240.147922
15 Sep 2023 02:05:58.000,27.781,20.743,1269.220075
15 Sep 2023 02:06:03.000,28.409,19.978,1298.563647
15 Sep 2023 02:06:08.000,29.004,19.238,1328.159814
15 Sep 2023 02:06:13.000,29.569,18.521,1357.991224
15 Sep 2023 02:06:18.000,30.106,17.827,1388.041862
15 Sep 2023 02:06:23.000,30.617,17.155,1418.296945
15 Sep 2023 02:06:28.000,31.103,16.502,1448.742808
15 Sep 2023 02:06:33.000,31.567,15.870,1479.366812
15 Sep 2023 02:06:38.000,32.010,15.256,1510.157256
15 Sep 2023 02:06:43.000,32.434,14.659,1541.103295
15 Sep 2023 02:06:48.000,32.839,14.079,1572.194869
15 Sep 2023 02:06:53.000,33.228,13.515,1603.422641
15 Sep 2023 02:06:58.000,33.600,12.966,1634.777921
15 Sep 2023 02:07:03.000,33.958,12.431,1666.252637
15 Sep 2023 02:07:08.000,34.301,11.910,1697.839255
15 Sep 2023 02:07:13.000,34.631,11.403,1729.530764
15 Sep 2023 02:07:18.000,34.949,10.907,1761.320607
15 Sep 2023 02:07:23.000,35.255,10.423,1793.202668
15 Sep 2023 02:07:28.000,35.551,9.951,1825.171217
15 Sep 2023 02:07:33.000,35.835,9.489,1857.220892
15 Sep 2023 02:07:38.000,36.110,9.038,1889.346672
15 Sep 2023 02:07:43.000,36.376,8.596,1921.543834
15 Sep 2023 02:07:48.000,36.632,8.164,1953.807952
15 Sep 2023 02:07:53.000,36.881,7.740,1986.134860
15 Sep 2023 02:07:58.000,37.121,7.326,2018.520639
15 Sep 2023 02:08:03.000,37.354,6.919,2050.961592
15 Sep 2023 02:08:08.000,37.580,6.520,2083.454236
15 Sep 2023 02:08:13.000,37.800,6.128,2115.995283
15 Sep 2023 02:08:18.000,38.012,5.744,2148.581626
15 Sep 2023 02:08:23.000,38.219,5.367,2181.210324
15 Sep 2023 02:08:28.000,38.420,4.996,2213.878595
15 Sep 2023 02:08:33.000,38.615,4.631,2246.583801
15 Sep 2023 02:08:38.000,38.805,4.273,2279.323442
15 Sep 2023 02:08:43.000,38.990,3.920,2312.095137
15 Sep 2023 02:08:48.000,39.170,3.573,2344.896633
15 Sep 2023 02:08:53.000,39.345,3.231,2377.725781
15 Sep 2023 02:08:58.000,39.516,2.894,2410.580538
15 Sep 2023 02:09:03.000,39.683,2.562,2443.458954
15 Sep 2023 02:09:08.000,39.845,2.235,2476.359173
15 Sep 2023 02:09:13.000,40.004,1.913,2509.279420
15 Sep 2023 02:09:18.000,40.159,1.595,2542.218001
15 Sep 2023 02:09:23.000,40.311,1.281,2575.173296
15 Sep 2023 02:09:28.000,40.459,0.971,2608.143755
15 Sep 2023 02:09:33.000,40.603,0.666,2641.127893
15 Sep 2023 02:09:38.000,40.745,0.364,2674.124285
15 Sep 2023 02:09:43.000,40.884,0.065,2707.131567
15 Sep 2023 02:09:44.096,40.914,0.000,2714.369825
15 Sep 2023 03:38:41.747,282.783,0.000,2708.165028
15 Sep 2023 03:38:46.000,283.213,0.196,2686.533778
15 Sep 2023 03:38:51.000,283.727,0.427,2661.260582
15 Sep 2023 03:38:56.000,284.250,0.658,2636.164098
15 Sep 2023 03:39:01.000,284.784,0.890,2611.250077
15 Sep 2023 03:39:06.000,285.327,1.122,2586.524433
15 Sep 2023 03:39:11.000,285.881,1.355,2561.993255
15 Sep 2023 03:39:16.000,286.445,1.588,2537.662823
15 Sep 2023 03:39:21.000,287.019,1.822,2513.539590
15 Sep 2023 03:39:26.000,287.605,2.056,2489.630201
15 Sep 2023 03:39:31.000,288.202,2.291,2465.941489
15 Sep 2023 03:39:36.000,288.811,2.526,2442.480484
15 Sep 2023 03:39:41.000,289.431,2.761,2419.254415
15 Sep 2023 03:39:46.000,290.063,2.996,2396.270701
15 Sep 2023 03:39:51.000,290.707,3.230,2373.536975
15 Sep 2023 03:39:56.000,291.363,3.465,2351.061070
15 Sep 2023 03:40:01.000,292.033,3.700,2328.851017
15 Sep 2023 03:40:06.000,292.715,3.935,2306.915067
15 Sep 2023 03:40:11.000,293.410,4.169,2285.261666
15 Sep 2023 03:40:16.000,294.119,4.402,2263.899466
15 Sep 2023 03:40:21.000,294.841,4.635,2242.837335
15 Sep 2023 03:40:26.000,295.577,4.867,2222.084334
15 Sep 2023 03:40:31.000,296.327,5.098,2201.649730
15 Sep 2023 03:40:36.000,297.091,5.329,2181.542976
15 Sep 2023 03:40:41.000,297.870,5.557,2161.773727
15 Sep 2023 03:40:46.000,298.663,5.785,2142.351824
15 Sep 2023 03:40:51.000,299.471,6.011,2123.287275
15 Sep 2023 03:40:56.000,300.294,6.235,2104.590272
15 Sep 2023 03:41:01.000,301.132,6.457,2086.271156
15 Sep 2023 03:41:06.000,301.985,6.677,2068.340420
15 Sep 2023 03:41:11.000,302.853,6.894,2050.808691
15 Sep 2023 03:41:16.000,303.737,7.109,2033.686718
15 Sep 2023 03:41:21.000,304.636,7.321,2016.985354
15 Sep 2023 03:41:26.000,305.550,7.530,2000.715540
15 Sep 2023 03:41:31.000,306.480,7.735,1984.888276
15 Sep 2023 03:41:36.000,307.425,7.937,1969.514618
15 Sep 2023 03:41:41.000,308.386,8.134,1954.605634
15 Sep 2023 03:41:46.000,309.362,8.328,1940.172391
15 Sep 2023 03:41:51.000,310.352,8.516,1926.225926
15 Sep 2023 03:41:56.000,311.358,8.700,1912.777208
15 Sep 2023 03:42:01.000,312.379,8.879,1899.837128
15 Sep 2023 03:42:06.000,313.414,9.052,1887.416440
15 Sep 2023 03:42:11.000,314.463,9.219,1875.525753
15 Sep 2023 03:42:16.000,315.526,9.380,1864.175476
15 Sep 2023 03:42:21.000,316.603,9.535,1853.375794
15 Sep 2023 03:42:26.000,317.692,9.683,1843.136619
15 Sep 2023 03:42:31.000,318.795,9.824,1833.467570
15 Sep 2023 03:42:36.000,319.909,9.957,1824.377917
15 Sep 2023 03:42:41.000,321.035,10.083,1815.876552
15 Sep 2023 03:42:46.000,322.172,10.201,1807.971949
15 Sep 2023 03:42:51.000,323.319,10.310,1800.672127
15 Sep 2023 03:42:56.000,324.475,10.411,1793.984606
15 Sep 2023 03:43:01.000,325.641,10.503,1787.916386
15 Sep 2023 03:43:06.000,326.814,10.586,1782.473899
15 Sep 2023 03:43:11.000,327.995,10.660,1777.662983
15 Sep 2023 03:43:16.000,329.182,10.725,1773.488849
15 Sep 2023 03:43:21.000,330.375,10.780,1769.956062
15 Sep 2023 03:43:26.000,331.573,10.825,1767.068504
15 Sep 2023 03:43:31.000,332.774,10.860,1764.829365
15 Sep 2023 03:43:36.000,333.978,10.886,1763.241117
15 Sep 2023 03:43:41.000,335.184,10.901,1762.305509
15 Sep 2023 03:43:46.000,336.391,10.906,1762.023546
15 Sep 2023 03:43:51.000,337.598,10.901,1762.395494
15 Sep 2023 03:43:56.000,338.803,10.886,1763.420872
15 Sep 2023 03:44:01.000,340.007,10.861,1765.098456
15 Sep 2023 03:44:06.000,341.208,10.827,1767.426290
15 Sep 2023 03:44:11.000,342.405,10.782,1770.401689
15 Sep 2023 03:44:16.000,343.597,10.727,1774.021256
15 Sep 2023 03:44:21.000,344.783,10.663,1778.280907
15 Sep 2023 03:44:26.000,345.963,10.590,1783.175933
15 Sep 2023 03:44:31.000,347.136,10.507,1788.700841
15 Sep 2023 03:44:36.000,348.300,10.416,1794.849650
15 Sep 2023 03:44:41.000,349.456,10.315,1801.615755
15 Sep 2023 03:44:46.000,350.602,10.206,1808.991991
15 Sep 2023 03:44:51.000,351.737,10.089,1816.970678
15 Sep 2023 03:44:56.000,352.861,9.964,1825.543646
15 Sep 2023 03:45:01.000,353.974,9.832,1834.702283
15 Sep 2023 03:45:06.000,355.075,9.691,1844.437566
15 Sep 2023 03:45:11.000,356.163,9.544,1854.740102
15 Sep 2023 03:45:16.000,357.238,9.390,1865.600164
15 Sep 2023 03:45:21.000,358.300,9.230,1877.007732
15 Sep 2023 03:45:26.000,359.348,9.064,1888.952532
15 Sep 2023 03:45:31.000,0.381,8.891,1901.424068
15 Sep 2023 03:45:36.000,1.400,8.714,1914.411662
15 Sep 2023 03:45:41.000,2.404,8.531,1927.904488
15 Sep 2023 03:45:46.000,3.394,8.343,1941.891603
15 Sep 2023 03:45:51.000,4.368,8.151,1956.361985
15 Sep 2023 03:45:56.000,5.327,7.954,1971.304554
15 Sep 2023 03:46:01.000,6.271,7.754,1986.708211
15 Sep 2023 03:46:06.000,7.199,7.550,2002.561857
15 Sep 2023 03:46:11.000,8.112,7.342,2018.854420
15 Sep 2023 03:46:16.000,9.010,7.131,2035.574882
15 Sep 2023 03:46:21.000,9.892,6.918,2052.712292
15 Sep 2023 03:46:26.000,10.759,6.702,2070.255795
15 Sep 2023 03:46:31.000,11.611,6.483,2088.194643
15 Sep 2023 03:46:36.000,12.448,6.262,2106.518213
15 Sep 2023 03:46:41.000,13.270,6.039,2125.216021
15 Sep 2023 03:46:46.000,14.077,5.814,2144.277737
15 Sep 2023 03:46:51.000,14.869,5.588,2163.693192
15 Sep 2023 03:46:56.000,15.647,5.361,2183.452389
15 Sep 2023 03:47:01.000,16.411,5.132,2203.545513
15 Sep 2023 03:47:06.000,17.160,4.902,2223.962940
15 Sep 2023 03:47:11.000,17.895,4.671,2244.695231
15 Sep 2023 03:47:16.000,18.617,4.440,2265.733154
15 Sep 2023 03:47:21.000,19.326,4.207,2287.067673
15 Sep 2023 03:47:26.000,20.021,3.975,2308.689960
15 Sep 2023 03:47:31.000,20.703,3.742,2330.591389
15 Sep 2023 03:47:36.000,21.372,3.508,2352.763545
15 Sep 2023 03:47:41.000,22.029,3.275,2375.198219
15 Sep 2023 03:47:46.000,22.673,3.041,2397.887406
15 Sep 2023 03:47:51.000,23.305,2.807,2420.823310
15 Sep 2023 03:47:56.000,23.926,2.574,2443.998340
15 Sep 2023 03:48:01.000,24.535,2.340,2467.405103
15 Sep 2023 03:48:06.000,25.132,2.107,2491.036410
15 Sep 2023 03:48:11.000,25.719,1.874,2514.885266
15 Sep 2023 03:48:16.000,26.294,1.642,2538.944873
15 Sep 2023 03:48:21.000,26.859,1.410,2563.208622
15 Sep 2023 03:48:26.000,27.414,1.178,2587.670090
15 Sep 2023 03:48:31.000,27.958,0.947,2612.323039
15 Sep 2023 03:48:36.000,28.492,0.717,2637.161412
15 Sep 2023 03:48:41.000,29.017,0.487,2662.179322
15 Sep 2023 03:48:46.000,29.532,0.257,2687.371061
15 Sep 2023 03:48:51.000,30.038,0.029,2712.731084
15 Sep 2023 03:48:51.625,30.101,0.000,2715.914181
15 Sep 2023 05:21:22.057,321.129,0.000,2714.633032
15 Sep 2023 05:21:27.000,321.767,0.164,2696.471545
15 Sep 2023 05:21:32.000,322.421,0.329,2678.378559
15 Sep 2023 05:21:37.000,323.084,0.491,2660.569944
15 Sep 2023 05:21:42.000,323.755,0.653,2643.051919
15 Sep 2023 05:21:47.000,324.435,0.813,2625.830764
15 Sep 2023 05:21:52.000,325.124,0.971,2608.912809
15 Sep 2023 05:21:57.000,325.821,1.127,2592.304440
15 Sep 2023 05:22:02.000,326.528,1.281,2576.012085
15 Sep 2023 05:22:07.000,327.243,1.433,2560.042206
15 Sep 2023 05:22:12.000,327.966,1.583,2544.401293
15 Sep 2023 05:22:17.000,328.699,1.731,2529.095867
15 Sep 2023 05:22:22.000,329.440,1.876,2514.132456
15 Sep 2023 05:22:27.000,330.190,2.019,2499.517597
15 Sep 2023 05:22:32.000,330.948,2.160,2485.257823
15 Sep 2023 05:22:37.000,331.715,2.297,2471.359660
15 Sep 2023 05:22:42.000,332.491,2.432,2457.829602
15 Sep 2023 05:22:47.000,333.275,2.564,2444.674122
15 Sep 2023 05:22:52.000,334.067,2.693,2431.899640
15 Sep 2023 05:22:57.000,334.868,2.819,2419.512530
15 Sep 2023 05:23:02.000,335.676,2.941,2407.519094
15 Sep 2023 05:23:07.000,336.493,3.060,2395.925560
15 Sep 2023 05:23:12.000,337.317,3.176,2384.738063
15 Sep 2023 05:23:17.000,338.149,3.287,2373.962639
15 Sep 2023 05:23:22.000,338.989,3.395,2363.605201
15 Sep 2023 05:23:27.000,339.835,3.499,2353.671543
15 Sep 2023 05:23:32.000,340.689,3.600,2344.167307
15 Sep 2023 05:23:37.000,341.550,3.696,2335.097989
15 Sep 2023 05:23:42.000,342.417,3.787,2326.468909
15 Sep 2023 05:23:47.000,343.291,3.875,2318.285209
15 Sep 2023 05:23:52.000,344.170,3.958,2310.551832
15 Sep 2023 05:23:57.000,345.056,4.036,2303.273515
15 Sep 2023 05:24:02.000,345.946,4.110,2296.454777
15 Sep 2023 05:24:07.000,346.843,4.179,2290.099895
15 Sep 2023 05:24:12.000,347.743,4.243,2284.212907
15 Sep 2023 05:24:17.000,348.649,4.302,2278.797590
15 Sep 2023 05:24:22.000,349.559,4.356,2273.857453
15 Sep 2023 05:24:27.000,350.472,4.405,2269.395725
15 Sep 2023 05:24:32.000,351.389,4.449,2265.415348
15 Sep 2023 05:24:37.000,352.309,4.487,2261.918962
15 Sep 2023 05:24:42.000,353.231,4.521,2258.908905
15 Sep 2023 05:24:47.000,354.156,4.549,2256.387196
15 Sep 2023 05:24:52.000,355.083,4.571,2254.355538
15 Sep 2023 05:24:57.000,356.012,4.589,2252.815305
15 Sep 2023 05:25:02.000,356.941,4.600,2251.767542
15 Sep 2023 05:25:07.000,357.871,4.607,2251.212961
15 Sep 2023 05:25:12.000,358.801,4.607,2251.151936
15 Sep 2023 05:25:17.000,359.732,4.603,2251.584504
15 Sep 2023 05:25:22.000,0.661,4.593,2252.510365
15 Sep 2023 05:25:27.000,1.590,4.577,2253.928884
15 Sep 2023 05:25:32.000,2.517,4.556,2255.839088
15 Sep 2023 05:25:37.000,3.443,4.530,2258.239676
15 Sep 2023 05:25:42.000,4.366,4.498,2261.129019
15 Sep 2023 05:25:47.000,5.286,4.461,2264.505164
15 Sep 2023 05:25:52.000,6.204,4.419,2268.365846
15 Sep 2023 05:25:57.000,7.118,4.372,2272.708490
15 Sep 2023 05:26:02.000,8.029,4.319,2277.530219
15 Sep 2023 05:26:07.000,8.936,4.262,2282.827869
15 Sep 2023 05:26:12.000,9.838,4.199,2288.597989
15 Sep 2023 05:26:17.000,10.735,4.132,2294.836860
15 Sep 2023 05:26:22.000,11.627,4.059,2301.540503
15 Sep 2023 05:26:27.000,12.514,3.982,2308.704689
15 Sep 2023 05:26:32.000,13.395,3.901,2316.324952
15 Sep 2023 05:26:37.000,14.270,3.815,2324.396602
15 Sep 2023 05:26:42.000,15.139,3.725,2332.914739
15 Sep 2023 05:26:47.000,16.001,3.630,2341.874262
15 Sep 2023 05:26:52.000,16.857,3.531,2351.269888
15 Sep 2023 05:26:57.000,17.705,3.428,2361.096160
15 Sep 2023 05:27:02.000,18.547,3.321,2371.347463
15 Sep 2023 05:27:07.000,19.381,3.211,2382.018035
15 Sep 2023 05:27:12.000,20.207,3.097,2393.101987
15 Sep 2023 05:27:17.000,21.025,2.979,2404.593429
15 Sep 2023 05:27:22.000,21.836,2.857,2416.486003
15 Sep 2023 05:27:27.000,22.639,2.733,2428.773620
15 Sep 2023 05:27:32.000,23.433,2.605,2441.449988
15 Sep 2023 05:27:37.000,24.219,2.474,2454.508749
15 Sep 2023 05:27:42.000,24.997,2.340,2467.943486
15 Sep 2023 05:27:47.000,25.766,2.204,2481.747740
15 Sep 2023 05:27:52.000,26.527,2.064,2495.915013
15 Sep 2023 05:27:57.000,27.279,1.922,2510.438785
15 Sep 2023 05:28:02.000,28.022,1.778,2525.312523
15 Sep 2023 05:28:07.000,28.757,1.631,2540.529686
15 Sep 2023 05:28:12.000,29.483,1.481,2556.083740
15 Sep 2023 05:28:17.000,30.200,1.330,2571.968163
15 Sep 2023 05:28:22.000,30.908,1.177,2588.176450
15 Sep 2023 05:28:27.000,31.608,1.021,2604.702133
15 Sep 2023 05:28:32.000,32.299,0.864,2621.538770
15 Sep 2023 05:28:37.000,32.981,0.705,2638.679969
15 Sep 2023 05:28:42.000,33.655,0.544,2656.119377
15 Sep 2023 05:28:47.000,34.320,0.382,2673.850704
15 Sep 2023 05:28:52.000,34.976,0.218,2691.867713
15 Sep 2023 05:28:57.000,35.623,0.053,2710.164233
15 Sep 2023 05:28:58.583,35.827,0.000,2716.012545
15 Sep 2023 07:01:47.613,330.442,0.000,2716.155215
15 Sep 2023 07:01:52.000,330.913,0.191,2695.026411
15 Sep 2023 07:01:57.000,331.458,0.408,2671.123623
15 Sep 2023 07:02:02.000,332.013,0.625,2647.416695
15 Sep 2023 07:02:07.000,332.578,0.843,2623.911611
15 Sep 2023 07:02:12.000,333.153,1.060,2600.614514
15 Sep 2023 07:02:17.000,333.738,1.278,2577.531710
15 Sep 2023 07:02:22.000,334.333,1.495,2554.669664
15 Sep 2023 07:02:27.000,334.938,1.713,2532.035011
15 Sep 2023 07:02:32.000,335.554,1.930,2509.634553
15 Sep 2023 07:02:37.000,336.182,2.147,2487.475256
15 Sep 2023 07:02:42.000,336.820,2.364,2465.564260
15 Sep 2023 07:02:47.000,337.469,2.580,2443.908873
15 Sep 2023 07:02:52.000,338.130,2.796,2422.516572
15 Sep 2023 07:02:57.000,338.802,3.011,2401.395004
15 Sep 2023 07:03:02.000,339.487,3.226,2380.551984
15 Sep 2023 07:03:07.000,340.183,3.439,2359.995495
15 Sep 2023 07:03:12.000,340.891,3.652,2339.733683
15 Sep 2023 07:03:17.000,341.612,3.864,2319.774857
15 Sep 2023 07:03:22.000,342.345,4.074,2300.127483
15 Sep 2023 07:03:27.000,343.091,4.283,2280.800181
15 Sep 2023 07:03:32.000,343.850,4.491,2261.801719
15 Sep 2023 07:03:37.000,344.621,4.697,2243.141005
15 Sep 2023 07:03:42.000,345.405,4.901,2224.827085
15 Sep 2023 07:03:47.000,346.203,5.104,2206.869128
15 Sep 2023 07:03:52.000,347.013,5.304,2189.276420
15 Sep 2023 07:03:57.000,347.837,5.502,2172.058354
15 Sep 2023 07:04:02.000,348.674,5.697,2155.224417
15 Sep 2023 07:04:07.000,349.525,5.890,2138.784175
15 Sep 2023 07:04:12.000,350.389,6.079,2122.747265
15 Sep 2023 07:04:17.000,351.266,6.266,2107.123369
15 Sep 2023 07:04:22.000,352.156,6.449,2091.922210
15 Sep 2023 07:04:27.000,353.060,6.629,2077.153522
15 Sep 2023 07:04:32.000,353.976,6.805,2062.827037
15 Sep 2023 07:04:37.000,354.906,6.977,2048.952462
15 Sep 2023 07:04:42.000,355.849,7.144,2035.539457
15 Sep 2023 07:04:47.000,356.804,7.308,2022.597613
15 Sep 2023 07:04:52.000,357.772,7.466,2010.136425
15 Sep 2023 07:04:57.000,358.753,7.619,1998.165266
15 Sep 2023 07:05:02.000,359.745,7.768,1986.693365
15 Sep 2023 07:05:07.000,0.749,7.910,1975.729774
15 Sep 2023 07:05:12.000,1.765,8.047,1965.283341
15 Sep 2023 07:05:17.000,2.792,8.178,1955.362685
15 Sep 2023 07:05:22.000,3.829,8.303,1945.976160
15 Sep 2023 07:05:27.000,4.877,8.421,1937.131832
15 Sep 2023 07:05:32.000,5.934,8.533,1928.837444
15 Sep 2023 07:05:37.000,7.000,8.637,1921.100392
15 Sep 2023 07:05:42.000,8.076,8.735,1913.927689
15 Sep 2023 07:05:47.000,9.159,8.825,1907.325945
15 Sep 2023 07:05:52.000,10.251,8.908,1901.301332
15 Sep 2023 07:05:57.000,11.349,8.983,1895.859564
15 Sep 2023 07:06:02.000,12.453,9.050,1891.005866
15 Sep 2023 07:06:07.000,13.563,9.109,1886.744958
15 Sep 2023 07:06:12.000,14.678,9.159,1883.081024
15 Sep 2023 07:06:17.000,15.798,9.202,1880.017705
15 Sep 2023 07:06:22.000,16.920,9.236,1877.558070
15 Sep 2023 07:06:27.000,18.046,9.262,1875.704610
15 Sep 2023 07:06:32.000,19.173,9.279,1874.459223
15 Sep 2023 07:06:37.000,20.302,9.287,1873.823201
15 Sep 2023 07:06:42.000,21.431,9.287,1873.797234
15 Sep 2023 07:06:47.000,22.560,9.278,1874.381396
15 Sep 2023 07:06:52.000,23.687,9.261,1875.575151
15 Sep 2023 07:06:57.000,24.813,9.235,1877.377352
15 Sep 2023 07:07:02.000,25.936,9.201,1879.786251
15 Sep 2023 07:07:07.000,27.056,9.158,1882.799506
15 Sep 2023 07:07:12.000,28.171,9.107,1886.414185
15 Sep 2023 07:07:17.000,29.282,9.048,1890.626796
15 Sep 2023 07:07:22.000,30.387,8.981,1895.433285
15 Sep 2023 07:07:27.000,31.485,8.905,1900.829068
15 Sep 2023 07:07:32.000,32.577,8.823,1906.809121
15 Sep 2023 07:07:37.000,33.661,8.732,1913.367714
15 Sep 2023 07:07:42.000,34.737,8.634,1920.498861
15 Sep 2023 07:07:47.000,35.805,8.529,1928.196064
15 Sep 2023 07:07:52.000,36.863,8.417,1936.452418
15 Sep 2023 07:07:57.000,37.911,8.299,1945.260634
15 Sep 2023 07:08:02.000,38.949,8.173,1954.613059
15 Sep 2023 07:08:07.000,39.977,8.042,1964.501719
15 Sep 2023 07:08:12.000,40.993,7.905,1974.918347
15 Sep 2023 07:08:17.000,41.998,7.761,1985.854399
15 Sep 2023 07:08:22.000,42.992,7.613,1997.301104
15 Sep 2023 07:08:27.000,43.973,7.459,2009.249470
15 Sep 2023 07:08:32.000,44.942,7.300,2021.690334
15 Sep 2023 07:08:37.000,45.898,7.136,2034.614373
15 Sep 2023 07:08:42.000,46.841,6.968,2048.012148
15 Sep 2023 07:08:47.000,47.772,6.795,2061.874109
15 Sep 2023 07:08:52.000,48.689,6.618,2076.190632
15 Sep 2023 07:08:57.000,49.594,6.438,2090.952046
15 Sep 2023 07:09:02.000,50.485,6.254,2106.148651
15 Sep 2023 07:09:07.000,51.363,6.067,2121.770733
15 Sep 2023 07:09:12.000,52.227,5.876,2137.808595
15 Sep 2023 07:09:17.000,53.078,5.683,2154.252564
15 Sep 2023 07:09:22.000,53.916,5.487,2171.093025
15 Sep 2023 07:09:27.000,54.740,5.288,2188.320412
15 Sep 2023 07:09:32.000,55.551,5.087,2205.925249
15 Sep 2023 07:09:37.000,56.349,4.884,2223.898145
15 Sep 2023 07:09:42.000,57.133,4.679,2242.229815
15 Sep 2023 07:09:47.000,57.905,4.472,2260.911084
15 Sep 2023 07:09:52.000,58.664,4.263,2279.932906
15 Sep 2023 07:09:57.000,59.409,4.053,2299.286358
15 Sep 2023 07:10:02.000,60.143,3.842,2318.962672
15 Sep 2023 07:10:07.000,60.863,3.629,2338.953209
15 Sep 2023 07:10:12.000,61.572,3.416,2359.249495
15 Sep 2023 07:10:17.000,62.268,3.201,2379.843208
15 Sep 2023 07:10:22.000,62.952,2.986,2400.726182
15 Sep 2023 07:10:27.000,63.624,2.770,2421.890420
15 Sep 2023 07:10:32.000,64.284,2.553,2443.328090
15 Sep 2023 07:10:37.000,64.933,2.336,2465.031522
15 Sep 2023 07:10:42.000,65.571,2.118,2486.993227
15 Sep 2023 07:10:47.000,66.197,1.900,2509.205873
15 Sep 2023 07:10:52.000,66.813,1.682,2531.662298
15 Sep 2023 07:10:57.000,67.418,1.463,2554.355521
15 Sep 2023 07:11:02.000,68.012,1.245,2577.278711
15 Sep 2023 07:11:07.000,68.596,1.026,2600.425217
15 Sep 2023 07:11:12.000,69.169,0.807,2623.788554
15 Sep 2023 07:11:17.000,69.733,0.589,2647.362388
15 Sep 2023 07:11:22.000,70.287,0.371,2671.140558
15 Sep 2023 07:11:27.000,70.831,0.152,2695.117057
15 Sep 2023 07:11:30.490,71.206,0.000,2711.968933
15 Sep 2023 08:40:55.672,321.115,0.000,2715.779585
15 Sep 2023 08:41:00.000,321.286,0.253,2687.718746
15 Sep 2023 08:41:05.000,321.488,0.548,2655.321361
15 Sep 2023 08:41:10.000,321.694,0.847,2622.948981
15 Sep 2023 08:41:15.000,321.905,1.149,2590.603478
15 Sep 2023 08:41:20.000,322.121,1.456,2558.286805
15 Sep 2023 08:41:25.000,322.342,1.766,2526.001005
15 Sep 2023 08:41:30.000,322.569,2.080,2493.748205
15 Sep 2023 08:41:35.000,322.801,2.398,2461.530637
15 Sep 2023 08:41:40.000,323.039,2.720,2429.350636
15 Sep 2023 08:41:45.000,323.283,3.047,2397.210651
15 Sep 2023 08:41:50.000,323.533,3.379,2365.113238
15 Sep 2023 08:41:55.000,323.790,3.715,2333.061090
15 Sep 2023 08:42:00.000,324.053,4.056,2301.057031
15 Sep 2023 08:42:05.000,324.324,4.403,2269.104021
15 Sep 2023 08:42:10.000,324.603,4.754,2237.205180
15 Sep 2023 08:42:15.000,324.889,5.112,2205.363790
15 Sep 2023 08:42:20.000,325.183,5.475,2173.583299
15 Sep 2023 08:42:25.000,325.486,5.844,2141.867347
15 Sep 2023 08:42:30.000,325.798,6.219,2110.219772
15 Sep 2023 08:42:35.000,326.119,6.601,2078.644620
15 Sep 2023 08:42:40.000,326.451,6.989,2047.146168
15 Sep 2023 08:42:45.000,326.792,7.384,2015.728932
15 Sep 2023 08:42:50.000,327.145,7.787,1984.397694
15 Sep 2023 08:42:55.000,327.509,8.197,1953.157508
15 Sep 2023 08:43:00.000,327.885,8.615,1922.013737
15 Sep 2023 08:43:05.000,328.274,9.041,1890.972060
15 Sep 2023 08:43:10.000,328.676,9.476,1860.038499
15 Sep 2023 08:43:15.000,329.092,9.920,1829.219457
15 Sep 2023 08:43:20.000,329.523,10.372,1798.521730
15 Sep 2023 08:43:25.000,329.969,10.835,1767.952542
15 Sep 2023 08:43:30.000,330.433,11.307,1737.519588
15 Sep 2023 08:43:35.000,330.913,11.790,1707.231053
15 Sep 2023 08:43:40.000,331.412,12.283,1677.095663
15 Sep 2023 08:43:45.000,331.931,12.787,1647.122719
15 Sep 2023 08:43:50.000,332.470,13.304,1617.322147
15 Sep 2023 08:43:55.000,333.031,13.832,1587.704542
15 Sep 2023 08:44:00.000,333.616,14.372,1558.281223
15 Sep 2023 08:44:05.000,334.225,14.926,1529.064288
15 Sep 2023 08:44:10.000,334.861,15.493,1500.066670
15 Sep 2023 08:44:15.000,335.524,16.074,1471.302210
15 Sep 2023 08:44:20.000,336.217,16.669,1442.785722
15 Sep 2023 08:44:25.000,336.942,17.279,1414.533060
15 Sep 2023 08:44:30.000,337.701,17.904,1386.561210
15 Sep 2023 08:44:35.000,338.496,18.545,1358.888358
15 Sep 2023 08:44:40.000,339.329,19.201,1331.533991
15 Sep 2023 08:44:45.000,340.203,19.874,1304.518975
15 Sep 2023 08:44:50.000,341.121,20.563,1277.865657
15 Sep 2023 08:44:55.000,342.086,21.269,1251.597963
15 Sep 2023 08:45:00.000,343.101,21.992,1225.741493
15 Sep 2023 08:45:05.000,344.169,22.731,1200.323616
15 Sep 2023 08:45:10.000,345.295,23.487,1175.373574
15 Sep 2023 08:45:15.000,346.482,24.258,1150.922566
15 Sep 2023 08:45:20.000,347.734,25.045,1127.003835
15 Sep 2023 08:45:25.000,349.056,25.846,1103.652735
15 Sep 2023 08:45:30.000,350.453,26.661,1080.906788
