xian_to_starlink-1032_Access_AER.csv

"Time (UTCG)","Azimuth (deg)","Elevation (deg)","Range (km)"
14 Sep 2023 14:19:14.971,147.955,0.000,2705.007489
14 Sep 2023 14:19:19.000,147.402,0.114,2692.484591
14 Sep 2023 14:19:24.000,146.709,0.253,2677.246859
14 Sep 2023 14:19:29.000,146.007,0.390,2662.351598
14 Sep 2023 14:19:34.000,145.298,0.525,2647.805098
14 Sep 2023 14:19:39.000,144.581,0.657,2633.613638
14 Sep 2023 14:19:44.000,143.856,0.786,2619.783476
14 Sep 2023 14:19:49.000,143.124,0.913,2606.320850
14 Sep 2023 14:19:54.000,142.384,1.037,2593.231949
14 Sep 2023 14:19:59.000,141.636,1.158,2580.522925
14 Sep 2023 14:20:04.000,140.881,1.276,2568.199861
14 Sep 2023 14:20:09.000,140.119,1.391,2556.268781
14 Sep 2023 14:20:14.000,139.349,1.503,2544.735625
14 Sep 2023 14:20:19.000,138.572,1.611,2533.606244
14 Sep 2023 14:20:24.000,137.789,1.716,2522.886384
14 Sep 2023 14:20:29.000,136.999,1.817,2512.581686
14 Sep 2023 14:20:34.000,136.202,1.915,2502.697653
14 Sep 2023 14:20:39.000,135.399,2.009,2493.239662
14 Sep 2023 14:20:44.000,134.590,2.099,2484.212937
14 Sep 2023 14:20:49.000,133.775,2.185,2475.622540
14 Sep 2023 14:20:54.000,132.954,2.267,2467.473363
14 Sep 2023 14:20:59.000,132.128,2.345,2459.770111
14 Sep 2023 14:21:04.000,131.297,2.419,2452.517291
14 Sep 2023 14:21:09.000,130.461,2.488,2445.719213
14 Sep 2023 14:21:14.000,129.620,2.553,2439.379955
14 Sep 2023 14:21:19.000,128.775,2.614,2433.503375
14 Sep 2023 14:21:24.000,127.925,2.670,2428.093088
14 Sep 2023 14:21:29.000,127.073,2.721,2423.152460
14 Sep 2023 14:21:34.000,126.216,2.768,2418.684598
14 Sep 2023 14:21:39.000,125.357,2.810,2414.692343
14 Sep 2023 14:21:44.000,124.494,2.847,2411.178264
14 Sep 2023 14:21:49.000,123.630,2.880,2408.144637
14 Sep 2023 14:21:54.000,122.763,2.907,2405.593459
14 Sep 2023 14:21:59.000,121.894,2.930,2403.526425
14 Sep 2023 14:22:04.000,121.025,2.947,2401.944931
14 Sep 2023 14:22:09.000,120.154,2.960,2400.850077
14 Sep 2023 14:22:14.000,119.282,2.968,2400.242640
14 Sep 2023 14:22:19.000,118.410,2.971,2400.123100
14 Sep 2023 14:22:24.000,117.539,2.968,2400.491621
14 Sep 2023 14:22:29.000,116.668,2.961,2401.348056
14 Sep 2023 14:22:34.000,115.797,2.949,2402.691943
14 Sep 2023 14:22:39.000,114.928,2.932,2404.522521
14 Sep 2023 14:22:44.000,114.060,2.910,2406.838708
14 Sep 2023 14:22:49.000,113.194,2.882,2409.639129
14 Sep 2023 14:22:54.000,112.331,2.851,2412.922104
14 Sep 2023 14:22:59.000,111.470,2.814,2416.685660
14 Sep 2023 14:23:04.000,110.612,2.772,2420.927535
14 Sep 2023 14:23:09.000,109.757,2.726,2425.645183
14 Sep 2023 14:23:14.000,108.906,2.675,2430.835791
14 Sep 2023 14:23:19.000,108.059,2.619,2436.496269
14 Sep 2023 14:23:24.000,107.216,2.559,2442.623276
14 Sep 2023 14:23:29.000,106.377,2.495,2449.213224
14 Sep 2023 14:23:34.000,105.544,2.426,2456.262279
14 Sep 2023 14:23:39.000,104.715,2.352,2463.766392
14 Sep 2023 14:23:44.000,103.892,2.275,2471.721282
14 Sep 2023 14:23:49.000,103.074,2.193,2480.122476
14 Sep 2023 14:23:54.000,102.262,2.107,2488.965293
14 Sep 2023 14:23:59.000,101.456,2.018,2498.244878
14 Sep 2023 14:24:04.000,100.657,1.924,2507.956202
14 Sep 2023 14:24:09.000,99.863,1.827,2518.094071
14 Sep 2023 14:24:14.000,99.077,1.726,2528.653158
14 Sep 2023 14:24:19.000,98.297,1.622,2539.627982
14 Sep 2023 14:24:24.000,97.525,1.514,2551.012954
14 Sep 2023 14:24:29.000,96.759,1.402,2562.802358
14 Sep 2023 14:24:34.000,96.001,1.288,2574.990387
14 Sep 2023 14:24:39.000,95.251,1.170,2587.571143
14 Sep 2023 14:24:44.000,94.508,1.049,2600.538644
14 Sep 2023 14:24:49.000,93.772,0.926,2613.886852
14 Sep 2023 14:24:54.000,93.044,0.799,2627.609657
14 Sep 2023 14:24:59.000,92.324,0.670,2641.700916
14 Sep 2023 14:25:04.000,91.612,0.538,2656.154603
14 Sep 2023 14:25:09.000,90.908,0.404,2670.964177
14 Sep 2023 14:25:14.000,90.212,0.267,2686.123567
14 Sep 2023 14:25:19.000,89.524,0.128,2701.626532
14 Sep 2023 14:25:23.537,88.907,0.000,2715.986075
14 Sep 2023 15:54:51.324,211.269,0.000,2704.869533
14 Sep 2023 15:54:56.000,211.155,0.281,2673.871260
14 Sep 2023 15:55:01.000,211.030,0.586,2640.738753
14 Sep 2023 15:55:06.000,210.901,0.894,2607.620325
14 Sep 2023 15:55:11.000,210.770,1.206,2574.517473
14 Sep 2023 15:55:16.000,210.634,1.522,2541.431760
14 Sep 2023 15:55:21.000,210.495,1.843,2508.364819
14 Sep 2023 15:55:26.000,210.352,2.168,2475.318356
14 Sep 2023 15:55:31.000,210.205,2.497,2442.294155
14 Sep 2023 15:55:36.000,210.053,2.831,2409.294085
14 Sep 2023 15:55:41.000,209.898,3.171,2376.320104
14 Sep 2023 15:55:46.000,209.737,3.515,2343.374266
14 Sep 2023 15:55:51.000,209.572,3.865,2310.458727
14 Sep 2023 15:55:56.000,209.401,4.221,2277.575750
14 Sep 2023 15:56:01.000,209.225,4.582,2244.727717
14 Sep 2023 15:56:06.000,209.044,4.950,2211.917135
14 Sep 2023 15:56:11.000,208.856,5.324,2179.146644
14 Sep 2023 15:56:16.000,208.663,5.704,2146.419029
14 Sep 2023 15:56:21.000,208.463,6.092,2113.737229
14 Sep 2023 15:56:26.000,208.256,6.487,2081.104347
14 Sep 2023 15:56:31.000,208.042,6.889,2048.523668
14 Sep 2023 15:56:36.000,207.820,7.299,2015.998665
14 Sep 2023 15:56:41.000,207.591,7.717,1983.533021
14 Sep 2023 15:56:46.000,207.353,8.144,1951.130639
14 Sep 2023 15:56:51.000,207.106,8.580,1918.795663
14 Sep 2023 15:56:56.000,206.850,9.026,1886.532499
14 Sep 2023 15:57:01.000,206.585,9.481,1854.345831
14 Sep 2023 15:57:06.000,206.309,9.947,1822.240649
14 Sep 2023 15:57:11.000,206.021,10.423,1790.222266
14 Sep 2023 15:57:16.000,205.723,10.911,1758.296356
14 Sep 2023 15:57:21.000,205.411,11.411,1726.468980
14 Sep 2023 15:57:26.000,205.087,11.923,1694.746611
14 Sep 2023 15:57:31.000,204.749,12.449,1663.136184
14 Sep 2023 15:57:36.000,204.395,12.988,1631.645123
14 Sep 2023 15:57:41.000,204.026,13.541,1600.281395
14 Sep 2023 15:57:46.000,203.640,14.110,1569.053547
14 Sep 2023 15:57:51.000,203.236,14.695,1537.970769
14 Sep 2023 15:57:56.000,202.813,15.297,1507.042943
14 Sep 2023 15:58:01.000,202.369,15.916,1476.280711
14 Sep 2023 15:58:06.000,201.903,16.553,1445.695543
14 Sep 2023 15:58:11.000,201.413,17.210,1415.299811
14 Sep 2023 15:58:16.000,200.898,17.888,1385.106875
14 Sep 2023 15:58:21.000,200.355,18.587,1355.131175
14 Sep 2023 15:58:26.000,199.782,19.309,1325.388327
14 Sep 2023 15:58:31.000,199.177,20.054,1295.895235
14 Sep 2023 15:58:36.000,198.538,20.823,1266.670210
14 Sep 2023 15:58:41.000,197.861,21.619,1237.733099
14 Sep 2023 15:58:46.000,197.143,22.442,1209.105422
14 Sep 2023 15:58:51.000,196.381,23.293,1180.810525
14 Sep 2023 15:58:56.000,195.571,24.173,1152.873743
14 Sep 2023 15:59:01.000,194.708,25.083,1125.322568
14 Sep 2023 15:59:06.000,193.788,26.025,1098.186834
14 Sep 2023 15:59:11.000,192.805,27.000,1071.498904
14 Sep 2023 15:59:16.000,191.753,28.007,1045.293862
14 Sep 2023 15:59:21.000,190.626,29.048,1019.609714
14 Sep 2023 15:59:26.000,189.416,30.122,994.487577
14 Sep 2023 15:59:31.000,188.115,31.230,969.971861
14 Sep 2023 15:59:36.000,186.713,32.371,946.110432
14 Sep 2023 15:59:41.000,185.201,33.543,922.954742
14 Sep 2023 15:59:46.000,183.568,34.745,900.559917
14 Sep 2023 15:59:51.000,181.801,35.973,878.984775
14 Sep 2023 15:59:56.000,179.887,37.222,858.291771
14 Sep 2023 16:00:01.000,177.811,38.488,838.546825
14 Sep 2023 16:00:06.000,175.559,39.762,819.819027
14 Sep 2023 16:00:11.000,173.116,41.036,802.180171
14 Sep 2023 16:00:16.000,170.465,42.297,785.704124
14 Sep 2023 16:00:21.000,167.592,43.533,770.465976
14 Sep 2023 16:00:26.000,164.485,44.726,756.540984
14 Sep 2023 16:00:31.000,161.135,45.859,744.003296
14 Sep 2023 16:00:36.000,157.537,46.912,732.924486
14 Sep 2023 16:00:41.000,153.694,47.862,723.371918
14 Sep 2023 16:00:46.000,149.620,48.687,715.407018
14 Sep 2023 16:00:51.000,145.337,49.366,709.083531
14 Sep 2023 16:00:56.000,140.880,49.879,704.445854
14 Sep 2023 16:01:01.000,136.295,50.210,701.527556
14 Sep 2023 16:01:06.000,131.638,50.350,700.350270
14 Sep 2023 16:01:11.000,126.968,50.292,700.922786
14 Sep 2023 16:01:16.000,122.348,50.039,703.240828
14 Sep 2023 16:01:21.000,117.835,49.600,707.287184
14 Sep 2023 16:01:26.000,113.480,48.989,713.032335
14 Sep 2023 16:01:31.000,109.321,48.223,720.435489
14 Sep 2023 16:01:36.000,105.386,47.325,729.445983
14 Sep 2023 16:01:41.000,101.693,46.315,740.004862
14 Sep 2023 16:01:46.000,98.246,45.215,752.046640
14 Sep 2023 16:01:51.000,95.046,44.048,765.501013
14 Sep 2023 16:01:56.000,92.084,42.832,780.294566
14 Sep 2023 16:02:01.000,89.349,41.584,796.352270
14 Sep 2023 16:02:06.000,86.828,40.319,813.598853
14 Sep 2023 16:02:11.000,84.504,39.048,831.959923
14 Sep 2023 16:02:16.000,82.363,37.783,851.362887
14 Sep 2023 16:02:21.000,80.389,36.531,871.737655
14 Sep 2023 16:02:26.000,78.567,35.298,893.017172
14 Sep 2023 16:02:31.000,76.885,34.090,915.137757
14 Sep 2023 16:02:36.000,75.329,32.910,938.039316
14 Sep 2023 16:02:41.000,73.887,31.760,961.665447
14 Sep 2023 16:02:46.000,72.550,30.643,985.963426
14 Sep 2023 16:02:51.000,71.307,29.558,1010.884156
14 Sep 2023 16:02:56.000,70.151,28.508,1036.382052
14 Sep 2023 16:03:01.000,69.072,27.490,1062.414868
14 Sep 2023 16:03:06.000,68.065,26.506,1088.943549
14 Sep 2023 16:03:11.000,67.124,25.554,1115.932011
14 Sep 2023 16:03:16.000,66.241,24.634,1143.346973
14 Sep 2023 16:03:21.000,65.414,23.744,1171.158043
14 Sep 2023 16:03:26.000,64.636,22.884,1199.336350
14 Sep 2023 16:03:31.000,63.904,22.053,1227.856122
14 Sep 2023 16:03:36.000,63.214,21.249,1256.693342
14 Sep 2023 16:03:41.000,62.564,20.471,1285.825874
14 Sep 2023 16:03:46.000,61.949,19.718,1315.233314
14 Sep 2023 16:03:51.000,61.367,18.989,1344.896828
14 Sep 2023 16:03:56.000,60.816,18.283,1374.799041
14 Sep 2023 16:04:01.000,60.293,17.598,1404.923903
14 Sep 2023 16:04:06.000,59.797,16.935,1435.256582
14 Sep 2023 16:04:11.000,59.325,16.291,1465.783352
14 Sep 2023 16:04:16.000,58.876,15.666,1496.491508
14 Sep 2023 16:04:21.000,58.449,15.059,1527.369283
14 Sep 2023 16:04:26.000,58.041,14.469,1558.405754
14 Sep 2023 16:04:31.000,57.652,13.895,1589.590782
14 Sep 2023 16:04:36.000,57.280,13.336,1620.914950
14 Sep 2023 16:04:41.000,56.925,12.792,1652.369490
14 Sep 2023 16:04:46.000,56.585,12.263,1683.946249
14 Sep 2023 16:04:51.000,56.260,11.746,1715.637612
14 Sep 2023 16:04:56.000,55.948,11.242,1747.436489
14 Sep 2023 16:05:01.000,55.649,10.751,1779.336245
14 Sep 2023 16:05:06.000,55.362,10.270,1811.330686
14 Sep 2023 16:05:11.000,55.086,9.801,1843.414012
14 Sep 2023 16:05:16.000,54.821,9.343,1875.580784
14 Sep 2023 16:05:21.000,54.566,8.894,1907.825906
14 Sep 2023 16:05:26.000,54.321,8.455,1940.144597
14 Sep 2023 16:05:31.000,54.084,8.025,1972.532352
14 Sep 2023 16:05:36.000,53.857,7.604,2004.984946
14 Sep 2023 16:05:41.000,53.638,7.191,2037.498393
14 Sep 2023 16:05:46.000,53.426,6.786,2070.068940
14 Sep 2023 16:05:51.000,53.222,6.389,2102.693044
14 Sep 2023 16:05:56.000,53.025,5.999,2135.367361
14 Sep 2023 16:06:01.000,52.834,5.617,2168.088724
14 Sep 2023 16:06:06.000,52.650,5.241,2200.854142
14 Sep 2023 16:06:11.000,52.472,4.871,2233.660781
14 Sep 2023 16:06:16.000,52.300,4.508,2266.505955
14 Sep 2023 16:06:21.000,52.133,4.150,2299.387112
14 Sep 2023 16:06:26.000,51.972,3.798,2332.301833
14 Sep 2023 16:06:31.000,51.816,3.452,2365.247815
14 Sep 2023 16:06:36.000,51.664,3.111,2398.222867
14 Sep 2023 16:06:41.000,51.517,2.775,2431.224905
14 Sep 2023 16:06:46.000,51.375,2.444,2464.251939
14 Sep 2023 16:06:51.000,51.237,2.117,2497.302075
14 Sep 2023 16:06:56.000,51.103,1.795,2530.373500
14 Sep 2023 16:07:01.000,50.973,1.478,2563.464485
14 Sep 2023 16:07:06.000,50.847,1.164,2596.573375
14 Sep 2023 16:07:11.000,50.724,0.855,2629.698586
14 Sep 2023 16:07:16.000,50.605,0.550,2662.838600
14 Sep 2023 16:07:21.000,50.489,0.248,2695.991963
14 Sep 2023 16:07:25.151,50.396,0.000,2723.525151
14 Sep 2023 17:35:04.826,259.167,0.000,2713.331464
14 Sep 2023 17:35:09.000,259.452,0.228,2688.210869
14 Sep 2023 17:35:14.000,259.800,0.503,2658.188762
14 Sep 2023 17:35:19.000,260.156,0.780,2628.248578
14 Sep 2023 17:35:24.000,260.520,1.059,2598.393946
14 Sep 2023 17:35:29.000,260.892,1.342,2568.628644
14 Sep 2023 17:35:34.000,261.273,1.627,2538.956607
14 Sep 2023 17:35:39.000,261.663,1.914,2509.381931
14 Sep 2023 17:35:44.000,262.062,2.204,2479.908885
14 Sep 2023 17:35:49.000,262.470,2.497,2450.541920
14 Sep 2023 17:35:54.000,262.888,2.793,2421.285678
14 Sep 2023 17:35:59.000,263.316,3.092,2392.144989
14 Sep 2023 17:36:04.000,263.755,3.394,2363.124904
14 Sep 2023 17:36:09.000,264.205,3.699,2334.230690
14 Sep 2023 17:36:14.000,264.666,4.007,2305.467845
14 Sep 2023 17:36:19.000,265.138,4.318,2276.842102
14 Sep 2023 17:36:24.000,265.623,4.632,2248.359460
14 Sep 2023 17:36:29.000,266.121,4.949,2220.026170
14 Sep 2023 17:36:34.000,266.631,5.270,2191.848777
14 Sep 2023 17:36:39.000,267.155,5.594,2163.834106
14 Sep 2023 17:36:44.000,267.692,5.921,2135.989303
14 Sep 2023 17:36:49.000,268.245,6.252,2108.321824
14 Sep 2023 17:36:54.000,268.812,6.586,2080.839469
14 Sep 2023 17:36:59.000,269.395,6.924,2053.550388
14 Sep 2023 17:37:04.000,269.994,7.265,2026.463100
14 Sep 2023 17:37:09.000,270.610,7.610,1999.586520
14 Sep 2023 17:37:14.000,271.243,7.958,1972.929960
14 Sep 2023 17:37:19.000,271.894,8.309,1946.503144
14 Sep 2023 17:37:24.000,272.564,8.664,1920.316247
14 Sep 2023 17:37:29.000,273.254,9.022,1894.379899
14 Sep 2023 17:37:34.000,273.963,9.384,1868.705206
14 Sep 2023 17:37:39.000,274.693,9.749,1843.303758
14 Sep 2023 17:37:44.000,275.445,10.117,1818.187668
14 Sep 2023 17:37:49.000,276.219,10.488,1793.369566
14 Sep 2023 17:37:54.000,277.017,10.862,1768.862637
14 Sep 2023 17:37:59.000,277.838,11.239,1744.680618
14 Sep 2023 17:38:04.000,278.684,11.618,1720.837823
14 Sep 2023 17:38:09.000,279.556,11.999,1697.349154
14 Sep 2023 17:38:14.000,280.454,12.383,1674.230114
14 Sep 2023 17:38:19.000,281.379,12.769,1651.496812
14 Sep 2023 17:38:24.000,282.332,13.155,1629.165962
14 Sep 2023 17:38:29.000,283.315,13.543,1607.254908
14 Sep 2023 17:38:34.000,284.327,13.932,1585.781595
14 Sep 2023 17:38:39.000,285.370,14.320,1564.764575
14 Sep 2023 17:38:44.000,286.444,14.709,1544.223012
14 Sep 2023 17:38:49.000,287.550,15.096,1524.176626
14 Sep 2023 17:38:54.000,288.689,15.481,1504.645703
14 Sep 2023 17:38:59.000,289.862,15.864,1485.651053
14 Sep 2023 17:39:04.000,291.068,16.244,1467.213958
14 Sep 2023 17:39:09.000,292.310,16.620,1449.356147
14 Sep 2023 17:39:14.000,293.586,16.991,1432.099717
14 Sep 2023 17:39:19.000,294.898,17.356,1415.467065
14 Sep 2023 17:39:24.000,296.245,17.714,1399.480827
14 Sep 2023 17:39:29.000,297.628,18.064,1384.163774
14 Sep 2023 17:39:34.000,299.046,18.404,1369.538709
14 Sep 2023 17:39:39.000,300.499,18.734,1355.628359
14 Sep 2023 17:39:44.000,301.987,19.053,1342.455256
14 Sep 2023 17:39:49.000,303.509,19.358,1330.041592
14 Sep 2023 17:39:54.000,305.064,19.649,1318.409088
14 Sep 2023 17:39:59.000,306.652,19.924,1307.578836
14 Sep 2023 17:40:04.000,308.270,20.182,1297.571147
14 Sep 2023 17:40:09.000,309.917,20.422,1288.405391
14 Sep 2023 17:40:14.000,311.591,20.643,1280.099825
14 Sep 2023 17:40:19.000,313.290,20.842,1272.671443
14 Sep 2023 17:40:24.000,315.012,21.020,1266.135804
14 Sep 2023 17:40:29.000,316.755,21.174,1260.506901
14 Sep 2023 17:40:34.000,318.515,21.305,1255.797002
14 Sep 2023 17:40:39.000,320.290,21.411,1252.016522
14 Sep 2023 17:40:44.000,322.077,21.491,1249.173930
14 Sep 2023 17:40:49.000,323.871,21.546,1247.275632
14 Sep 2023 17:40:54.000,325.671,21.574,1246.325919
14 Sep 2023 17:40:59.000,327.473,21.576,1246.326896
14 Sep 2023 17:41:04.000,329.273,21.552,1247.278503
14 Sep 2023 17:41:09.000,331.068,21.501,1249.178445
14 Sep 2023 17:41:14.000,332.855,21.424,1252.022277
14 Sep 2023 17:41:19.000,334.630,21.322,1255.803428
14 Sep 2023 17:41:24.000,336.390,21.195,1260.513282
14 Sep 2023 17:41:29.000,338.133,21.044,1266.141266
14 Sep 2023 17:41:34.000,339.856,20.870,1272.674972
14 Sep 2023 17:41:39.000,341.556,20.674,1280.100278
14 Sep 2023 17:41:44.000,343.231,20.457,1288.401486
14 Sep 2023 17:41:49.000,344.879,20.221,1297.561489
14 Sep 2023 17:41:54.000,346.498,19.966,1307.561912
14 Sep 2023 17:41:59.000,348.086,19.694,1318.383288
14 Sep 2023 17:42:04.000,349.642,19.406,1330.005209
14 Sep 2023 17:42:09.000,351.165,19.104,1342.406499
14 Sep 2023 17:42:14.000,352.654,18.789,1355.565359
14 Sep 2023 17:42:19.000,354.109,18.462,1369.459525
14 Sep 2023 17:42:24.000,355.528,18.124,1384.066409
14 Sep 2023 17:42:29.000,356.912,17.778,1399.363228
14 Sep 2023 17:42:34.000,358.261,17.422,1415.327132
14 Sep 2023 17:42:39.000,359.574,17.060,1431.935313
14 Sep 2023 17:42:44.000,0.852,16.692,1449.165105
14 Sep 2023 17:42:49.000,2.094,16.319,1466.994077
14 Sep 2023 17:42:54.000,3.303,15.942,1485.400110
14 Sep 2023 17:42:59.000,4.477,15.561,1504.361463
14 Sep 2023 17:43:04.000,5.618,15.178,1523.856834
14 Sep 2023 17:43:09.000,6.726,14.794,1543.865409
14 Sep 2023 17:43:14.000,7.802,14.408,1564.366897
14 Sep 2023 17:43:19.000,8.847,14.021,1585.341563
14 Sep 2023 17:43:24.000,9.861,13.635,1606.770257
14 Sep 2023 17:43:29.000,10.846,13.249,1628.634421
14 Sep 2023 17:43:34.000,11.801,12.865,1650.916113
14 Sep 2023 17:43:39.000,12.729,12.481,1673.598000
14 Sep 2023 17:43:44.000,13.629,12.100,1696.663367
14 Sep 2023 17:43:49.000,14.503,11.720,1720.096117
14 Sep 2023 17:43:54.000,15.352,11.342,1743.880756
14 Sep 2023 17:43:59.000,16.175,10.968,1768.002392
14 Sep 2023 17:44:04.000,16.975,10.595,1792.446721
14 Sep 2023 17:44:09.000,17.752,10.226,1817.200014
14 Sep 2023 17:44:14.000,18.507,9.860,1842.249103
14 Sep 2023 17:44:19.000,19.240,9.497,1867.581363
14 Sep 2023 17:44:24.000,19.952,9.137,1893.184701
14 Sep 2023 17:44:29.000,20.644,8.780,1919.047531
14 Sep 2023 17:44:34.000,21.317,8.426,1945.158762
14 Sep 2023 17:44:39.000,21.972,8.077,1971.507780
14 Sep 2023 17:44:44.000,22.608,7.730,1998.084422
14 Sep 2023 17:44:49.000,23.227,7.387,2024.878969
14 Sep 2023 17:44:54.000,23.830,7.047,2051.882121
14 Sep 2023 17:44:59.000,24.416,6.711,2079.084984
14 Sep 2023 17:45:04.000,24.987,6.378,2106.479047
14 Sep 2023 17:45:09.000,25.542,6.049,2134.056171
14 Sep 2023 17:45:14.000,26.084,5.723,2161.808566
14 Sep 2023 17:45:19.000,26.611,5.400,2189.728787
14 Sep 2023 17:45:24.000,27.125,5.081,2217.809704
14 Sep 2023 17:45:29.000,27.626,4.764,2246.044496
14 Sep 2023 17:45:34.000,28.115,4.452,2274.426638
14 Sep 2023 17:45:39.000,28.592,4.142,2302.949881
14 Sep 2023 17:45:44.000,29.056,3.835,2331.608243
14 Sep 2023 17:45:49.000,29.510,3.531,2360.395995
14 Sep 2023 17:45:54.000,29.953,3.231,2389.307655
14 Sep 2023 17:45:59.000,30.386,2.933,2418.337963
14 Sep 2023 17:46:04.000,30.808,2.639,2447.481883
14 Sep 2023 17:46:09.000,31.221,2.347,2476.734589
14 Sep 2023 17:46:14.000,31.624,2.057,2506.091449
14 Sep 2023 17:46:19.000,32.018,1.771,2535.548024
14 Sep 2023 17:46:24.000,32.404,1.487,2565.100055
14 Sep 2023 17:46:29.000,32.781,1.206,2594.743453
14 Sep 2023 17:46:34.000,33.149,0.928,2624.474294
14 Sep 2023 17:46:39.000,33.510,0.652,2654.288812
14 Sep 2023 17:46:44.000,33.863,0.378,2684.183381
14 Sep 2023 17:46:49.000,34.209,0.107,2714.154524
14 Sep 2023 17:46:50.977,34.344,0.000,2726.026789
14 Sep 2023 19:17:40.940,304.132,0.000,2722.495792
14 Sep 2023 19:17:45.000,304.620,0.153,2705.519934
14 Sep 2023 19:17:50.000,305.229,0.342,2684.835795
14 Sep 2023 19:17:55.000,305.848,0.529,2664.399956
14 Sep 2023 19:18:00.000,306.476,0.716,2644.218702
14 Sep 2023 19:18:05.000,307.113,0.901,2624.298422
14 Sep 2023 19:18:10.000,307.759,1.086,2604.645616
14 Sep 2023 19:18:15.000,308.416,1.269,2585.266881
14 Sep 2023 19:18:20.000,309.082,1.451,2566.168924
14 Sep 2023 19:18:25.000,309.757,1.632,2547.358541
14 Sep 2023 19:18:30.000,310.443,1.812,2528.842633
14 Sep 2023 19:18:35.000,311.139,1.990,2510.628184
14 Sep 2023 19:18:40.000,311.844,2.166,2492.722262
14 Sep 2023 19:18:45.000,312.560,2.341,2475.132017
14 Sep 2023 19:18:50.000,313.285,2.514,2457.864671
14 Sep 2023 19:18:55.000,314.021,2.684,2440.927515
14 Sep 2023 19:19:00.000,314.767,2.853,2424.327889
14 Sep 2023 19:19:05.000,315.523,3.020,2408.073194
14 Sep 2023 19:19:10.000,316.289,3.184,2392.170870
14 Sep 2023 19:19:15.000,317.066,3.346,2376.628387
14 Sep 2023 19:19:20.000,317.852,3.505,2361.453236
14 Sep 2023 19:19:25.000,318.649,3.661,2346.652922
14 Sep 2023 19:19:30.000,319.455,3.814,2332.234949
14 Sep 2023 19:19:35.000,320.272,3.965,2318.206806
14 Sep 2023 19:19:40.000,321.099,4.112,2304.575962
14 Sep 2023 19:19:45.000,321.935,4.256,2291.349836
14 Sep 2023 19:19:50.000,322.781,4.396,2278.535806
14 Sep 2023 19:19:55.000,323.636,4.533,2266.141169
14 Sep 2023 19:20:00.000,324.501,4.665,2254.173151
14 Sep 2023 19:20:05.000,325.375,4.794,2242.638869
14 Sep 2023 19:20:10.000,326.259,4.919,2231.545327
14 Sep 2023 19:20:15.000,327.150,5.039,2220.899393
14 Sep 2023 19:20:20.000,328.051,5.155,2210.707790
14 Sep 2023 19:20:25.000,328.960,5.267,2200.977067
14 Sep 2023 19:20:30.000,329.877,5.373,2191.713596
14 Sep 2023 19:20:35.000,330.801,5.475,2182.923539
14 Sep 2023 19:20:40.000,331.733,5.572,2174.612839
14 Sep 2023 19:20:45.000,332.672,5.663,2166.787206
14 Sep 2023 19:20:50.000,333.618,5.749,2159.452085
14 Sep 2023 19:20:55.000,334.571,5.830,2152.612659
14 Sep 2023 19:21:00.000,335.529,5.905,2146.273813
14 Sep 2023 19:21:05.000,336.493,5.975,2140.440136
14 Sep 2023 19:21:10.000,337.462,6.038,2135.115891
14 Sep 2023 19:21:15.000,338.436,6.096,2130.305005
14 Sep 2023 19:21:20.000,339.414,6.148,2126.011061
14 Sep 2023 19:21:25.000,340.396,6.194,2122.237279
14 Sep 2023 19:21:30.000,341.381,6.233,2118.986507
14 Sep 2023 19:21:35.000,342.369,6.266,2116.261208
14 Sep 2023 19:21:40.000,343.360,6.293,2114.063455
14 Sep 2023 19:21:45.000,344.352,6.314,2112.394921
14 Sep 2023 19:21:50.000,345.346,6.328,2111.256874
14 Sep 2023 19:21:55.000,346.340,6.336,2110.650170
14 Sep 2023 19:22:00.000,347.335,6.337,2110.575250
14 Sep 2023 19:22:05.000,348.330,6.332,2111.032141
14 Sep 2023 19:22:10.000,349.324,6.321,2112.020455
14 Sep 2023 19:22:15.000,350.317,6.303,2113.539386
14 Sep 2023 19:22:20.000,351.308,6.279,2115.587722
14 Sep 2023 19:22:25.000,352.297,6.249,2118.163840
14 Sep 2023 19:22:30.000,353.283,6.212,2121.265716
14 Sep 2023 19:22:35.000,354.266,6.169,2124.890935
14 Sep 2023 19:22:40.000,355.245,6.120,2129.036697
14 Sep 2023 19:22:45.000,356.220,6.065,2133.699825
14 Sep 2023 19:22:50.000,357.191,6.004,2138.876781
14 Sep 2023 19:22:55.000,358.156,5.937,2144.563677
14 Sep 2023 19:23:00.000,359.116,5.865,2150.756286
14 Sep 2023 19:23:05.000,0.070,5.787,2157.450059
14 Sep 2023 19:23:10.000,1.018,5.703,2164.640139
14 Sep 2023 19:23:15.000,1.959,5.614,2172.321378
14 Sep 2023 19:23:20.000,2.893,5.520,2180.488352
14 Sep 2023 19:23:25.000,3.820,5.420,2189.135378
14 Sep 2023 19:23:30.000,4.739,5.316,2198.256630
14 Sep 2023 19:23:35.000,5.650,5.207,2207.845774
14 Sep 2023 19:23:40.000,6.553,5.093,2217.896549
14 Sep 2023 19:23:45.000,7.448,4.975,2228.402415
14 Sep 2023 19:23:50.000,8.333,4.853,2239.356659
14 Sep 2023 19:23:55.000,9.210,4.726,2250.752419
14 Sep 2023 19:24:00.000,10.078,4.595,2262.582692
14 Sep 2023 19:24:05.000,10.936,4.461,2274.840361
14 Sep 2023 19:24:10.000,11.785,4.323,2287.518204
14 Sep 2023 19:24:15.000,12.624,4.181,2300.608911
14 Sep 2023 19:24:20.000,13.454,4.036,2314.105106
14 Sep 2023 19:24:25.000,14.274,3.887,2327.999353
14 Sep 2023 19:24:30.000,15.083,3.735,2342.284175
14 Sep 2023 19:24:35.000,15.883,3.581,2356.952067
14 Sep 2023 19:24:40.000,16.673,3.424,2371.995511
14 Sep 2023 19:24:45.000,17.453,3.264,2387.406985
14 Sep 2023 19:24:50.000,18.222,3.101,2403.178976
14 Sep 2023 19:24:55.000,18.981,2.936,2419.303994
14 Sep 2023 19:25:00.000,19.731,2.769,2435.774579
14 Sep 2023 19:25:05.000,20.470,2.600,2452.583307
14 Sep 2023 19:25:10.000,21.199,2.429,2469.722810
14 Sep 2023 19:25:15.000,21.918,2.255,2487.185773
14 Sep 2023 19:25:20.000,22.627,2.080,2504.964947
14 Sep 2023 19:25:25.000,23.326,1.904,2523.053156
14 Sep 2023 19:25:30.000,24.015,1.726,2541.443303
14 Sep 2023 19:25:35.000,24.694,1.546,2560.128373
14 Sep 2023 19:25:40.000,25.363,1.365,2579.101440
14 Sep 2023 19:25:45.000,26.023,1.183,2598.355678
14 Sep 2023 19:25:50.000,26.673,1.000,2617.884349
14 Sep 2023 19:25:55.000,27.314,0.815,2637.680826
14 Sep 2023 19:26:00.000,27.945,0.630,2657.738579
14 Sep 2023 19:26:05.000,28.567,0.444,2678.051191
14 Sep 2023 19:26:10.000,29.180,0.256,2698.612348
14 Sep 2023 19:26:15.000,29.784,0.069,2719.415852
14 Sep 2023 19:26:16.822,30.001,0.000,2727.053780
14 Sep 2023 20:59:33.024,329.111,0.000,2726.498944
14 Sep 2023 20:59:38.000,329.726,0.179,2706.687259
14 Sep 2023 20:59:43.000,330.353,0.357,2687.033874
14 Sep 2023 20:59:48.000,330.988,0.535,2667.641164
14 Sep 2023 20:59:53.000,331.633,0.711,2648.515386
14 Sep 2023 20:59:58.000,332.286,0.886,2629.662897
14 Sep 2023 21:00:03.000,332.949,1.060,2611.090135
14 Sep 2023 21:00:08.000,333.621,1.233,2592.803626
14 Sep 2023 21:00:13.000,334.302,1.403,2574.809974
14 Sep 2023 21:00:18.000,334.993,1.573,2557.115859
14 Sep 2023 21:00:23.000,335.693,1.740,2539.728034
14 Sep 2023 21:00:28.000,336.402,1.906,2522.653314
14 Sep 2023 21:00:33.000,337.121,2.070,2505.898573
14 Sep 2023 21:00:38.000,337.850,2.232,2489.470740
14 Sep 2023 21:00:43.000,338.588,2.392,2473.376782
14 Sep 2023 21:00:48.000,339.335,2.549,2457.623711
14 Sep 2023 21:00:53.000,340.092,2.704,2442.218559
14 Sep 2023 21:00:58.000,340.858,2.857,2427.168383
14 Sep 2023 21:01:03.000,341.634,3.007,2412.480246
14 Sep 2023 21:01:08.000,342.419,3.154,2398.161213
14 Sep 2023 21:01:13.000,343.214,3.298,2384.218334
14 Sep 2023 21:01:18.000,344.017,3.439,2370.658640
14 Sep 2023 21:01:23.000,344.830,3.577,2357.489121
14 Sep 2023 21:01:28.000,345.652,3.712,2344.716726
14 Sep 2023 21:01:33.000,346.483,3.843,2332.348339
14 Sep 2023 21:01:38.000,347.322,3.971,2320.390769
14 Sep 2023 21:01:43.000,348.171,4.095,2308.850738
14 Sep 2023 21:01:48.000,349.027,4.215,2297.734867
14 Sep 2023 21:01:53.000,349.892,4.332,2287.049656
14 Sep 2023 21:01:58.000,350.765,4.444,2276.801474
14 Sep 2023 21:02:03.000,351.646,4.551,2266.996542
14 Sep 2023 21:02:08.000,352.534,4.655,2257.640918
14 Sep 2023 21:02:13.000,353.430,4.754,2248.740479
14 Sep 2023 21:02:18.000,354.332,4.848,2240.300909
14 Sep 2023 21:02:23.000,355.242,4.937,2232.327681
14 Sep 2023 21:02:28.000,356.158,5.022,2224.826041
14 Sep 2023 21:02:33.000,357.080,5.101,2217.800998
14 Sep 2023 21:02:38.000,358.007,5.175,2211.257302
14 Sep 2023 21:02:43.000,358.941,5.244,2205.199433
14 Sep 2023 21:02:48.000,359.879,5.308,2199.631589
14 Sep 2023 21:02:53.000,0.822,5.366,2194.557669
14 Sep 2023 21:02:58.000,1.769,5.418,2189.981264
14 Sep 2023 21:03:03.000,2.720,5.465,2185.905642
14 Sep 2023 21:03:08.000,3.674,5.506,2182.333739
14 Sep 2023 21:03:13.000,4.631,5.542,2179.268149
14 Sep 2023 21:03:18.000,5.591,5.571,2176.711117
14 Sep 2023 21:03:23.000,6.553,5.595,2174.664524
14 Sep 2023 21:03:28.000,7.517,5.612,2173.129892
14 Sep 2023 21:03:33.000,8.481,5.624,2172.108368
14 Sep 2023 21:03:38.000,9.447,5.630,2171.600726
14 Sep 2023 21:03:43.000,10.412,5.630,2171.607364
14 Sep 2023 21:03:48.000,11.378,5.624,2172.128298
14 Sep 2023 21:03:53.000,12.342,5.612,2173.163169
14 Sep 2023 21:03:58.000,13.306,5.594,2174.711237
14 Sep 2023 21:04:03.000,14.268,5.570,2176.771391
14 Sep 2023 21:04:08.000,15.228,5.540,2179.342146
14 Sep 2023 21:04:13.000,16.185,5.504,2182.421653
14 Sep 2023 21:04:18.000,17.139,5.462,2186.007704
14 Sep 2023 21:04:23.000,18.090,5.415,2190.097737
14 Sep 2023 21:04:28.000,19.037,5.362,2194.688852
14 Sep 2023 21:04:33.000,19.980,5.304,2199.777811
14 Sep 2023 21:04:38.000,20.918,5.240,2205.361059
14 Sep 2023 21:04:43.000,21.851,5.171,2211.434725
14 Sep 2023 21:04:48.000,22.778,5.096,2217.994643
14 Sep 2023 21:04:53.000,23.700,5.016,2225.036362
14 Sep 2023 21:04:58.000,24.616,4.932,2232.555163
14 Sep 2023 21:05:03.000,25.525,4.842,2240.546064
14 Sep 2023 21:05:08.000,26.428,4.748,2249.003848
14 Sep 2023 21:05:13.000,27.323,4.648,2257.923065
14 Sep 2023 21:05:18.000,28.211,4.545,2267.298059
14 Sep 2023 21:05:23.000,29.092,4.436,2277.122974
14 Sep 2023 21:05:28.000,29.965,4.324,2287.391896
14 Sep 2023 21:05:33.000,30.829,4.208,2298.098397
14 Sep 2023 21:05:38.000,31.686,4.087,2309.236239
14 Sep 2023 21:05:43.000,32.533,3.963,2320.798944
14 Sep 2023 21:05:48.000,33.373,3.834,2332.779910
14 Sep 2023 21:05:53.000,34.203,3.703,2345.172435
14 Sep 2023 21:05:58.000,35.025,3.567,2357.969726
14 Sep 2023 21:06:03.000,35.837,3.429,2371.164914
14 Sep 2023 21:06:08.000,36.641,3.287,2384.751067
14 Sep 2023 21:06:13.000,37.435,3.143,2398.721208
14 Sep 2023 21:06:18.000,38.219,2.995,2413.068325
14 Sep 2023 21:06:23.000,38.995,2.845,2427.785375
14 Sep 2023 21:06:28.000,39.761,2.692,2442.865307
14 Sep 2023 21:06:33.000,40.517,2.536,2458.301070
14 Sep 2023 21:06:38.000,41.264,2.379,2474.085618
14 Sep 2023 21:06:43.000,42.001,2.218,2490.211923
14 Sep 2023 21:06:48.000,42.729,2.056,2506.672991
14 Sep 2023 21:06:53.000,43.448,1.892,2523.461854
14 Sep 2023 21:06:58.000,44.156,1.726,2540.571598
14 Sep 2023 21:07:03.000,44.856,1.558,2557.995351
14 Sep 2023 21:07:08.000,45.546,1.388,2575.726305
14 Sep 2023 21:07:13.000,46.226,1.217,2593.757715
14 Sep 2023 21:07:18.000,46.898,1.044,2612.082906
14 Sep 2023 21:07:23.000,47.560,0.870,2630.695276
14 Sep 2023 21:07:28.000,48.213,0.694,2649.588305
14 Sep 2023 21:07:33.000,48.856,0.517,2668.755553
14 Sep 2023 21:07:38.000,49.491,0.339,2688.190677
14 Sep 2023 21:07:43.000,50.117,0.160,2707.887412
14 Sep 2023 21:07:47.455,50.667,0.000,2725.653835
14 Sep 2023 22:39:07.653,327.045,0.000,2726.966466
14 Sep 2023 22:39:12.000,327.385,0.226,2701.886169
14 Sep 2023 22:39:17.000,327.783,0.488,2673.132606
14 Sep 2023 22:39:22.000,328.190,0.752,2644.481821
14 Sep 2023 22:39:27.000,328.605,1.017,2615.938019
14 Sep 2023 22:39:32.000,329.029,1.285,2587.505558
14 Sep 2023 22:39:37.000,329.462,1.555,2559.188971
14 Sep 2023 22:39:42.000,329.904,1.826,2530.992960
14 Sep 2023 22:39:47.000,330.356,2.100,2502.922417
14 Sep 2023 22:39:52.000,330.818,2.376,2474.982418
14 Sep 2023 22:39:57.000,331.291,2.654,2447.178245
14 Sep 2023 22:40:02.000,331.774,2.934,2419.515385
14 Sep 2023 22:40:07.000,332.268,3.217,2391.999540
14 Sep 2023 22:40:12.000,332.773,3.501,2364.636641
14 Sep 2023 22:40:17.000,333.290,3.788,2337.432852
14 Sep 2023 22:40:22.000,333.819,4.077,2310.394587
14 Sep 2023 22:40:27.000,334.361,4.368,2283.528510
14 Sep 2023 22:40:32.000,334.915,4.661,2256.841555
14 Sep 2023 22:40:37.000,335.483,4.956,2230.340929
14 Sep 2023 22:40:42.000,336.064,5.254,2204.034126
14 Sep 2023 22:40:47.000,336.660,5.553,2177.928940
14 Sep 2023 22:40:52.000,337.270,5.855,2152.033471
14 Sep 2023 22:40:57.000,337.895,6.159,2126.356143
14 Sep 2023 22:41:02.000,338.535,6.465,2100.905706
14 Sep 2023 22:41:07.000,339.192,6.772,2075.691255
14 Sep 2023 22:41:12.000,339.865,7.082,2050.722237
14 Sep 2023 22:41:17.000,340.555,7.393,2026.008463
14 Sep 2023 22:41:22.000,341.263,7.707,2001.560119
14 Sep 2023 22:41:27.000,341.989,8.021,1977.387772
14 Sep 2023 22:41:32.000,342.733,8.338,1953.502385
14 Sep 2023 22:41:37.000,343.496,8.655,1929.915323
14 Sep 2023 22:41:42.000,344.279,8.974,1906.638358
14 Sep 2023 22:41:47.000,345.083,9.294,1883.683681
14 Sep 2023 22:41:52.000,345.906,9.615,1861.063905
14 Sep 2023 22:41:57.000,346.752,9.936,1838.792064
14 Sep 2023 22:42:02.000,347.619,10.257,1816.881624
14 Sep 2023 22:42:07.000,348.508,10.579,1795.346474
14 Sep 2023 22:42:12.000,349.421,10.900,1774.200931
14 Sep 2023 22:42:17.000,350.356,11.221,1753.459730
14 Sep 2023 22:42:22.000,351.316,11.541,1733.138015
14 Sep 2023 22:42:27.000,352.300,11.860,1713.251334
14 Sep 2023 22:42:32.000,353.308,12.177,1693.815615
14 Sep 2023 22:42:37.000,354.342,12.491,1674.847154
14 Sep 2023 22:42:42.000,355.402,12.804,1656.362587
14 Sep 2023 22:42:47.000,356.487,13.112,1638.378861
14 Sep 2023 22:42:52.000,357.599,13.418,1620.913205
14 Sep 2023 22:42:57.000,358.736,13.718,1603.983085
14 Sep 2023 22:43:02.000,359.901,14.014,1587.606164
14 Sep 2023 22:43:07.000,1.091,14.304,1571.800248
14 Sep 2023 22:43:12.000,2.308,14.588,1556.583231
14 Sep 2023 22:43:17.000,3.552,14.865,1541.973030
14 Sep 2023 22:43:22.000,4.822,15.134,1527.987522
14 Sep 2023 22:43:27.000,6.117,15.395,1514.644460
14 Sep 2023 22:43:32.000,7.438,15.646,1501.961402
14 Sep 2023 22:43:37.000,8.784,15.887,1489.955616
14 Sep 2023 22:43:42.000,10.154,16.117,1478.643999
14 Sep 2023 22:43:47.000,11.547,16.335,1468.042976
14 Sep 2023 22:43:52.000,12.963,16.541,1458.168406
14 Sep 2023 22:43:57.000,14.400,16.733,1449.035480
14 Sep 2023 22:44:02.000,15.857,16.911,1440.658625
14 Sep 2023 22:44:07.000,17.333,17.074,1433.051398
14 Sep 2023 22:44:12.000,18.826,17.222,1426.226394
14 Sep 2023 22:44:17.000,20.335,17.353,1420.195149
14 Sep 2023 22:44:22.000,21.857,17.467,1414.968050
14 Sep 2023 22:44:27.000,23.392,17.564,1410.554252
14 Sep 2023 22:44:32.000,24.937,17.644,1406.961600
14 Sep 2023 22:44:37.000,26.490,17.705,1404.196570
14 Sep 2023 22:44:42.000,28.049,17.747,1402.264204
14 Sep 2023 22:44:47.000,29.612,17.771,1401.168073
14 Sep 2023 22:44:52.000,31.176,17.775,1400.910244
14 Sep 2023 22:44:57.000,32.741,17.761,1401.491258
14 Sep 2023 22:45:02.000,34.302,17.728,1402.910162
14 Sep 2023 22:45:07.000,35.859,17.676,1405.164398
14 Sep 2023 22:45:12.000,37.409,17.606,1408.249992
14 Sep 2023 22:45:17.000,38.950,17.518,1412.161478
14 Sep 2023 22:45:22.000,40.480,17.412,1416.891987
14 Sep 2023 22:45:27.000,41.998,17.289,1422.433289
14 Sep 2023 22:45:32.000,43.500,17.149,1428.775874
14 Sep 2023 22:45:37.000,44.987,16.993,1435.909024
14 Sep 2023 22:45:42.000,46.455,16.822,1443.820899
14 Sep 2023 22:45:47.000,47.904,16.637,1452.498635
14 Sep 2023 22:45:52.000,49.333,16.437,1461.928426
14 Sep 2023 22:45:57.000,50.740,16.224,1472.095634
14 Sep 2023 22:46:02.000,52.123,16.000,1482.984895
14 Sep 2023 22:46:07.000,53.484,15.763,1494.580196
14 Sep 2023 22:46:12.000,54.819,15.516,1506.864997
14 Sep 2023 22:46:17.000,56.130,15.259,1519.822316
14 Sep 2023 22:46:22.000,57.415,14.994,1533.434823
14 Sep 2023 22:46:27.000,58.674,14.719,1547.684929
14 Sep 2023 22:46:32.000,59.907,14.438,1562.554876
14 Sep 2023 22:46:37.000,61.113,14.150,1578.026807
14 Sep 2023 22:46:42.000,62.293,13.855,1594.082843
14 Sep 2023 22:46:47.000,63.446,13.556,1610.705146
14 Sep 2023 22:46:52.000,64.572,13.251,1627.875994
14 Sep 2023 22:46:57.000,65.672,12.943,1645.577811
14 Sep 2023 22:47:02.000,66.746,12.631,1663.793239
14 Sep 2023 22:47:07.000,67.795,12.316,1682.505171
14 Sep 2023 22:47:12.000,68.818,11.999,1701.696783
14 Sep 2023 22:47:17.000,69.815,11.679,1721.351582
14 Sep 2023 22:47:22.000,70.788,11.358,1741.453412
14 Sep 2023 22:47:27.000,71.737,11.036,1761.986496
14 Sep 2023 22:47:32.000,72.662,10.714,1782.935445
14 Sep 2023 22:47:37.000,73.564,10.391,1804.285260
14 Sep 2023 22:47:42.000,74.443,10.067,1826.021373
14 Sep 2023 22:47:47.000,75.300,9.745,1848.129626
14 Sep 2023 22:47:52.000,76.135,9.422,1870.596286
14 Sep 2023 22:47:57.000,76.949,9.100,1893.408045
14 Sep 2023 22:48:02.000,77.742,8.779,1916.552024
14 Sep 2023 22:48:07.000,78.515,8.460,1940.015772
14 Sep 2023 22:48:12.000,79.269,8.141,1963.787242
14 Sep 2023 22:48:17.000,80.004,7.824,1987.854814
14 Sep 2023 22:48:22.000,80.720,7.508,2012.207268
14 Sep 2023 22:48:27.000,81.418,7.195,2036.833781
14 Sep 2023 22:48:32.000,82.099,6.883,2061.723929
14 Sep 2023 22:48:37.000,82.763,6.572,2086.867657
14 Sep 2023 22:48:42.000,83.411,6.264,2112.255282
14 Sep 2023 22:48:47.000,84.043,5.958,2137.877488
14 Sep 2023 22:48:52.000,84.659,5.653,2163.725295
14 Sep 2023 22:48:57.000,85.261,5.351,2189.790076
14 Sep 2023 22:49:02.000,85.848,5.051,2216.063514
14 Sep 2023 22:49:07.000,86.421,4.753,2242.537621
14 Sep 2023 22:49:12.000,86.980,4.458,2269.204707
14 Sep 2023 22:49:17.000,87.526,4.164,2296.057377
14 Sep 2023 22:49:22.000,88.060,3.873,2323.088521
14 Sep 2023 22:49:27.000,88.581,3.584,2350.291298
14 Sep 2023 22:49:32.000,89.090,3.297,2377.659129
14 Sep 2023 22:49:37.000,89.587,3.012,2405.185689
14 Sep 2023 22:49:42.000,90.073,2.729,2432.864892
14 Sep 2023 22:49:47.000,90.549,2.449,2460.690885
14 Sep 2023 22:49:52.000,91.013,2.171,2488.658035
14 Sep 2023 22:49:57.000,91.468,1.894,2516.760933
14 Sep 2023 22:50:02.000,91.912,1.620,2544.994362
14 Sep 2023 22:50:07.000,92.347,1.348,2573.353303
14 Sep 2023 22:50:12.000,92.773,1.078,2601.832938
14 Sep 2023 22:50:17.000,93.189,0.810,2630.428610
14 Sep 2023 22:50:22.000,93.597,0.544,2659.135854
14 Sep 2023 22:50:27.000,93.996,0.280,2687.950353
14 Sep 2023 22:50:32.000,94.387,0.018,2716.867961
14 Sep 2023 22:50:32.347,94.413,0.000,2718.876226
15 Sep 2023 00:18:27.416,312.508,0.000,2725.923353
15 Sep 2023 00:18:32.000,312.470,0.277,2695.245884
15 Sep 2023 00:18:37.000,312.427,0.582,2661.787692
15 Sep 2023 00:18:42.000,312.383,0.891,2628.333225
15 Sep 2023 00:18:47.000,312.337,1.204,2594.883585
15 Sep 2023 00:18:52.000,312.290,1.522,2561.439910
15 Sep 2023 00:18:57.000,312.241,1.843,2528.003400
15 Sep 2023 00:19:02.000,312.190,2.170,2494.575293
15 Sep 2023 00:19:07.000,312.137,2.501,2461.156888
15 Sep 2023 00:19:12.000,312.083,2.837,2427.749541
15 Sep 2023 00:19:17.000,312.026,3.178,2394.354670
15 Sep 2023 00:19:22.000,311.967,3.525,2360.973759
15 Sep 2023 00:19:27.000,311.906,3.877,2327.608362
15 Sep 2023 00:19:32.000,311.843,4.235,2294.260117
15 Sep 2023 00:19:37.000,311.777,4.600,2260.930735
15 Sep 2023 00:19:42.000,311.709,4.970,2227.622018
15 Sep 2023 00:19:47.000,311.638,5.347,2194.335863
15 Sep 2023 00:19:52.000,311.564,5.732,2161.074266
15 Sep 2023 00:19:57.000,311.487,6.123,2127.839334
15 Sep 2023 00:20:02.000,311.408,6.522,2094.633290
15 Sep 2023 00:20:07.000,311.325,6.929,2061.458486
15 Sep 2023 00:20:12.000,311.238,7.344,2028.317406
15 Sep 2023 00:20:17.000,311.149,7.768,1995.212685
15 Sep 2023 00:20:22.000,311.055,8.201,1962.147112
15 Sep 2023 00:20:27.000,310.957,8.644,1929.123660
15 Sep 2023 00:20:32.000,310.855,9.097,1896.145476
15 Sep 2023 00:20:37.000,310.749,9.561,1863.215916
15 Sep 2023 00:20:42.000,310.638,10.035,1830.338553
15 Sep 2023 00:20:47.000,310.522,10.522,1797.517203
15 Sep 2023 00:20:52.000,310.401,11.021,1764.755934
15 Sep 2023 00:20:57.000,310.274,11.533,1732.059104
15 Sep 2023 00:21:02.000,310.141,12.058,1699.431380
15 Sep 2023 00:21:07.000,310.002,12.599,1666.877762
15 Sep 2023 00:21:12.000,309.856,13.154,1634.403622
15 Sep 2023 00:21:17.000,309.702,13.726,1602.014734
15 Sep 2023 00:21:22.000,309.541,14.315,1569.717316
15 Sep 2023 00:21:27.000,309.372,14.922,1537.518071
15 Sep 2023 00:21:32.000,309.193,15.549,1505.424229
15 Sep 2023 00:21:37.000,309.005,16.196,1473.443614
15 Sep 2023 00:21:42.000,308.807,16.864,1441.584694
15 Sep 2023 00:21:47.000,308.597,17.556,1409.856642
15 Sep 2023 00:21:52.000,308.375,18.272,1378.269423
15 Sep 2023 00:21:57.000,308.141,19.015,1346.833871
15 Sep 2023 00:22:02.000,307.892,19.785,1315.561771
15 Sep 2023 00:22:07.000,307.627,20.584,1284.465982
15 Sep 2023 00:22:12.000,307.346,21.415,1253.560531
15 Sep 2023 00:22:17.000,307.046,22.280,1222.860752
15 Sep 2023 00:22:22.000,306.725,23.181,1192.383437
15 Sep 2023 00:22:27.000,306.383,24.120,1162.146982
15 Sep 2023 00:22:32.000,306.016,25.099,1132.171573
15 Sep 2023 00:22:37.000,305.621,26.123,1102.479385
15 Sep 2023 00:22:42.000,305.197,27.193,1073.094804
15 Sep 2023 00:22:47.000,304.738,28.313,1044.044671
15 Sep 2023 00:22:52.000,304.242,29.486,1015.358547
15 Sep 2023 00:22:57.000,303.704,30.715,987.069019
15 Sep 2023 00:23:02.000,303.118,32.005,959.212020
15 Sep 2023 00:23:07.000,302.478,33.359,931.827163
15 Sep 2023 00:23:12.000,301.776,34.781,904.958127
15 Sep 2023 00:23:17.000,301.004,36.275,878.653032
15 Sep 2023 00:23:22.000,300.150,37.844,852.964838
15 Sep 2023 00:23:27.000,299.202,39.493,827.951737
15 Sep 2023 00:23:32.000,298.145,41.224,803.677508
15 Sep 2023 00:23:37.000,296.958,43.040,780.211846
15 Sep 2023 00:23:42.000,295.620,44.942,757.630585
15 Sep 2023 00:23:47.000,294.099,46.930,736.015813
15 Sep 2023 00:23:52.000,292.359,49.001,715.455776
15 Sep 2023 00:23:57.000,290.355,51.150,696.044571
15 Sep 2023 00:24:02.000,288.027,53.368,677.881477
15 Sep 2023 00:24:07.000,285.300,55.639,661.069928
15 Sep 2023 00:24:12.000,282.080,57.941,645.716008
15 Sep 2023 00:24:17.000,278.246,60.240,631.926443
15 Sep 2023 00:24:22.000,273.652,62.491,619.806075
15 Sep 2023 00:24:27.000,268.129,64.632,609.454872
15 Sep 2023 00:24:32.000,261.502,66.579,600.964583
15 Sep 2023 00:24:37.000,253.644,68.230,594.415223
15 Sep 2023 00:24:42.000,244.560,69.468,589.871658
15 Sep 2023 00:24:47.000,234.493,70.181,587.380574
15 Sep 2023 00:24:52.000,223.966,70.291,586.968267
15 Sep 2023 00:24:57.000,213.660,69.787,588.639101
15 Sep 2023 00:25:02.000,204.179,68.723,592.375433
15 Sep 2023 00:25:07.000,195.868,67.204,598.138481
15 Sep 2023 00:25:12.000,188.808,65.347,605.870284
15 Sep 2023 00:25:17.000,182.906,63.261,615.496468
15 Sep 2023 00:25:22.000,177.997,61.037,626.929540
15 Sep 2023 00:25:27.000,173.908,58.744,640.072397
15 Sep 2023 00:25:32.000,170.481,56.434,654.821764
15 Sep 2023 00:25:37.000,167.588,54.144,671.071346
15 Sep 2023 00:25:42.000,165.125,51.900,688.714547
15 Sep 2023 00:25:47.000,163.010,49.720,707.646681
15 Sep 2023 00:25:52.000,161.181,47.615,727.766677
15 Sep 2023 00:25:57.000,159.585,45.592,748.978288
15 Sep 2023 00:26:02.000,158.183,43.654,771.190895
15 Sep 2023 00:26:07.000,156.943,41.803,794.319946
15 Sep 2023 00:26:12.000,155.840,40.038,818.287132
15 Sep 2023 00:26:17.000,154.853,38.356,843.020343
15 Sep 2023 00:26:22.000,153.966,36.755,868.453487
15 Sep 2023 00:26:27.000,153.164,35.231,894.526194
15 Sep 2023 00:26:32.000,152.436,33.781,921.183479
15 Sep 2023 00:26:37.000,151.772,32.400,948.375343
15 Sep 2023 00:26:42.000,151.166,31.084,976.056391
15 Sep 2023 00:26:47.000,150.609,29.831,1004.185735
15 Sep 2023 00:26:52.000,150.096,28.636,1032.725441
15 Sep 2023 00:26:57.000,149.622,27.495,1061.641923
15 Sep 2023 00:27:02.000,149.184,26.405,1090.904453
15 Sep 2023 00:27:07.000,148.776,25.364,1120.485142
15 Sep 2023 00:27:12.000,148.397,24.367,1150.358664
15 Sep 2023 00:27:17.000,148.043,23.412,1180.501987
15 Sep 2023 00:27:22.000,147.712,22.496,1210.894160
15 Sep 2023 00:27:27.000,147.403,21.617,1241.516100
15 Sep 2023 00:27:32.000,147.112,20.773,1272.350397
15 Sep 2023 00:27:37.000,146.838,19.961,1303.381156
15 Sep 2023 00:27:42.000,146.581,19.179,1334.593841
15 Sep 2023 00:27:47.000,146.338,18.426,1365.975147
15 Sep 2023 00:27:52.000,146.108,17.699,1397.512870
15 Sep 2023 00:27:57.000,145.891,16.998,1429.195812
15 Sep 2023 00:28:02.000,145.685,16.320,1461.013670
15 Sep 2023 00:28:07.000,145.490,15.664,1492.956967
15 Sep 2023 00:28:12.000,145.304,15.030,1525.016955
15 Sep 2023 00:28:17.000,145.128,14.415,1557.185567
15 Sep 2023 00:28:22.000,144.960,13.819,1589.455338
15 Sep 2023 00:28:27.000,144.800,13.240,1621.819361
15 Sep 2023 00:28:32.000,144.647,12.678,1654.271228
15 Sep 2023 00:28:37.000,144.501,12.132,1686.804992
15 Sep 2023 00:28:42.000,144.362,11.600,1719.415125
15 Sep 2023 00:28:47.000,144.228,11.083,1752.096479
15 Sep 2023 00:28:52.000,144.101,10.579,1784.844259
15 Sep 2023 00:28:57.000,143.978,10.087,1817.653985
15 Sep 2023 00:29:02.000,143.861,9.608,1850.521475
15 Sep 2023 00:29:07.000,143.748,9.140,1883.442809
15 Sep 2023 00:29:12.000,143.640,8.683,1916.414320
15 Sep 2023 00:29:17.000,143.536,8.236,1949.432567
15 Sep 2023 00:29:22.000,143.436,7.799,1982.494316
15 Sep 2023 00:29:27.000,143.340,7.371,2015.596525
15 Sep 2023 00:29:32.000,143.247,6.952,2048.736337
15 Sep 2023 00:29:37.000,143.158,6.542,2081.911052
15 Sep 2023 00:29:42.000,143.071,6.139,2115.118124
15 Sep 2023 00:29:47.000,142.988,5.745,2148.355146
15 Sep 2023 00:29:52.000,142.908,5.358,2181.619844
15 Sep 2023 00:29:57.000,142.830,4.978,2214.910064
15 Sep 2023 00:30:02.000,142.755,4.605,2248.223763
15 Sep 2023 00:30:07.000,142.683,4.238,2281.559002
15 Sep 2023 00:30:12.000,142.613,3.877,2314.913941
15 Sep 2023 00:30:17.000,142.545,3.522,2348.286829
15 Sep 2023 00:30:22.000,142.479,3.173,2381.675996
15 Sep 2023 00:30:27.000,142.415,2.830,2415.079859
15 Sep 2023 00:30:32.000,142.354,2.492,2448.496899
15 Sep 2023 00:30:37.000,142.294,2.158,2481.925670
15 Sep 2023 00:30:42.000,142.236,1.830,2515.364789
15 Sep 2023 00:30:47.000,142.179,1.506,2548.812933
15 Sep 2023 00:30:52.000,142.125,1.187,2582.268833
15 Sep 2023 00:30:57.000,142.071,0.872,2615.731274
15 Sep 2023 00:31:02.000,142.020,0.561,2649.199093
15 Sep 2023 00:31:07.000,141.970,0.254,2682.671171
15 Sep 2023 00:31:11.187,141.929,0.000,2710.700760
15 Sep 2023 01:59:40.967,280.500,0.000,2721.471496
15 Sep 2023 01:59:45.000,280.017,0.153,2704.424624
15 Sep 2023 01:59:50.000,279.411,0.341,2683.526269
15 Sep 2023 01:59:55.000,278.795,0.529,2662.898060
15 Sep 2023 02:00:00.000,278.169,0.715,2642.546853
15 Sep 2023 02:00:05.000,277.533,0.901,2622.479619
15 Sep 2023 02:00:10.000,276.887,1.085,2602.703432
15 Sep 2023 02:00:15.000,276.232,1.268,2583.225483
15 Sep 2023 02:00:20.000,275.565,1.449,2564.053066
15 Sep 2023 02:00:25.000,274.889,1.629,2545.193565
15 Sep 2023 02:00:30.000,274.203,1.807,2526.654459
15 Sep 2023 02:00:35.000,273.505,1.983,2508.443322
15 Sep 2023 02:00:40.000,272.798,2.157,2490.567801
15 Sep 2023 02:00:45.000,272.080,2.330,2473.035616
15 Sep 2023 02:00:50.000,271.352,2.500,2455.854559
15 Sep 2023 02:00:55.000,270.613,2.667,2439.032464
15 Sep 2023 02:01:00.000,269.863,2.833,2422.577226
15 Sep 2023 02:01:05.000,269.103,2.996,2406.496775
15 Sep 2023 02:01:10.000,268.333,3.156,2390.799057
15 Sep 2023 02:01:15.000,267.552,3.313,2375.492036
15 Sep 2023 02:01:20.000,266.761,3.467,2360.583683
15 Sep 2023 02:01:25.000,265.959,3.618,2346.081950
15 Sep 2023 02:01:30.000,265.147,3.766,2331.994768
15 Sep 2023 02:01:35.000,264.325,3.911,2318.330014
15 Sep 2023 02:01:40.000,263.493,4.051,2305.095524
15 Sep 2023 02:01:45.000,262.651,4.188,2292.299048
15 Sep 2023 02:01:50.000,261.800,4.321,2279.948257
15 Sep 2023 02:01:55.000,260.939,4.450,2268.050705
15 Sep 2023 02:02:00.000,260.068,4.575,2256.613824
15 Sep 2023 02:02:05.000,259.189,4.695,2245.644903
15 Sep 2023 02:02:10.000,258.300,4.810,2235.151069
15 Sep 2023 02:02:15.000,257.403,4.921,2225.139257
15 Sep 2023 02:02:20.000,256.498,5.027,2215.616217
15 Sep 2023 02:02:25.000,255.585,5.128,2206.588466
15 Sep 2023 02:02:30.000,254.664,5.223,2198.062282
15 Sep 2023 02:02:35.000,253.736,5.313,2190.043689
15 Sep 2023 02:02:40.000,252.801,5.398,2182.538431
15 Sep 2023 02:02:45.000,251.859,5.477,2175.551947
15 Sep 2023 02:02:50.000,250.911,5.551,2169.089374
15 Sep 2023 02:02:55.000,249.957,5.618,2163.155507
15 Sep 2023 02:03:00.000,248.998,5.680,2157.754794
15 Sep 2023 02:03:05.000,248.035,5.735,2152.891319
15 Sep 2023 02:03:10.000,247.067,5.784,2148.568789
15 Sep 2023 02:03:15.000,246.095,5.827,2144.790511
15 Sep 2023 02:03:20.000,245.120,5.864,2141.559386
15 Sep 2023 02:03:25.000,244.142,5.894,2138.877909
15 Sep 2023 02:03:30.000,243.161,5.917,2136.748141
15 Sep 2023 02:03:35.000,242.179,5.934,2135.171703
15 Sep 2023 02:03:40.000,241.196,5.945,2134.149788
15 Sep 2023 02:03:45.000,240.211,5.949,2133.683131
15 Sep 2023 02:03:50.000,239.227,5.947,2133.772032
15 Sep 2023 02:03:55.000,238.243,5.937,2134.416330
15 Sep 2023 02:04:00.000,237.260,5.922,2135.615424
15 Sep 2023 02:04:05.000,236.278,5.900,2137.368253
15 Sep 2023 02:04:10.000,235.299,5.871,2139.673330
15 Sep 2023 02:04:15.000,234.322,5.836,2142.528717
15 Sep 2023 02:04:20.000,233.348,5.794,2145.932054
15 Sep 2023 02:04:25.000,232.377,5.746,2149.880557
15 Sep 2023 02:04:30.000,231.410,5.692,2154.371030
15 Sep 2023 02:04:35.000,230.448,5.632,2159.399886
15 Sep 2023 02:04:40.000,229.491,5.566,2164.963141
15 Sep 2023 02:04:45.000,228.539,5.494,2171.056447
15 Sep 2023 02:04:50.000,227.593,5.416,2177.675097
15 Sep 2023 02:04:55.000,226.654,5.332,2184.814046
15 Sep 2023 02:05:00.000,225.721,5.243,2192.467928
15 Sep 2023 02:05:05.000,224.795,5.149,2200.631066
15 Sep 2023 02:05:10.000,223.876,5.049,2209.297506
15 Sep 2023 02:05:15.000,222.965,4.944,2218.461100
15 Sep 2023 02:05:20.000,222.063,4.834,2228.115216
15 Sep 2023 02:05:25.000,221.168,4.720,2238.253228
15 Sep 2023 02:05:30.000,220.282,4.601,2248.868224
15 Sep 2023 02:05:35.000,219.406,4.477,2259.953101
15 Sep 2023 02:05:40.000,218.538,4.349,2271.500581
15 Sep 2023 02:05:45.000,217.679,4.217,2283.503247
15 Sep 2023 02:05:50.000,216.830,4.080,2295.953536
15 Sep 2023 02:05:55.000,215.991,3.940,2308.843779
15 Sep 2023 02:06:00.000,215.162,3.797,2322.166201
15 Sep 2023 02:06:05.000,214.342,3.649,2335.912956
15 Sep 2023 02:06:10.000,213.533,3.499,2350.076131
15 Sep 2023 02:06:15.000,212.734,3.345,2364.647766
15 Sep 2023 02:06:20.000,211.945,3.188,2379.619867
15 Sep 2023 02:06:25.000,211.166,3.029,2394.984426
15 Sep 2023 02:06:30.000,210.398,2.866,2410.733427
15 Sep 2023 02:06:35.000,209.640,2.701,2426.858867
15 Sep 2023 02:06:40.000,208.893,2.534,2443.352763
15 Sep 2023 02:06:45.000,208.155,2.364,2460.207162
15 Sep 2023 02:06:50.000,207.429,2.192,2477.414160
15 Sep 2023 02:06:55.000,206.713,2.018,2494.965899
15 Sep 2023 02:07:00.000,206.007,1.842,2512.854589
15 Sep 2023 02:07:05.000,205.311,1.664,2531.072507
15 Sep 2023 02:07:10.000,204.626,1.485,2549.612012
15 Sep 2023 02:07:15.000,203.950,1.304,2568.465543
15 Sep 2023 02:07:20.000,203.285,1.122,2587.625636
15 Sep 2023 02:07:25.000,202.630,0.938,2607.084921
15 Sep 2023 02:07:30.000,201.985,0.753,2626.836128
15 Sep 2023 02:07:35.000,201.350,0.566,2646.872099
15 Sep 2023 02:07:40.000,200.724,0.379,2667.185781
15 Sep 2023 02:07:45.000,200.108,0.190,2687.770237
15 Sep 2023 02:07:50.000,199.502,0.001,2708.618646
15 Sep 2023 02:07:50.025,199.499,0.000,2708.723904
15 Sep 2023 14:13:18.460,162.914,0.000,2703.078262
15 Sep 2023 14:13:23.000,162.379,0.180,2683.277081
15 Sep 2023 14:13:28.000,161.780,0.377,2661.707367
15 Sep 2023 14:13:33.000,161.171,0.574,2640.393682
15 Sep 2023 14:13:38.000,160.552,0.770,2619.342957
15 Sep 2023 14:13:43.000,159.923,0.965,2598.562259
15 Sep 2023 14:13:48.000,159.284,1.159,2578.058785
15 Sep 2023 14:13:53.000,158.635,1.352,2557.839863
15 Sep 2023 14:13:58.000,157.975,1.544,2537.912946
15 Sep 2023 14:14:03.000,157.304,1.734,2518.285609
15 Sep 2023 14:14:08.000,156.623,1.923,2498.965552
15 Sep 2023 14:14:13.000,155.931,2.111,2479.960581
15 Sep 2023 14:14:18.000,155.228,2.297,2461.278617
15 Sep 2023 14:14:23.000,154.514,2.481,2442.927680
15 Sep 2023 14:14:28.000,153.790,2.664,2424.915887
15 Sep 2023 14:14:33.000,153.054,2.844,2407.251444
15 Sep 2023 14:14:38.000,152.307,3.023,2389.942637
15 Sep 2023 14:14:43.000,151.549,3.199,2372.997817
15 Sep 2023 14:14:48.000,150.780,3.373,2356.425405
15 Sep 2023 14:14:53.000,149.999,3.544,2340.233861
15 Sep 2023 14:14:58.000,149.208,3.712,2324.431690
15 Sep 2023 14:15:03.000,148.405,3.878,2309.027415
15 Sep 2023 14:15:08.000,147.592,4.040,2294.029572
15 Sep 2023 14:15:13.000,146.767,4.199,2279.446693
15 Sep 2023 14:15:18.000,145.932,4.355,2265.287290
15 Sep 2023 14:15:23.000,145.085,4.507,2251.559836
15 Sep 2023 14:15:28.000,144.229,4.656,2238.272756
15 Sep 2023 14:15:33.000,143.361,4.801,2225.434395
15 Sep 2023 14:15:38.000,142.483,4.941,2213.053013
15 Sep 2023 14:15:43.000,141.596,5.077,2201.136757
15 Sep 2023 14:15:48.000,140.698,5.209,2189.693644
15 Sep 2023 14:15:53.000,139.790,5.336,2178.731537
15 Sep 2023 14:15:58.000,138.873,5.458,2168.258129
15 Sep 2023 14:16:03.000,137.947,5.576,2158.280914
15 Sep 2023 14:16:08.000,137.012,5.688,2148.807172
15 Sep 2023 14:16:13.000,136.069,5.794,2139.843947
15 Sep 2023 14:16:18.000,135.118,5.895,2131.398017
15 Sep 2023 14:16:23.000,134.158,5.991,2123.475879
15 Sep 2023 14:16:28.000,133.192,6.080,2116.083727
15 Sep 2023 14:16:33.000,132.218,6.164,2109.227424
15 Sep 2023 14:16:38.000,131.238,6.241,2102.912494
15 Sep 2023 14:16:43.000,130.252,6.313,2097.144091
15 Sep 2023 14:16:48.000,129.261,6.377,2091.926986
15 Sep 2023 14:16:53.000,128.265,6.436,2087.265545
15 Sep 2023 14:16:58.000,127.264,6.487,2083.163713
15 Sep 2023 14:17:03.000,126.259,6.532,2079.625003
15 Sep 2023 14:17:08.000,125.251,6.570,2076.652481
15 Sep 2023 14:17:13.000,124.240,6.601,2074.248749
15 Sep 2023 14:17:18.000,123.227,6.625,2072.415939
15 Sep 2023 14:17:23.000,122.213,6.642,2071.155703
15 Sep 2023 14:17:28.000,121.197,6.653,2070.469202
15 Sep 2023 14:17:33.000,120.181,6.656,2070.357114
15 Sep 2023 14:17:38.000,119.165,6.652,2070.819619
15 Sep 2023 14:17:43.000,118.150,6.641,2071.856402
15 Sep 2023 14:17:48.000,117.136,6.623,2073.466653
15 Sep 2023 14:17:53.000,116.124,6.598,2075.649080
15 Sep 2023 14:17:58.000,115.115,6.566,2078.401896
15 Sep 2023 14:18:03.000,114.109,6.527,2081.722846
15 Sep 2023 14:18:08.000,113.106,6.481,2085.609203
15 Sep 2023 14:18:13.000,112.108,6.429,2090.057782
15 Sep 2023 14:18:18.000,111.114,6.370,2095.064965
15 Sep 2023 14:18:23.000,110.126,6.305,2100.626688
15 Sep 2023 14:18:28.000,109.144,6.233,2106.738488
15 Sep 2023 14:18:33.000,108.168,6.155,2113.395498
15 Sep 2023 14:18:38.000,107.198,6.070,2120.592477
15 Sep 2023 14:18:43.000,106.236,5.980,2128.323819
15 Sep 2023 14:18:48.000,105.281,5.884,2136.583692
15 Sep 2023 14:18:53.000,104.335,5.782,2145.365634
15 Sep 2023 14:18:58.000,103.397,5.675,2154.663190
15 Sep 2023 14:19:03.000,102.467,5.563,2164.469530
15 Sep 2023 14:19:08.000,101.547,5.445,2174.777573
15 Sep 2023 14:19:13.000,100.636,5.323,2185.580001
15 Sep 2023 14:19:18.000,99.734,5.195,2196.869301
15 Sep 2023 14:19:23.000,98.843,5.063,2208.637756
15 Sep 2023 14:19:28.000,97.961,4.927,2220.877497
15 Sep 2023 14:19:33.000,97.090,4.786,2233.580505
15 Sep 2023 14:19:38.000,96.230,4.641,2246.738633
15 Sep 2023 14:19:43.000,95.380,4.492,2260.343645
15 Sep 2023 14:19:48.000,94.541,4.340,2274.387202
15 Sep 2023 14:19:53.000,93.713,4.184,2288.860917
15 Sep 2023 14:19:58.000,92.896,4.025,2303.756338
15 Sep 2023 14:20:03.000,92.090,3.862,2319.064995
15 Sep 2023 14:20:08.000,91.295,3.697,2334.778395
15 Sep 2023 14:20:13.000,90.511,3.528,2350.888057
15 Sep 2023 14:20:18.000,89.739,3.357,2367.385504
15 Sep 2023 14:20:23.000,88.978,3.183,2384.262286
15 Sep 2023 14:20:28.000,88.228,3.007,2401.510003
15 Sep 2023 14:20:33.000,87.489,2.829,2419.120307
15 Sep 2023 14:20:38.000,86.762,2.649,2437.084901
15 Sep 2023 14:20:43.000,86.046,2.466,2455.395575
15 Sep 2023 14:20:48.000,85.341,2.282,2474.044190
15 Sep 2023 14:20:53.000,84.646,2.096,2493.022711
15 Sep 2023 14:20:58.000,83.963,1.908,2512.323189
15 Sep 2023 14:21:03.000,83.291,1.719,2531.937777
15 Sep 2023 14:21:08.000,82.629,1.529,2551.858753
15 Sep 2023 14:21:13.000,81.978,1.337,2572.078491
15 Sep 2023 14:21:18.000,81.338,1.144,2592.589499
15 Sep 2023 14:21:23.000,80.707,0.950,2613.384405
15 Sep 2023 14:21:28.000,80.088,0.755,2634.455960
15 Sep 2023 14:21:33.000,79.478,0.560,2655.797048
15 Sep 2023 14:21:38.000,78.879,0.363,2677.400684
15 Sep 2023 14:21:43.000,78.289,0.166,2699.260016
15 Sep 2023 14:21:47.188,77.802,0.000,2717.759277
15 Sep 2023 15:50:08.834,219.658,0.000,2705.481741
15 Sep 2023 15:50:13.000,219.631,0.253,2677.544315
15 Sep 2023 15:50:18.000,219.597,0.561,2644.015647
15 Sep 2023 15:50:23.000,219.563,0.872,2610.490173
15 Sep 2023 15:50:28.000,219.528,1.188,2576.968968
15 Sep 2023 15:50:33.000,219.492,1.508,2543.453154
15 Sep 2023 15:50:38.000,219.454,1.833,2509.943902
15 Sep 2023 15:50:43.000,219.415,2.162,2476.442431
15 Sep 2023 15:50:48.000,219.375,2.496,2442.950012
15 Sep 2023 15:50:53.000,219.334,2.835,2409.467976
15 Sep 2023 15:50:58.000,219.291,3.180,2375.997713
15 Sep 2023 15:51:03.000,219.247,3.530,2342.540678
15 Sep 2023 15:51:08.000,219.202,3.885,2309.098403
15 Sep 2023 15:51:13.000,219.154,4.247,2275.672488
15 Sep 2023 15:51:18.000,219.105,4.615,2242.264614
15 Sep 2023 15:51:23.000,219.055,4.990,2208.876552
15 Sep 2023 15:51:28.000,219.002,5.371,2175.510163
15 Sep 2023 15:51:33.000,218.948,5.760,2142.167410
15 Sep 2023 15:51:38.000,218.891,6.156,2108.850362
15 Sep 2023 15:51:43.000,218.833,6.560,2075.561209
15 Sep 2023 15:51:48.000,218.772,6.972,2042.302261
15 Sep 2023 15:51:53.000,218.709,7.393,2009.075965
15 Sep 2023 15:51:58.000,218.643,7.823,1975.884916
15 Sep 2023 15:52:03.000,218.574,8.262,1942.731864
15 Sep 2023 15:52:08.000,218.503,8.712,1909.619733
15 Sep 2023 15:52:13.000,218.429,9.171,1876.551635
15 Sep 2023 15:52:18.000,218.351,9.642,1843.530879
15 Sep 2023 15:52:23.000,218.270,10.125,1810.560998
15 Sep 2023 15:52:28.000,218.186,10.619,1777.645763
15 Sep 2023 15:52:33.000,218.098,11.127,1744.789204
15 Sep 2023 15:52:38.000,218.005,11.648,1711.995637
15 Sep 2023 15:52:43.000,217.909,12.184,1679.269688
15 Sep 2023 15:52:48.000,217.808,12.735,1646.616322
15 Sep 2023 15:52:53.000,217.701,13.302,1614.040876
15 Sep 2023 15:52:58.000,217.590,13.886,1581.549095
15 Sep 2023 15:53:03.000,217.473,14.488,1549.147172
15 Sep 2023 15:53:08.000,217.350,15.109,1516.841785
15 Sep 2023 15:53:13.000,217.220,15.751,1484.640163
15 Sep 2023 15:53:18.000,217.083,16.414,1452.550125
15 Sep 2023 15:53:23.000,216.939,17.100,1420.580151
15 Sep 2023 15:53:28.000,216.786,17.810,1388.739443
15 Sep 2023 15:53:33.000,216.624,18.547,1357.038011
15 Sep 2023 15:53:38.000,216.453,19.311,1325.486757
15 Sep 2023 15:53:43.000,216.271,20.105,1294.097562
15 Sep 2023 15:53:48.000,216.078,20.930,1262.883410
15 Sep 2023 15:53:53.000,215.871,21.789,1231.858500
15 Sep 2023 15:53:58.000,215.651,22.685,1201.038379
15 Sep 2023 15:54:03.000,215.416,23.619,1170.440113
15 Sep 2023 15:54:08.000,215.164,24.594,1140.082434
15 Sep 2023 15:54:13.000,214.893,25.614,1109.985952
15 Sep 2023 15:54:18.000,214.601,26.681,1080.173359
15 Sep 2023 15:54:23.000,214.286,27.799,1050.669674
15 Sep 2023 15:54:28.000,213.945,28.971,1021.502505
15 Sep 2023 15:54:33.000,213.575,30.203,992.702348
15 Sep 2023 15:54:38.000,213.172,31.496,964.302912
15 Sep 2023 15:54:43.000,212.731,32.858,936.341465
15 Sep 2023 15:54:48.000,212.247,34.291,908.859233
15 Sep 2023 15:54:53.000,211.715,35.800,881.901800
15 Sep 2023 15:54:58.000,211.125,37.392,855.519543
15 Sep 2023 15:55:03.000,210.469,39.070,829.768077
15 Sep 2023 15:55:08.000,209.736,40.840,804.708693
15 Sep 2023 15:55:13.000,208.911,42.707,780.408772
15 Sep 2023 15:55:18.000,207.976,44.675,756.942147
15 Sep 2023 15:55:23.000,206.909,46.747,734.389366
15 Sep 2023 15:55:28.000,205.682,48.926,712.837804
15 Sep 2023 15:55:33.000,204.256,51.211,692.381563
15 Sep 2023 15:55:38.000,202.583,53.601,673.121083
15 Sep 2023 15:55:43.000,200.594,56.088,655.162364
15 Sep 2023 15:55:48.000,198.201,58.661,638.615731
15 Sep 2023 15:55:53.000,195.277,61.300,623.594053
15 Sep 2023 15:55:58.000,191.645,63.974,610.210365
15 Sep 2023 15:56:03.000,187.060,66.634,598.574909
15 Sep 2023 15:56:08.000,181.179,69.208,588.791641
15 Sep 2023 15:56:13.000,173.558,71.588,580.954393
15 Sep 2023 15:56:18.000,163.716,73.618,575.142918
15 Sep 2023 15:56:23.000,151.395,75.090,571.419139
15 Sep 2023 15:56:28.000,137.074,75.783,569.824135
15 Sep 2023 15:56:33.000,122.251,75.567,570.375734
15 Sep 2023 15:56:38.000,108.745,74.484,573.067697
15 Sep 2023 15:56:43.000,97.592,72.724,577.870010
15 Sep 2023 15:56:48.000,88.852,70.510,584.730518
15 Sep 2023 15:56:53.000,82.113,68.027,593.577646
15 Sep 2023 15:56:58.000,76.892,65.406,604.323881
15 Sep 2023 15:57:03.000,72.794,62.738,616.869661
15 Sep 2023 15:57:08.000,69.522,60.082,631.107307
15 Sep 2023 15:57:13.000,66.868,57.477,646.924716
15 Sep 2023 15:57:18.000,64.679,54.949,664.208581
15 Sep 2023 15:57:23.000,62.850,52.512,682.847066
15 Sep 2023 15:57:28.000,61.301,50.177,702.731866
15 Sep 2023 15:57:33.000,59.975,47.948,723.759708
15 Sep 2023 15:57:38.000,58.829,45.825,745.833324
15 Sep 2023 15:57:43.000,57.829,43.808,768.862039
15 Sep 2023 15:57:48.000,56.950,41.893,792.761980
15 Sep 2023 15:57:53.000,56.172,40.077,817.456072
15 Sep 2023 15:57:58.000,55.478,38.356,842.873835
15 Sep 2023 15:58:03.000,54.856,36.723,868.951062
15 Sep 2023 15:58:08.000,54.296,35.175,895.629434
15 Sep 2023 15:58:13.000,53.789,33.705,922.856374
15 Sep 2023 15:58:18.000,53.329,32.310,950.583444
15 Sep 2023 15:58:23.000,52.908,30.985,978.767638
15 Sep 2023 15:58:28.000,52.523,29.724,1007.369812
15 Sep 2023 15:58:33.000,52.170,28.523,1036.354577
15 Sep 2023 15:58:38.000,51.844,27.380,1065.689915
15 Sep 2023 15:58:43.000,51.542,26.288,1095.346856
15 Sep 2023 15:58:48.000,51.263,25.246,1125.299158
15 Sep 2023 15:58:53.000,51.004,24.250,1155.523030
