xian_to_starlink-1041_Access_AER.csv

"Time (UTCG)","Azimuth (deg)","Elevation (deg)","Range (km)"
14 Sep 2023 15:28:32.852,134.371,0.000,2711.867030
14 Sep 2023 15:28:37.000,133.754,0.069,2704.379633
14 Sep 2023 15:28:42.000,133.007,0.148,2695.715246
14 Sep 2023 15:28:47.000,132.254,0.224,2687.449480
14 Sep 2023 15:28:52.000,131.498,0.297,2679.586348
14 Sep 2023 15:28:57.000,130.736,0.366,2672.129725
14 Sep 2023 15:29:02.000,129.971,0.432,2665.083320
14 Sep 2023 15:29:07.000,129.202,0.494,2658.450692
14 Sep 2023 15:29:12.000,128.428,0.553,2652.235221
14 Sep 2023 15:29:17.000,127.652,0.607,2646.440117
14 Sep 2023 15:29:22.000,126.871,0.658,2641.068403
14 Sep 2023 15:29:27.000,126.088,0.705,2636.122908
14 Sep 2023 15:29:32.000,125.302,0.749,2631.606274
14 Sep 2023 15:29:37.000,124.514,0.788,2627.520926
14 Sep 2023 15:29:42.000,123.722,0.823,2623.869092
14 Sep 2023 15:29:47.000,122.929,0.855,2620.652774
14 Sep 2023 15:29:52.000,122.134,0.882,2617.873761
14 Sep 2023 15:29:57.000,121.338,0.905,2615.533619
14 Sep 2023 15:30:02.000,120.540,0.924,2613.633680
14 Sep 2023 15:30:07.000,119.741,0.939,2612.175057
14 Sep 2023 15:30:12.000,118.941,0.950,2611.158615
14 Sep 2023 15:30:17.000,118.141,0.957,2610.584996
14 Sep 2023 15:30:22.000,117.340,0.960,2610.454593
14 Sep 2023 15:30:27.000,116.540,0.958,2610.767569
14 Sep 2023 15:30:32.000,115.740,0.952,2611.523846
14 Sep 2023 15:30:37.000,114.940,0.943,2612.723104
14 Sep 2023 15:30:42.000,114.142,0.929,2614.364797
14 Sep 2023 15:30:47.000,113.344,0.911,2616.448128
14 Sep 2023 15:30:52.000,112.548,0.888,2618.972076
14 Sep 2023 15:30:57.000,111.754,0.862,2621.935386
14 Sep 2023 15:31:02.000,110.962,0.832,2625.336576
14 Sep 2023 15:31:07.000,110.172,0.798,2629.173938
14 Sep 2023 15:31:12.000,109.384,0.759,2633.445544
14 Sep 2023 15:31:17.000,108.599,0.717,2638.149250
14 Sep 2023 15:31:22.000,107.817,0.671,2643.282708
14 Sep 2023 15:31:27.000,107.038,0.621,2648.843356
14 Sep 2023 15:31:32.000,106.263,0.567,2654.828442
14 Sep 2023 15:31:37.000,105.491,0.510,2661.235019
14 Sep 2023 15:31:42.000,104.724,0.449,2668.059955
14 Sep 2023 15:31:47.000,103.960,0.384,2675.299939
14 Sep 2023 15:31:52.000,103.201,0.316,2682.951496
14 Sep 2023 15:31:57.000,102.446,0.244,2691.010978
14 Sep 2023 15:32:02.000,101.696,0.168,2699.474592
14 Sep 2023 15:32:07.000,100.950,0.090,2708.338395
14 Sep 2023 15:32:12.000,100.210,0.008,2717.598299
14 Sep 2023 15:32:12.449,100.144,0.000,2718.449150
14 Sep 2023 17:02:56.494,205.945,0.000,2709.224868
14 Sep 2023 17:03:01.000,205.785,0.267,2679.802524
14 Sep 2023 17:03:06.000,205.602,0.566,2647.180197
14 Sep 2023 17:03:11.000,205.414,0.869,2614.584689
14 Sep 2023 17:03:16.000,205.222,1.176,2582.017963
14 Sep 2023 17:03:21.000,205.025,1.486,2549.482069
14 Sep 2023 17:03:26.000,204.822,1.801,2516.979151
14 Sep 2023 17:03:31.000,204.614,2.120,2484.511444
14 Sep 2023 17:03:36.000,204.400,2.442,2452.081296
14 Sep 2023 17:03:41.000,204.180,2.770,2419.691159
14 Sep 2023 17:03:46.000,203.953,3.102,2387.343606
14 Sep 2023 17:03:51.000,203.721,3.438,2355.041335
14 Sep 2023 17:03:56.000,203.481,3.780,2322.787175
14 Sep 2023 17:04:01.000,203.234,4.126,2290.584100
14 Sep 2023 17:04:06.000,202.980,4.478,2258.435235
14 Sep 2023 17:04:11.000,202.718,4.836,2226.343868
14 Sep 2023 17:04:16.000,202.448,5.199,2194.313456
14 Sep 2023 17:04:21.000,202.170,5.568,2162.347644
14 Sep 2023 17:04:26.000,201.882,5.944,2130.450277
14 Sep 2023 17:04:31.000,201.585,6.325,2098.625405
14 Sep 2023 17:04:36.000,201.279,6.714,2066.877309
14 Sep 2023 17:04:41.000,200.962,7.109,2035.210513
14 Sep 2023 17:04:46.000,200.634,7.512,2003.629797
14 Sep 2023 17:04:51.000,200.295,7.922,1972.140223
14 Sep 2023 17:04:56.000,199.944,8.340,1940.747148
14 Sep 2023 17:05:01.000,199.581,8.766,1909.456257
14 Sep 2023 17:05:06.000,199.204,9.200,1878.273570
14 Sep 2023 17:05:11.000,198.813,9.643,1847.205487
14 Sep 2023 17:05:16.000,198.408,10.096,1816.258801
14 Sep 2023 17:05:21.000,197.987,10.558,1785.440731
14 Sep 2023 17:05:26.000,197.550,11.029,1754.758964
14 Sep 2023 17:05:31.000,197.095,11.511,1724.221679
14 Sep 2023 17:05:36.000,196.623,12.004,1693.837588
14 Sep 2023 17:05:41.000,196.131,12.508,1663.615983
14 Sep 2023 17:05:46.000,195.618,13.023,1633.566770
14 Sep 2023 17:05:51.000,195.084,13.551,1603.700531
14 Sep 2023 17:05:56.000,194.526,14.091,1574.028562
14 Sep 2023 17:06:01.000,193.945,14.643,1544.562936
14 Sep 2023 17:06:06.000,193.337,15.209,1515.316562
14 Sep 2023 17:06:11.000,192.701,15.789,1486.303249
14 Sep 2023 17:06:16.000,192.036,16.383,1457.537776
14 Sep 2023 17:06:21.000,191.340,16.992,1429.035961
14 Sep 2023 17:06:26.000,190.611,17.616,1400.814745
14 Sep 2023 17:06:31.000,189.846,18.255,1372.892269
14 Sep 2023 17:06:36.000,189.043,18.911,1345.287968
14 Sep 2023 17:06:41.000,188.199,19.582,1318.022653
14 Sep 2023 17:06:46.000,187.312,20.270,1291.118614
14 Sep 2023 17:06:51.000,186.379,20.975,1264.599711
14 Sep 2023 17:06:56.000,185.397,21.696,1238.491476
14 Sep 2023 17:07:01.000,184.361,22.434,1212.821212
14 Sep 2023 17:07:06.000,183.269,23.189,1187.618086
14 Sep 2023 17:07:11.000,182.117,23.960,1162.913227
14 Sep 2023 17:07:16.000,180.900,24.746,1138.739805
14 Sep 2023 17:07:21.000,179.614,25.546,1115.133109
14 Sep 2023 17:07:26.000,178.254,26.361,1092.130598
14 Sep 2023 17:07:31.000,176.816,27.187,1069.771940
14 Sep 2023 17:07:36.000,175.295,28.023,1048.099016
14 Sep 2023 17:07:41.000,173.685,28.867,1027.155888
14 Sep 2023 17:07:46.000,171.981,29.716,1006.988726
14 Sep 2023 17:07:51.000,170.178,30.565,987.645677
14 Sep 2023 17:07:56.000,168.271,31.412,969.176673
14 Sep 2023 17:08:01.000,166.255,32.251,951.633168
14 Sep 2023 17:08:06.000,164.127,33.077,935.067791
14 Sep 2023 17:08:11.000,161.883,33.883,919.533914
14 Sep 2023 17:08:16.000,159.520,34.663,905.085128
14 Sep 2023 17:08:21.000,157.037,35.408,891.774624
14 Sep 2023 17:08:26.000,154.437,36.111,879.654487
14 Sep 2023 17:08:31.000,151.720,36.764,868.774920
14 Sep 2023 17:08:36.000,148.893,37.356,859.183392
14 Sep 2023 17:08:41.000,145.962,37.881,850.923770
14 Sep 2023 17:08:46.000,142.939,38.330,844.035424
14 Sep 2023 17:08:51.000,139.837,38.694,838.552375
14 Sep 2023 17:08:56.000,136.670,38.969,834.502513
14 Sep 2023 17:09:01.000,133.458,39.149,831.906913
14 Sep 2023 17:09:06.000,130.219,39.230,830.779340
14 Sep 2023 17:09:11.000,126.974,39.211,831.125813
14 Sep 2023 17:09:16.000,123.744,39.093,832.944517
14 Sep 2023 17:09:21.000,120.549,38.878,836.225827
14 Sep 2023 17:09:26.000,117.408,38.569,840.952565
14 Sep 2023 17:09:31.000,114.338,38.173,847.100435
14 Sep 2023 17:09:36.000,111.353,37.696,854.638632
14 Sep 2023 17:09:41.000,108.465,37.146,863.530566
14 Sep 2023 17:09:46.000,105.685,36.532,873.734695
14 Sep 2023 17:09:51.000,103.017,35.861,885.205388
14 Sep 2023 17:09:56.000,100.467,35.144,897.893821
14 Sep 2023 17:10:01.000,98.036,34.387,911.748835
14 Sep 2023 17:10:06.000,95.725,33.600,926.717753
14 Sep 2023 17:10:11.000,93.531,32.789,942.747137
14 Sep 2023 17:10:16.000,91.452,31.961,959.783439
14 Sep 2023 17:10:21.000,89.485,31.122,977.773593
14 Sep 2023 17:10:26.000,87.624,30.277,996.665481
14 Sep 2023 17:10:31.000,85.865,29.431,1016.408331
14 Sep 2023 17:10:36.000,84.203,28.588,1036.953022
14 Sep 2023 17:10:41.000,82.632,27.750,1058.252319
14 Sep 2023 17:10:46.000,81.149,26.921,1080.261032
14 Sep 2023 17:10:51.000,79.746,26.103,1102.936110
14 Sep 2023 17:10:56.000,78.421,25.297,1126.236716
14 Sep 2023 17:11:01.000,77.167,24.505,1150.124212
14 Sep 2023 17:11:06.000,75.980,23.728,1174.562164
14 Sep 2023 17:11:11.000,74.856,22.967,1199.516279
14 Sep 2023 17:11:16.000,73.791,22.222,1224.954359
14 Sep 2023 17:11:21.000,72.780,21.493,1250.846197
14 Sep 2023 17:11:26.000,71.822,20.781,1277.163517
14 Sep 2023 17:11:31.000,70.911,20.085,1303.879848
14 Sep 2023 17:11:36.000,70.046,19.406,1330.970455
14 Sep 2023 17:11:41.000,69.223,18.743,1358.412226
14 Sep 2023 17:11:46.000,68.439,18.097,1386.183870
14 Sep 2023 17:11:51.000,67.693,17.465,1414.264638
14 Sep 2023 17:11:56.000,66.981,16.849,1442.636010
14 Sep 2023 17:12:01.000,66.301,16.248,1471.280412
14 Sep 2023 17:12:06.000,65.653,15.662,1500.181442
14 Sep 2023 17:12:11.000,65.033,15.089,1529.323773
14 Sep 2023 17:12:16.000,64.440,14.530,1558.693090
14 Sep 2023 17:12:21.000,63.872,13.984,1588.276019
14 Sep 2023 17:12:26.000,63.328,13.451,1618.060042
14 Sep 2023 17:12:31.000,62.807,12.930,1648.033459
14 Sep 2023 17:12:36.000,62.308,12.420,1678.185316
14 Sep 2023 17:12:41.000,61.828,11.922,1708.505356
14 Sep 2023 17:12:46.000,61.367,11.435,1738.983960
14 Sep 2023 17:12:51.000,60.924,10.958,1769.612122
14 Sep 2023 17:12:56.000,60.499,10.491,1800.381380
14 Sep 2023 17:13:01.000,60.089,10.034,1831.283791
14 Sep 2023 17:13:06.000,59.695,9.586,1862.311890
14 Sep 2023 17:13:11.000,59.315,9.148,1893.458666
14 Sep 2023 17:13:16.000,58.948,8.717,1924.717514
14 Sep 2023 17:13:21.000,58.595,8.295,1956.082210
14 Sep 2023 17:13:26.000,58.254,7.881,1987.546903
14 Sep 2023 17:13:31.000,57.925,7.475,2019.106059
14 Sep 2023 17:13:36.000,57.607,7.076,2050.754469
14 Sep 2023 17:13:41.000,57.300,6.684,2082.487200
14 Sep 2023 17:13:46.000,57.003,6.299,2114.299598
14 Sep 2023 17:13:51.000,56.716,5.921,2146.187260
14 Sep 2023 17:13:56.000,56.438,5.548,2178.146010
14 Sep 2023 17:14:01.000,56.169,5.182,2210.171900
14 Sep 2023 17:14:06.000,55.908,4.822,2242.261185
14 Sep 2023 17:14:11.000,55.655,4.467,2274.410304
14 Sep 2023 17:14:16.000,55.410,4.118,2306.615886
14 Sep 2023 17:14:21.000,55.173,3.773,2338.874724
14 Sep 2023 17:14:26.000,54.942,3.434,2371.183763
14 Sep 2023 17:14:31.000,54.719,3.100,2403.540100
14 Sep 2023 17:14:36.000,54.501,2.770,2435.940970
14 Sep 2023 17:14:41.000,54.291,2.445,2468.383739
14 Sep 2023 17:14:46.000,54.086,2.124,2500.865893
14 Sep 2023 17:14:51.000,53.886,1.808,2533.385028
14 Sep 2023 17:14:56.000,53.693,1.495,2565.938853
14 Sep 2023 17:15:01.000,53.504,1.187,2598.525177
14 Sep 2023 17:15:06.000,53.321,0.882,2631.141904
14 Sep 2023 17:15:11.000,53.143,0.580,2663.787027
14 Sep 2023 17:15:16.000,52.969,0.283,2696.458625
14 Sep 2023 17:15:20.797,52.807,0.000,2727.824783
14 Sep 2023 18:42:52.054,254.153,0.000,2717.159819
14 Sep 2023 18:42:57.000,254.450,0.277,2686.598504
14 Sep 2023 18:43:02.000,254.757,0.560,2655.766050
14 Sep 2023 18:43:07.000,255.071,0.845,2624.997603
14 Sep 2023 18:43:12.000,255.393,1.134,2594.296261
14 Sep 2023 18:43:17.000,255.722,1.425,2563.665265
14 Sep 2023 18:43:22.000,256.058,1.720,2533.107986
14 Sep 2023 18:43:27.000,256.403,2.017,2502.627942
14 Sep 2023 18:43:32.000,256.756,2.318,2472.228805
14 Sep 2023 18:43:37.000,257.118,2.622,2441.914407
14 Sep 2023 18:43:42.000,257.489,2.930,2411.688761
14 Sep 2023 18:43:47.000,257.869,3.241,2381.556049
14 Sep 2023 18:43:52.000,258.259,3.555,2351.520649
14 Sep 2023 18:43:57.000,258.658,3.874,2321.587140
14 Sep 2023 18:44:02.000,259.069,4.196,2291.760310
14 Sep 2023 18:44:07.000,259.490,4.521,2262.045176
14 Sep 2023 18:44:12.000,259.922,4.851,2232.446987
14 Sep 2023 18:44:17.000,260.367,5.185,2202.971249
14 Sep 2023 18:44:22.000,260.823,5.523,2173.623717
14 Sep 2023 18:44:27.000,261.292,5.865,2144.410440
14 Sep 2023 18:44:32.000,261.774,6.212,2115.337753
14 Sep 2023 18:44:37.000,262.271,6.563,2086.412307
14 Sep 2023 18:44:42.000,262.781,6.918,2057.641071
14 Sep 2023 18:44:47.000,263.306,7.278,2029.031367
14 Sep 2023 18:44:52.000,263.847,7.643,2000.590886
14 Sep 2023 18:44:57.000,264.404,8.013,1972.327690
14 Sep 2023 18:45:02.000,264.978,8.387,1944.250262
14 Sep 2023 18:45:07.000,265.569,8.767,1916.367503
14 Sep 2023 18:45:12.000,266.179,9.151,1888.688761
14 Sep 2023 18:45:17.000,266.807,9.541,1861.223874
14 Sep 2023 18:45:22.000,267.456,9.935,1833.983164
14 Sep 2023 18:45:27.000,268.125,10.335,1806.977480
14 Sep 2023 18:45:32.000,268.816,10.740,1780.218225
14 Sep 2023 18:45:37.000,269.529,11.150,1753.717376
14 Sep 2023 18:45:42.000,270.266,11.565,1727.487513
14 Sep 2023 18:45:47.000,271.028,11.986,1701.541853
14 Sep 2023 18:45:52.000,271.814,12.411,1675.894260
14 Sep 2023 18:45:57.000,272.628,12.841,1650.559299
14 Sep 2023 18:46:02.000,273.469,13.276,1625.552231
14 Sep 2023 18:46:07.000,274.339,13.716,1600.889073
14 Sep 2023 18:46:12.000,275.239,14.160,1576.586593
14 Sep 2023 18:46:17.000,276.170,14.608,1552.662348
14 Sep 2023 18:46:22.000,277.133,15.060,1529.134699
14 Sep 2023 18:46:27.000,278.130,15.515,1506.022831
14 Sep 2023 18:46:32.000,279.162,15.974,1483.346763
14 Sep 2023 18:46:37.000,280.230,16.435,1461.127361
14 Sep 2023 18:46:42.000,281.336,16.897,1439.386324
14 Sep 2023 18:46:47.000,282.480,17.361,1418.146194
14 Sep 2023 18:46:52.000,283.664,17.826,1397.430345
14 Sep 2023 18:46:57.000,284.889,18.289,1377.262947
14 Sep 2023 18:47:02.000,286.157,18.752,1357.668926
14 Sep 2023 18:47:07.000,287.467,19.212,1338.673946
14 Sep 2023 18:47:12.000,288.822,19.668,1320.304315
14 Sep 2023 18:47:17.000,290.222,20.120,1302.586936
14 Sep 2023 18:47:22.000,291.668,20.564,1285.549197
14 Sep 2023 18:47:27.000,293.159,21.001,1269.218871
14 Sep 2023 18:47:32.000,294.698,21.428,1253.623980
14 Sep 2023 18:47:37.000,296.282,21.844,1238.792659
14 Sep 2023 18:47:42.000,297.913,22.247,1224.752982
14 Sep 2023 18:47:47.000,299.590,22.634,1211.532785
14 Sep 2023 18:47:52.000,301.312,23.004,1199.159463
14 Sep 2023 18:47:57.000,303.077,23.355,1187.659746
14 Sep 2023 18:48:02.000,304.884,23.685,1177.059478
14 Sep 2023 18:48:07.000,306.732,23.991,1167.383378
14 Sep 2023 18:48:12.000,308.617,24.272,1158.654782
14 Sep 2023 18:48:17.000,310.537,24.525,1150.895409
14 Sep 2023 18:48:22.000,312.489,24.749,1144.125113
14 Sep 2023 18:48:27.000,314.468,24.943,1138.361640
14 Sep 2023 18:48:32.000,316.471,25.103,1133.620429
14 Sep 2023 18:48:37.000,318.494,25.231,1129.914390
14 Sep 2023 18:48:42.000,320.532,25.323,1127.253756
14 Sep 2023 18:48:47.000,322.580,25.380,1125.645928
14 Sep 2023 18:48:52.000,324.634,25.401,1125.095365
14 Sep 2023 18:48:57.000,326.687,25.386,1125.603589
14 Sep 2023 18:49:02.000,328.736,25.335,1127.169046
14 Sep 2023 18:49:07.000,330.775,25.248,1129.787212
14 Sep 2023 18:49:12.000,332.799,25.127,1133.450643
14 Sep 2023 18:49:17.000,334.804,24.972,1138.149062
14 Sep 2023 18:49:22.000,336.785,24.784,1143.869504
14 Sep 2023 18:49:27.000,338.738,24.565,1150.596489
14 Sep 2023 18:49:32.000,340.661,24.317,1158.312217
14 Sep 2023 18:49:37.000,342.548,24.042,1166.996789
14 Sep 2023 18:49:42.000,344.399,23.740,1176.628435
14 Sep 2023 18:49:47.000,346.209,23.416,1187.183766
14 Sep 2023 18:49:52.000,347.977,23.070,1198.638017
14 Sep 2023 18:49:57.000,349.702,22.704,1210.965294
14 Sep 2023 18:50:02.000,351.382,22.321,1224.138813
14 Sep 2023 18:50:07.000,353.017,21.922,1238.131133
14 Sep 2023 18:50:12.000,354.605,21.510,1252.914369
14 Sep 2023 18:50:17.000,356.147,21.087,1268.460398
14 Sep 2023 18:50:22.000,357.643,20.654,1284.741040
14 Sep 2023 18:50:27.000,359.092,20.212,1301.728220
14 Sep 2023 18:50:32.000,0.496,19.764,1319.394124
14 Sep 2023 18:50:37.000,1.854,19.311,1337.711317
14 Sep 2023 18:50:42.000,3.169,18.854,1356.652860
14 Sep 2023 18:50:47.000,4.440,18.394,1376.192396
14 Sep 2023 18:50:52.000,5.669,17.933,1396.304231
14 Sep 2023 18:50:57.000,6.857,17.471,1416.963392
14 Sep 2023 18:51:02.000,8.005,17.010,1438.145674
14 Sep 2023 18:51:07.000,9.115,16.549,1459.827674
14 Sep 2023 18:51:12.000,10.187,16.091,1481.986816
14 Sep 2023 18:51:17.000,11.223,15.634,1504.601365
14 Sep 2023 18:51:22.000,12.224,15.181,1527.650429
14 Sep 2023 18:51:27.000,13.191,14.731,1551.113963
14 Sep 2023 18:51:32.000,14.126,14.285,1574.972756
14 Sep 2023 18:51:37.000,15.030,13.842,1599.208421
14 Sep 2023 18:51:42.000,15.904,13.404,1623.803378
14 Sep 2023 18:51:47.000,16.749,12.971,1648.740834
14 Sep 2023 18:51:52.000,17.566,12.542,1674.004763
14 Sep 2023 18:51:57.000,18.357,12.119,1699.579873
14 Sep 2023 18:52:02.000,19.123,11.700,1725.451593
14 Sep 2023 18:52:07.000,19.864,11.286,1751.606033
14 Sep 2023 18:52:12.000,20.581,10.877,1778.029966
14 Sep 2023 18:52:17.000,21.276,10.474,1804.710799
14 Sep 2023 18:52:22.000,21.949,10.075,1831.636540
14 Sep 2023 18:52:27.000,22.602,9.682,1858.795778
14 Sep 2023 18:52:32.000,23.235,9.293,1886.177650
14 Sep 2023 18:52:37.000,23.849,8.910,1913.771822
14 Sep 2023 18:52:42.000,24.444,8.532,1941.568456
14 Sep 2023 18:52:47.000,25.023,8.159,1969.558190
14 Sep 2023 18:52:52.000,25.584,7.790,1997.732113
14 Sep 2023 18:52:57.000,26.129,7.426,2026.081744
14 Sep 2023 18:53:02.000,26.659,7.067,2054.599005
14 Sep 2023 18:53:07.000,27.173,6.713,2083.276208
14 Sep 2023 18:53:12.000,27.674,6.363,2112.106025
14 Sep 2023 18:53:17.000,28.161,6.017,2141.081481
14 Sep 2023 18:53:22.000,28.635,5.676,2170.195921
14 Sep 2023 18:53:27.000,29.096,5.339,2199.443009
14 Sep 2023 18:53:32.000,29.545,5.006,2228.816697
14 Sep 2023 18:53:37.000,29.982,4.677,2258.311223
14 Sep 2023 18:53:42.000,30.408,4.352,2287.921079
14 Sep 2023 18:53:47.000,30.823,4.031,2317.641325
14 Sep 2023 18:53:52.000,31.228,3.714,2347.466330
14 Sep 2023 18:53:57.000,31.622,3.400,2377.391610
14 Sep 2023 18:54:02.000,32.008,3.090,2407.412588
14 Sep 2023 18:54:07.000,32.383,2.784,2437.524886
14 Sep 2023 18:54:12.000,32.750,2.480,2467.724320
14 Sep 2023 18:54:17.000,33.109,2.181,2498.006883
14 Sep 2023 18:54:22.000,33.459,1.884,2528.368743
14 Sep 2023 18:54:27.000,33.800,1.590,2558.806229
14 Sep 2023 18:54:32.000,34.135,1.300,2589.315821
14 Sep 2023 18:54:37.000,34.462,1.012,2619.894153
14 Sep 2023 18:54:42.000,34.781,0.727,2650.537992
14 Sep 2023 18:54:47.000,35.094,0.445,2681.244237
14 Sep 2023 18:54:52.000,35.400,0.166,2712.009913
14 Sep 2023 18:54:54.996,35.580,0.000,2730.474650
14 Sep 2023 20:25:21.473,299.752,0.000,2726.426028
14 Sep 2023 20:25:26.000,300.280,0.179,2706.701271
14 Sep 2023 20:25:31.000,300.872,0.375,2685.132539
14 Sep 2023 20:25:36.000,301.474,0.571,2663.798768
14 Sep 2023 20:25:41.000,302.085,0.766,2642.706201
14 Sep 2023 20:25:46.000,302.706,0.961,2621.861196
14 Sep 2023 20:25:51.000,303.336,1.155,2601.270235
14 Sep 2023 20:25:56.000,303.976,1.348,2580.939926
14 Sep 2023 20:26:01.000,304.627,1.540,2560.876989
14 Sep 2023 20:26:06.000,305.287,1.731,2541.088270
14 Sep 2023 20:26:11.000,305.957,1.921,2521.580729
14 Sep 2023 20:26:16.000,306.638,2.110,2502.361431
14 Sep 2023 20:26:21.000,307.329,2.297,2483.437559
14 Sep 2023 20:26:26.000,308.031,2.483,2464.816394
14 Sep 2023 20:26:31.000,308.743,2.668,2446.505314
14 Sep 2023 20:26:36.000,309.465,2.851,2428.511800
14 Sep 2023 20:26:41.000,310.199,3.032,2410.843410
14 Sep 2023 20:26:46.000,310.943,3.211,2393.507792
14 Sep 2023 20:26:51.000,311.698,3.388,2376.512654
14 Sep 2023 20:26:56.000,312.463,3.563,2359.865780
14 Sep 2023 20:27:01.000,313.240,3.735,2343.575008
14 Sep 2023 20:27:06.000,314.027,3.905,2327.648215
14 Sep 2023 20:27:11.000,314.825,4.073,2312.093321
14 Sep 2023 20:27:16.000,315.634,4.237,2296.918264
14 Sep 2023 20:27:21.000,316.454,4.399,2282.130994
14 Sep 2023 20:27:26.000,317.284,4.558,2267.739461
14 Sep 2023 20:27:31.000,318.125,4.713,2253.751596
14 Sep 2023 20:27:36.000,318.976,4.865,2240.175305
14 Sep 2023 20:27:41.000,319.838,5.014,2227.018440
14 Sep 2023 20:27:46.000,320.710,5.158,2214.288799
14 Sep 2023 20:27:51.000,321.593,5.299,2201.994095
14 Sep 2023 20:27:56.000,322.485,5.436,2190.141948
14 Sep 2023 20:28:01.000,323.387,5.568,2178.739862
14 Sep 2023 20:28:06.000,324.298,5.696,2167.795207
14 Sep 2023 20:28:11.000,325.219,5.819,2157.315206
14 Sep 2023 20:28:16.000,326.149,5.937,2147.306902
14 Sep 2023 20:28:21.000,327.087,6.051,2137.777156
14 Sep 2023 20:28:26.000,328.034,6.159,2128.732611
14 Sep 2023 20:28:31.000,328.989,6.262,2120.179681
14 Sep 2023 20:28:36.000,329.952,6.360,2112.124533
14 Sep 2023 20:28:41.000,330.922,6.452,2104.573060
14 Sep 2023 20:28:46.000,331.899,6.538,2097.530865
14 Sep 2023 20:28:51.000,332.882,6.618,2091.003248
14 Sep 2023 20:28:56.000,333.872,6.692,2084.995178
14 Sep 2023 20:29:01.000,334.867,6.760,2079.511279
14 Sep 2023 20:29:06.000,335.868,6.822,2074.555819
14 Sep 2023 20:29:11.000,336.873,6.877,2070.132689
14 Sep 2023 20:29:16.000,337.882,6.926,2066.245385
14 Sep 2023 20:29:21.000,338.896,6.968,2062.897005
14 Sep 2023 20:29:26.000,339.912,7.004,2060.090227
14 Sep 2023 20:29:31.000,340.931,7.032,2057.827305
14 Sep 2023 20:29:36.000,341.952,7.054,2056.110057
14 Sep 2023 20:29:41.000,342.974,7.070,2054.939861
14 Sep 2023 20:29:46.000,343.997,7.078,2054.317644
14 Sep 2023 20:29:51.000,345.021,7.080,2054.243883
14 Sep 2023 20:29:56.000,346.044,7.074,2054.718602
14 Sep 2023 20:30:01.000,347.067,7.062,2055.741371
14 Sep 2023 20:30:06.000,348.088,7.043,2057.311308
14 Sep 2023 20:30:11.000,349.108,7.017,2059.427084
14 Sep 2023 20:30:16.000,350.125,6.984,2062.086925
14 Sep 2023 20:30:21.000,351.139,6.945,2065.288621
14 Sep 2023 20:30:26.000,352.149,6.899,2069.029536
14 Sep 2023 20:30:31.000,353.156,6.847,2073.306613
14 Sep 2023 20:30:36.000,354.158,6.788,2078.116394
14 Sep 2023 20:30:41.000,355.154,6.723,2083.455025
14 Sep 2023 20:30:46.000,356.146,6.652,2089.318274
14 Sep 2023 20:30:51.000,357.131,6.574,2095.701547
14 Sep 2023 20:30:56.000,358.110,6.491,2102.599903
14 Sep 2023 20:31:01.000,359.082,6.401,2110.008071
14 Sep 2023 20:31:06.000,0.047,6.307,2117.920471
14 Sep 2023 20:31:11.000,1.004,6.206,2126.331316
14 Sep 2023 20:31:16.000,1.953,6.100,2135.234291
14 Sep 2023 20:31:21.000,2.894,5.989,2144.623076
14 Sep 2023 20:31:26.000,3.826,5.874,2154.491039
14 Sep 2023 20:31:31.000,4.749,5.753,2164.831331
14 Sep 2023 20:31:36.000,5.663,5.627,2175.636911
14 Sep 2023 20:31:41.000,6.568,5.497,2186.900563
14 Sep 2023 20:31:46.000,7.463,5.363,2198.614916
14 Sep 2023 20:31:51.000,8.348,5.224,2210.772462
14 Sep 2023 20:31:56.000,9.223,5.082,2223.365578
14 Sep 2023 20:32:01.000,10.088,4.936,2236.386540
14 Sep 2023 20:32:06.000,10.943,4.786,2249.827545
14 Sep 2023 20:32:11.000,11.787,4.632,2263.680723
14 Sep 2023 20:32:16.000,12.620,4.476,2277.938158
14 Sep 2023 20:32:21.000,13.443,4.316,2292.591899
14 Sep 2023 20:32:26.000,14.255,4.153,2307.633980
14 Sep 2023 20:32:31.000,15.057,3.987,2323.056430
14 Sep 2023 20:32:36.000,15.847,3.819,2338.851288
14 Sep 2023 20:32:41.000,16.627,3.648,2355.010613
14 Sep 2023 20:32:46.000,17.396,3.475,2371.526499
14 Sep 2023 20:32:51.000,18.155,3.300,2388.391086
14 Sep 2023 20:32:56.000,18.902,3.122,2405.596565
14 Sep 2023 20:33:01.000,19.639,2.943,2423.135194
14 Sep 2023 20:33:06.000,20.365,2.762,2440.999300
14 Sep 2023 20:33:11.000,21.081,2.579,2459.181292
14 Sep 2023 20:33:16.000,21.786,2.394,2477.673665
14 Sep 2023 20:33:21.000,22.481,2.208,2496.469007
14 Sep 2023 20:33:26.000,23.165,2.021,2515.560005
14 Sep 2023 20:33:31.000,23.839,1.832,2534.939447
14 Sep 2023 20:33:36.000,24.503,1.642,2554.600236
14 Sep 2023 20:33:41.000,25.157,1.451,2574.535379
14 Sep 2023 20:33:46.000,25.801,1.260,2594.738003
14 Sep 2023 20:33:51.000,26.435,1.067,2615.201353
14 Sep 2023 20:33:56.000,27.059,0.874,2635.918790
14 Sep 2023 20:34:01.000,27.674,0.679,2656.883801
14 Sep 2023 20:34:06.000,28.279,0.485,2678.089996
14 Sep 2023 20:34:11.000,28.875,0.289,2699.531107
14 Sep 2023 20:34:16.000,29.462,0.093,2721.200994
14 Sep 2023 20:34:18.374,29.738,0.000,2731.569592
14 Sep 2023 22:07:31.348,327.941,0.000,2730.934187
14 Sep 2023 22:07:36.000,328.523,0.162,2712.923999
14 Sep 2023 22:07:41.000,329.157,0.336,2693.819402
14 Sep 2023 22:07:46.000,329.800,0.508,2674.982142
14 Sep 2023 22:07:51.000,330.451,0.679,2656.418423
14 Sep 2023 22:07:56.000,331.111,0.849,2638.134526
14 Sep 2023 22:08:01.000,331.780,1.017,2620.136810
14 Sep 2023 22:08:06.000,332.459,1.184,2602.431704
14 Sep 2023 22:08:11.000,333.146,1.348,2585.025707
14 Sep 2023 22:08:16.000,333.842,1.512,2567.925377
14 Sep 2023 22:08:21.000,334.548,1.673,2551.137333
14 Sep 2023 22:08:26.000,335.262,1.832,2534.668236
14 Sep 2023 22:08:31.000,335.986,1.990,2518.524800
14 Sep 2023 22:08:36.000,336.719,2.145,2502.713767
14 Sep 2023 22:08:41.000,337.461,2.298,2487.241914
14 Sep 2023 22:08:46.000,338.212,2.449,2472.116035
14 Sep 2023 22:08:51.000,338.972,2.597,2457.342935
14 Sep 2023 22:08:56.000,339.742,2.742,2442.929422
14 Sep 2023 22:09:01.000,340.520,2.885,2428.882296
14 Sep 2023 22:09:06.000,341.307,3.024,2415.208339
14 Sep 2023 22:09:11.000,342.103,3.161,2401.914300
14 Sep 2023 22:09:16.000,342.908,3.295,2389.006893
14 Sep 2023 22:09:21.000,343.721,3.425,2376.492775
14 Sep 2023 22:09:26.000,344.543,3.552,2364.378537
14 Sep 2023 22:09:31.000,345.373,3.675,2352.670696
14 Sep 2023 22:09:36.000,346.212,3.795,2341.375675
14 Sep 2023 22:09:41.000,347.058,3.911,2330.499789
14 Sep 2023 22:09:46.000,347.912,4.023,2320.049239
14 Sep 2023 22:09:51.000,348.774,4.131,2310.030092
14 Sep 2023 22:09:56.000,349.644,4.234,2300.448266
14 Sep 2023 22:10:01.000,350.520,4.334,2291.309516
14 Sep 2023 22:10:06.000,351.404,4.429,2282.619423
14 Sep 2023 22:10:11.000,352.294,4.519,2274.383377
14 Sep 2023 22:10:16.000,353.190,4.605,2266.606563
14 Sep 2023 22:10:21.000,354.093,4.686,2259.293944
14 Sep 2023 22:10:26.000,355.001,4.762,2252.450253
14 Sep 2023 22:10:31.000,355.915,4.833,2246.079973
14 Sep 2023 22:10:36.000,356.834,4.899,2240.187329
14 Sep 2023 22:10:41.000,357.757,4.960,2234.776271
14 Sep 2023 22:10:46.000,358.685,5.015,2229.850465
14 Sep 2023 22:10:51.000,359.617,5.065,2225.413282
14 Sep 2023 22:10:56.000,0.553,5.110,2221.467783
14 Sep 2023 22:11:01.000,1.491,5.149,2218.016714
14 Sep 2023 22:11:06.000,2.433,5.182,2215.062493
14 Sep 2023 22:11:11.000,3.377,5.210,2212.607206
14 Sep 2023 22:11:16.000,4.322,5.232,2210.652597
14 Sep 2023 22:11:21.000,5.270,5.249,2209.200064
14 Sep 2023 22:11:26.000,6.218,5.260,2208.250654
14 Sep 2023 22:11:31.000,7.167,5.265,2207.805059
14 Sep 2023 22:11:36.000,8.116,5.264,2207.863610
14 Sep 2023 22:11:41.000,9.065,5.258,2208.426286
14 Sep 2023 22:11:46.000,10.013,5.245,2209.492701
14 Sep 2023 22:11:51.000,10.960,5.228,2211.062119
14 Sep 2023 22:11:56.000,11.905,5.204,2213.133443
14 Sep 2023 22:12:01.000,12.848,5.175,2215.705230
14 Sep 2023 22:12:06.000,13.789,5.140,2218.775688
14 Sep 2023 22:12:11.000,14.727,5.099,2222.342687
14 Sep 2023 22:12:16.000,15.662,5.053,2226.403763
14 Sep 2023 22:12:21.000,16.593,5.002,2230.956131
14 Sep 2023 22:12:26.000,17.520,4.945,2235.996684
14 Sep 2023 22:12:31.000,18.443,4.883,2241.522016
14 Sep 2023 22:12:36.000,19.360,4.816,2247.528423
14 Sep 2023 22:12:41.000,20.273,4.743,2254.011917
14 Sep 2023 22:12:46.000,21.180,4.666,2260.968243
14 Sep 2023 22:12:51.000,22.081,4.584,2268.392884
14 Sep 2023 22:12:56.000,22.976,4.497,2276.281078
14 Sep 2023 22:13:01.000,23.865,4.405,2284.627837
14 Sep 2023 22:13:06.000,24.747,4.309,2293.427948
14 Sep 2023 22:13:11.000,25.622,4.208,2302.676002
14 Sep 2023 22:13:16.000,26.489,4.104,2312.366398
14 Sep 2023 22:13:21.000,27.349,3.995,2322.493360
14 Sep 2023 22:13:26.000,28.202,3.882,2333.051074
14 Sep 2023 22:13:31.000,29.046,3.765,2344.033228
14 Sep 2023 22:13:36.000,29.883,3.644,2355.433728
14 Sep 2023 22:13:41.000,30.711,3.519,2367.246248
14 Sep 2023 22:13:46.000,31.531,3.392,2379.464355
14 Sep 2023 22:13:51.000,32.342,3.260,2392.081531
14 Sep 2023 22:13:56.000,33.145,3.126,2405.091184
14 Sep 2023 22:14:01.000,33.939,2.988,2418.486654
14 Sep 2023 22:14:06.000,34.724,2.848,2432.261230
14 Sep 2023 22:14:11.000,35.500,2.704,2446.408167
14 Sep 2023 22:14:16.000,36.267,2.558,2460.920686
14 Sep 2023 22:14:21.000,37.025,2.409,2475.791995
14 Sep 2023 22:14:26.000,37.774,2.258,2491.015294
14 Sep 2023 22:14:31.000,38.513,2.104,2506.583788
14 Sep 2023 22:14:36.000,39.244,1.948,2522.490691
14 Sep 2023 22:14:41.000,39.965,1.790,2538.729246
14 Sep 2023 22:14:46.000,40.677,1.630,2555.292718
14 Sep 2023 22:14:51.000,41.381,1.468,2572.174409
14 Sep 2023 22:14:56.000,42.075,1.304,2589.367672
14 Sep 2023 22:15:01.000,42.759,1.138,2606.865909
14 Sep 2023 22:15:06.000,43.435,0.971,2624.662574
14 Sep 2023 22:15:11.000,44.102,0.802,2642.751188
14 Sep 2023 22:15:16.000,44.760,0.632,2661.125340
14 Sep 2023 22:15:21.000,45.409,0.461,2679.778689
14 Sep 2023 22:15:26.000,46.049,0.288,2698.704976
14 Sep 2023 22:15:31.000,46.680,0.114,2717.898017
14 Sep 2023 22:15:34.246,47.086,0.000,2730.499265
14 Sep 2023 23:47:17.466,327.916,0.000,2731.534634
14 Sep 2023 23:47:22.000,328.301,0.228,2706.226476
14 Sep 2023 23:47:27.000,328.733,0.481,2678.427422
14 Sep 2023 23:47:32.000,329.173,0.736,2650.749979
14 Sep 2023 23:47:37.000,329.623,0.992,2623.198789
14 Sep 2023 23:47:42.000,330.082,1.250,2595.778664
14 Sep 2023 23:47:47.000,330.550,1.509,2568.494587
14 Sep 2023 23:47:52.000,331.028,1.770,2541.351726
14 Sep 2023 23:47:57.000,331.516,2.033,2514.355436
14 Sep 2023 23:48:02.000,332.014,2.297,2487.511267
14 Sep 2023 23:48:07.000,332.524,2.563,2460.824970
14 Sep 2023 23:48:12.000,333.044,2.830,2434.302510
14 Sep 2023 23:48:17.000,333.575,3.099,2407.950066
14 Sep 2023 23:48:22.000,334.118,3.370,2381.774045
14 Sep 2023 23:48:27.000,334.672,3.642,2355.781087
14 Sep 2023 23:48:32.000,335.239,3.915,2329.978070
14 Sep 2023 23:48:37.000,335.819,4.190,2304.372125
14 Sep 2023 23:48:42.000,336.412,4.467,2278.970642
14 Sep 2023 23:48:47.000,337.018,4.745,2253.781269
14 Sep 2023 23:48:52.000,337.638,5.024,2228.811937
14 Sep 2023 23:48:57.000,338.272,5.304,2204.070851
14 Sep 2023 23:49:02.000,338.920,5.586,2179.566505
14 Sep 2023 23:49:07.000,339.583,5.869,2155.307695
14 Sep 2023 23:49:12.000,340.262,6.153,2131.303515
14 Sep 2023 23:49:17.000,340.956,6.438,2107.563370
14 Sep 2023 23:49:22.000,341.667,6.723,2084.096981
14 Sep 2023 23:49:27.000,342.394,7.010,2060.914394
14 Sep 2023 23:49:32.000,343.138,7.297,2038.025973
14 Sep 2023 23:49:37.000,343.899,7.584,2015.442421
14 Sep 2023 23:49:42.000,344.678,7.872,1993.174769
14 Sep 2023 23:49:47.000,345.475,8.160,1971.234383
14 Sep 2023 23:49:52.000,346.291,8.447,1949.632965
14 Sep 2023 23:49:57.000,347.126,8.735,1928.382550
14 Sep 2023 23:50:02.000,347.980,9.021,1907.495505
14 Sep 2023 23:50:07.000,348.854,9.307,1886.984522
14 Sep 2023 23:50:12.000,349.748,9.592,1866.862611
14 Sep 2023 23:50:17.000,350.662,9.876,1847.143095
14 Sep 2023 23:50:22.000,351.597,10.158,1827.839592
14 Sep 2023 23:50:27.000,352.553,10.437,1808.966005
14 Sep 2023 23:50:32.000,353.531,10.715,1790.536502
14 Sep 2023 23:50:37.000,354.530,10.989,1772.565496
14 Sep 2023 23:50:42.000,355.551,11.260,1755.067622
14 Sep 2023 23:50:47.000,356.593,11.528,1738.057707
14 Sep 2023 23:50:52.000,357.658,11.792,1721.550740
14 Sep 2023 23:50:57.000,358.745,12.051,1705.561834
14 Sep 2023 23:51:02.000,359.853,12.304,1690.106191
14 Sep 2023 23:51:07.000,0.984,12.553,1675.199054
14 Sep 2023 23:51:12.000,2.136,12.795,1660.855661
14 Sep 2023 23:51:17.000,3.310,13.030,1647.091195
14 Sep 2023 23:51:22.000,4.505,13.258,1633.920724
14 Sep 2023 23:51:27.000,5.721,13.479,1621.359148
14 Sep 2023 23:51:32.000,6.958,13.691,1609.421130
14 Sep 2023 23:51:37.000,8.215,13.893,1598.121033
14 Sep 2023 23:51:42.000,9.491,14.087,1587.472853
14 Sep 2023 23:51:47.000,10.785,14.270,1577.490147
14 Sep 2023 23:51:52.000,12.097,14.442,1568.185962
14 Sep 2023 23:51:57.000,13.426,14.603,1559.572760
14 Sep 2023 23:52:02.000,14.771,14.751,1551.662350
14 Sep 2023 23:52:07.000,16.131,14.888,1544.465810
14 Sep 2023 23:52:12.000,17.505,15.012,1537.993427
14 Sep 2023 23:52:17.000,18.890,15.122,1532.254619
14 Sep 2023 23:52:22.000,20.287,15.218,1527.257877
14 Sep 2023 23:52:27.000,21.693,15.300,1523.010711
14 Sep 2023 23:52:32.000,23.108,15.368,1519.519589
14 Sep 2023 23:52:37.000,24.528,15.421,1516.789893
14 Sep 2023 23:52:42.000,25.954,15.459,1514.825882
14 Sep 2023 23:52:47.000,27.384,15.481,1513.630659
14 Sep 2023 23:52:52.000,28.815,15.489,1513.206144
14 Sep 2023 23:52:57.000,30.246,15.481,1513.553067
14 Sep 2023 23:53:02.000,31.675,15.458,1514.670957
14 Sep 2023 23:53:07.000,33.101,15.420,1516.558144
14 Sep 2023 23:53:12.000,34.523,15.367,1519.211825
14 Sep 2023 23:53:17.000,35.938,15.299,1522.627910
14 Sep 2023 23:53:22.000,37.345,15.216,1526.801293
14 Sep 2023 23:53:27.000,38.743,15.119,1531.725737
14 Sep 2023 23:53:32.000,40.129,15.009,1537.393963
14 Sep 2023 23:53:37.000,41.504,14.884,1543.797689
14 Sep 2023 23:53:42.000,42.865,14.747,1550.927698
14 Sep 2023 23:53:47.000,44.211,14.598,1558.773905
14 Sep 2023 23:53:52.000,45.542,14.436,1567.325404
14 Sep 2023 23:53:57.000,46.856,14.264,1576.570555
14 Sep 2023 23:54:02.000,48.152,14.080,1586.497051
14 Sep 2023 23:54:07.000,49.429,13.886,1597.091985
14 Sep 2023 23:54:12.000,50.687,13.682,1608.341925
14 Sep 2023 23:54:17.000,51.925,13.469,1620.232993
14 Sep 2023 23:54:22.000,53.143,13.248,1632.750924
14 Sep 2023 23:54:27.000,54.340,13.019,1645.881145
14 Sep 2023 23:54:32.000,55.516,12.783,1659.608831
14 Sep 2023 23:54:37.000,56.670,12.539,1673.918982
14 Sep 2023 23:54:42.000,57.802,12.290,1688.796464
14 Sep 2023 23:54:47.000,58.912,12.035,1704.226086
14 Sep 2023 23:54:52.000,60.000,11.775,1720.192634
14 Sep 2023 23:54:57.000,61.066,11.510,1736.680938
14 Sep 2023 23:55:02.000,62.110,11.241,1753.675894
14 Sep 2023 23:55:07.000,63.132,10.969,1771.162527
14 Sep 2023 23:55:12.000,64.132,10.693,1789.126005
14 Sep 2023 23:55:17.000,65.110,10.414,1807.551692
14 Sep 2023 23:55:22.000,66.067,10.133,1826.425160
14 Sep 2023 23:55:27.000,67.003,9.850,1845.732231
14 Sep 2023 23:55:32.000,67.919,9.565,1865.458980
14 Sep 2023 23:55:37.000,68.813,9.279,1885.591758
14 Sep 2023 23:55:42.000,69.688,8.992,1906.117220
14 Sep 2023 23:55:47.000,70.542,8.704,1927.022325
14 Sep 2023 23:55:52.000,71.377,8.415,1948.294345
14 Sep 2023 23:55:57.000,72.193,8.126,1969.920879
14 Sep 2023 23:56:02.000,72.991,7.836,1991.889855
14 Sep 2023 23:56:07.000,73.770,7.547,2014.189528
14 Sep 2023 23:56:12.000,74.531,7.259,2036.808498
14 Sep 2023 23:56:17.000,75.275,6.970,2059.735687
14 Sep 2023 23:56:22.000,76.001,6.682,2082.960360
14 Sep 2023 23:56:27.000,76.711,6.395,2106.472100
14 Sep 2023 23:56:32.000,77.405,6.109,2130.260825
14 Sep 2023 23:56:37.000,78.083,5.824,2154.316772
14 Sep 2023 23:56:42.000,78.745,5.539,2178.630495
14 Sep 2023 23:56:47.000,79.393,5.256,2203.192855
14 Sep 2023 23:56:52.000,80.025,4.974,2227.995017
14 Sep 2023 23:56:57.000,80.644,4.694,2253.028450
14 Sep 2023 23:57:02.000,81.249,4.415,2278.284905
14 Sep 2023 23:57:07.000,81.840,4.137,2303.756412
14 Sep 2023 23:57:12.000,82.418,3.860,2329.435287
14 Sep 2023 23:57:17.000,82.984,3.585,2355.314097
14 Sep 2023 23:57:22.000,83.537,3.312,2381.385683
14 Sep 2023 23:57:27.000,84.078,3.040,2407.643120
14 Sep 2023 23:57:32.000,84.607,2.770,2434.079738
14 Sep 2023 23:57:37.000,85.125,2.501,2460.689096
14 Sep 2023 23:57:42.000,85.632,2.234,2487.464980
14 Sep 2023 23:57:47.000,86.128,1.969,2514.401394
14 Sep 2023 23:57:52.000,86.614,1.705,2541.492553
14 Sep 2023 23:57:57.000,87.090,1.442,2568.732877
14 Sep 2023 23:58:02.000,87.555,1.182,2596.116979
14 Sep 2023 23:58:07.000,88.011,0.923,2623.639665
14 Sep 2023 23:58:12.000,88.458,0.665,2651.295919
14 Sep 2023 23:58:17.000,88.896,0.409,2679.080903
14 Sep 2023 23:58:22.000,89.325,0.155,2706.989943
14 Sep 2023 23:58:25.059,89.583,0.000,2724.121835
15 Sep 2023 01:26:36.538,314.527,0.000,2730.555545
15 Sep 2023 01:26:41.000,314.537,0.270,2700.667694
15 Sep 2023 01:26:46.000,314.548,0.575,2667.177447
15 Sep 2023 01:26:51.000,314.559,0.884,2633.688449
15 Sep 2023 01:26:56.000,314.570,1.198,2600.201702
15 Sep 2023 01:27:01.000,314.581,1.516,2566.718257
15 Sep 2023 01:27:06.000,314.591,1.838,2533.239202
15 Sep 2023 01:27:11.000,314.601,2.165,2499.765672
15 Sep 2023 01:27:16.000,314.612,2.496,2466.298848
15 Sep 2023 01:27:21.000,314.621,2.833,2432.839969
15 Sep 2023 01:27:26.000,314.631,3.174,2399.390322
15 Sep 2023 01:27:31.000,314.641,3.522,2365.951265
15 Sep 2023 01:27:36.000,314.650,3.874,2332.524209
15 Sep 2023 01:27:41.000,314.659,4.233,2299.110639
15 Sep 2023 01:27:46.000,314.668,4.598,2265.712110
15 Sep 2023 01:27:51.000,314.677,4.969,2232.330259
15 Sep 2023 01:27:56.000,314.686,5.347,2198.966805
15 Sep 2023 01:28:01.000,314.694,5.732,2165.623557
15 Sep 2023 01:28:06.000,314.702,6.124,2132.302427
15 Sep 2023 01:28:11.000,314.710,6.524,2099.005426
15 Sep 2023 01:28:16.000,314.717,6.932,2065.734683
15 Sep 2023 01:28:21.000,314.725,7.349,2032.492445
15 Sep 2023 01:28:26.000,314.732,7.774,1999.281096
15 Sep 2023 01:28:31.000,314.738,8.208,1966.103161
15 Sep 2023 01:28:36.000,314.744,8.653,1932.961318
15 Sep 2023 01:28:41.000,314.750,9.107,1899.858417
15 Sep 2023 01:28:46.000,314.756,9.572,1866.797487
15 Sep 2023 01:28:51.000,314.761,10.049,1833.781757
15 Sep 2023 01:28:56.000,314.766,10.538,1800.814671
15 Sep 2023 01:29:01.000,314.771,11.039,1767.899906
15 Sep 2023 01:29:06.000,314.775,11.554,1735.041398
15 Sep 2023 01:29:11.000,314.778,12.082,1702.243360
15 Sep 2023 01:29:16.000,314.781,12.626,1669.510310
15 Sep 2023 01:29:21.000,314.784,13.185,1636.847101
15 Sep 2023 01:29:26.000,314.786,13.760,1604.258951
15 Sep 2023 01:29:31.000,314.787,14.354,1571.751481
15 Sep 2023 01:29:36.000,314.788,14.966,1539.330752
15 Sep 2023 01:29:41.000,314.788,15.598,1507.003314
15 Sep 2023 01:29:46.000,314.787,16.251,1474.776242
15 Sep 2023 01:29:51.000,314.785,16.926,1442.657212
15 Sep 2023 01:29:56.000,314.783,17.625,1410.654545
15 Sep 2023 01:30:01.000,314.780,18.350,1378.777289
15 Sep 2023 01:30:06.000,314.776,19.102,1347.035279
15 Sep 2023 01:30:11.000,314.770,19.882,1315.439244
15 Sep 2023 01:30:16.000,314.764,20.694,1284.000895
15 Sep 2023 01:30:21.000,314.756,21.539,1252.733032
15 Sep 2023 01:30:26.000,314.747,22.419,1221.649668
15 Sep 2023 01:30:31.000,314.737,23.337,1190.766177
15 Sep 2023 01:30:36.000,314.724,24.296,1160.099438
15 Sep 2023 01:30:41.000,314.710,25.299,1129.668011
15 Sep 2023 01:30:46.000,314.694,26.348,1099.492349
15 Sep 2023 01:30:51.000,314.676,27.448,1069.594996
15 Sep 2023 01:30:56.000,314.655,28.603,1040.000849
15 Sep 2023 01:31:01.000,314.631,29.816,1010.737429
15 Sep 2023 01:31:06.000,314.605,31.092,981.835188
15 Sep 2023 01:31:11.000,314.574,32.435,953.327843
15 Sep 2023 01:31:16.000,314.539,33.852,925.252758
15 Sep 2023 01:31:21.000,314.500,35.347,897.651338
15 Sep 2023 01:31:26.000,314.455,36.927,870.569477
15 Sep 2023 01:31:31.000,314.404,38.597,844.058008
15 Sep 2023 01:31:36.000,314.346,40.364,818.173191
15 Sep 2023 01:31:41.000,314.278,42.236,792.977179
15 Sep 2023 01:31:46.000,314.200,44.219,768.538501
15 Sep 2023 01:31:51.000,314.109,46.320,744.932443
15 Sep 2023 01:31:56.000,314.002,48.546,722.241382
15 Sep 2023 01:32:01.000,313.876,50.904,700.554937
15 Sep 2023 01:32:06.000,313.725,53.398,679.969910
15 Sep 2023 01:32:11.000,313.541,56.035,660.589917
15 Sep 2023 01:32:16.000,313.315,58.815,642.524619
15 Sep 2023 01:32:21.000,313.030,61.742,625.888435
15 Sep 2023 01:32:26.000,312.662,64.811,610.798682
15 Sep 2023 01:32:31.000,312.171,68.019,597.373046
15 Sep 2023 01:32:36.000,311.483,71.356,585.726408
15 Sep 2023 01:32:41.000,310.459,74.807,575.967086
15 Sep 2023 01:32:46.000,308.780,78.352,568.192672
15 Sep 2023 01:32:51.000,305.545,81.960,562.485752
15 Sep 2023 01:32:56.000,296.928,85.557,558.909855
15 Sep 2023 01:33:01.000,243.704,88.486,557.506223
15 Sep 2023 01:33:06.000,159.561,86.419,558.291288
15 Sep 2023 01:33:11.000,147.450,82.857,561.255903
15 Sep 2023 01:33:16.000,143.491,79.239,566.365819
15 Sep 2023 01:33:21.000,141.551,75.671,573.563616
15 Sep 2023 01:33:26.000,140.405,72.190,582.771798
15 Sep 2023 01:33:31.000,139.651,68.819,593.896664
15 Sep 2023 01:33:36.000,139.119,65.573,606.832561
15 Sep 2023 01:33:41.000,138.724,62.464,621.466110
15 Sep 2023 01:33:46.000,138.421,59.496,637.680104
15 Sep 2023 01:33:51.000,138.181,56.674,655.356859
15 Sep 2023 01:33:56.000,137.987,53.997,674.380934
15 Sep 2023 01:34:01.000,137.827,51.462,694.641174
15 Sep 2023 01:34:06.000,137.694,49.066,716.032156
15 Sep 2023 01:34:11.000,137.582,46.803,738.455092
15 Sep 2023 01:34:16.000,137.486,44.667,761.818304
15 Sep 2023 01:34:21.000,137.404,42.651,786.037369
15 Sep 2023 01:34:26.000,137.332,40.748,811.035009
15 Sep 2023 01:34:31.000,137.270,38.951,836.740815
15 Sep 2023 01:34:36.000,137.216,37.254,863.090859
15 Sep 2023 01:34:41.000,137.168,35.649,890.027537
15 Sep 2023 01:34:46.000,137.125,34.130,917.497958
15 Sep 2023 01:34:51.000,137.088,32.692,945.455148
15 Sep 2023 01:34:56.000,137.054,31.328,973.856466
15 Sep 2023 01:35:01.000,137.024,30.033,1002.663444
15 Sep 2023 01:35:06.000,136.998,28.803,1031.841358
15 Sep 2023 01:35:11.000,136.974,27.632,1061.358864
15 Sep 2023 01:35:16.000,136.952,26.517,1091.187636
15 Sep 2023 01:35:21.000,136.933,25.453,1121.302061
15 Sep 2023 01:35:26.000,136.916,24.437,1151.678944
15 Sep 2023 01:35:31.000,136.901,23.466,1182.297264
15 Sep 2023 01:35:36.000,136.887,22.537,1213.137939
15 Sep 2023 01:35:41.000,136.875,21.646,1244.183627
15 Sep 2023 01:35:46.000,136.864,20.791,1275.418539
15 Sep 2023 01:35:51.000,136.854,19.970,1306.828293
15 Sep 2023 01:35:56.000,136.846,19.181,1338.399747
15 Sep 2023 01:36:01.000,136.838,18.421,1370.120896
15 Sep 2023 01:36:06.000,136.831,17.688,1401.980737
15 Sep 2023 01:36:11.000,136.825,16.982,1433.969188
15 Sep 2023 01:36:16.000,136.820,16.300,1466.076981
15 Sep 2023 01:36:21.000,136.816,15.641,1498.295595
15 Sep 2023 01:36:26.000,136.812,15.003,1530.617176
15 Sep 2023 01:36:31.000,136.809,14.385,1563.034483
15 Sep 2023 01:36:36.000,136.806,13.786,1595.540813
15 Sep 2023 01:36:41.000,136.804,13.205,1628.129971
15 Sep 2023 01:36:46.000,136.803,12.642,1660.796214
15 Sep 2023 01:36:51.000,136.801,12.094,1693.534210
15 Sep 2023 01:36:56.000,136.801,11.561,1726.339003
15 Sep 2023 01:37:01.000,136.800,11.042,1759.205980
15 Sep 2023 01:37:06.000,136.800,10.537,1792.130840
15 Sep 2023 01:37:11.000,136.800,10.045,1825.109571
15 Sep 2023 01:37:16.000,136.801,9.565,1858.138420
15 Sep 2023 01:37:21.000,136.802,9.096,1891.213877
15 Sep 2023 01:37:26.000,136.803,8.638,1924.332650
15 Sep 2023 01:37:31.000,136.804,8.191,1957.491652
15 Sep 2023 01:37:36.000,136.806,7.753,1990.687981
15 Sep 2023 01:37:41.000,136.808,7.325,2023.918909
15 Sep 2023 01:37:46.000,136.810,6.906,2057.181864
15 Sep 2023 01:37:51.000,136.812,6.496,2090.474422
15 Sep 2023 01:37:56.000,136.815,6.093,2123.794295
15 Sep 2023 01:38:01.000,136.817,5.699,2157.139317
15 Sep 2023 01:38:06.000,136.820,5.312,2190.507439
15 Sep 2023 01:38:11.000,136.823,4.932,2223.896724
15 Sep 2023 01:38:16.000,136.826,4.558,2257.305330
15 Sep 2023 01:38:21.000,136.829,4.191,2290.731509
15 Sep 2023 01:38:26.000,136.832,3.831,2324.173598
15 Sep 2023 01:38:31.000,136.836,3.476,2357.630016
15 Sep 2023 01:38:36.000,136.839,3.127,2391.099253
15 Sep 2023 01:38:41.000,136.843,2.784,2424.579876
15 Sep 2023 01:38:46.000,136.846,2.446,2458.070511
15 Sep 2023 01:38:51.000,136.850,2.112,2491.569847
15 Sep 2023 01:38:56.000,136.854,1.784,2525.076628
15 Sep 2023 01:39:01.000,136.858,1.460,2558.589653
15 Sep 2023 01:39:06.000,136.862,1.141,2592.107767
15 Sep 2023 01:39:11.000,136.866,0.826,2625.629871
15 Sep 2023 01:39:16.000,136.870,0.516,2659.154899
15 Sep 2023 01:39:21.000,136.874,0.209,2692.681832
15 Sep 2023 01:39:24.435,136.877,0.000,2715.712519
15 Sep 2023 03:07:27.569,285.913,0.000,2726.731621
15 Sep 2023 03:07:32.000,285.437,0.191,2705.440291
15 Sep 2023 03:07:37.000,284.892,0.407,2681.617415
15 Sep 2023 03:07:42.000,284.337,0.622,2658.015139
15 Sep 2023 03:07:47.000,283.771,0.838,2634.640009
15 Sep 2023 03:07:52.000,283.195,1.053,2611.498743
15 Sep 2023 03:07:57.000,282.608,1.268,2588.598221
15 Sep 2023 03:08:02.000,282.011,1.483,2565.945495
15 Sep 2023 03:08:07.000,281.403,1.697,2543.547771
15 Sep 2023 03:08:12.000,280.783,1.910,2521.412436
15 Sep 2023 03:08:17.000,280.152,2.123,2499.547032
15 Sep 2023 03:08:22.000,279.510,2.336,2477.959281
15 Sep 2023 03:08:27.000,278.856,2.547,2456.657058
15 Sep 2023 03:08:32.000,278.191,2.758,2435.648406
15 Sep 2023 03:08:37.000,277.513,2.967,2414.941529
15 Sep 2023 03:08:42.000,276.823,3.175,2394.544790
15 Sep 2023 03:08:47.000,276.121,3.383,2374.466702
15 Sep 2023 03:08:52.000,275.407,3.588,2354.715936
15 Sep 2023 03:08:57.000,274.680,3.792,2335.301290
15 Sep 2023 03:09:02.000,273.941,3.995,2316.231719
15 Sep 2023 03:09:07.000,273.188,4.195,2297.516290
15 Sep 2023 03:09:12.000,272.423,4.394,2279.164205
15 Sep 2023 03:09:17.000,271.645,4.590,2261.184768
15 Sep 2023 03:09:22.000,270.854,4.784,2243.587387
15 Sep 2023 03:09:27.000,270.050,4.976,2226.381559
15 Sep 2023 03:09:32.000,269.233,5.165,2209.576859
15 Sep 2023 03:09:37.000,268.403,5.350,2193.182915
15 Sep 2023 03:09:42.000,267.560,5.533,2177.209413
15 Sep 2023 03:09:47.000,266.704,5.712,2161.666058
15 Sep 2023 03:09:52.000,265.835,5.888,2146.562568
15 Sep 2023 03:09:57.000,264.953,6.060,2131.908655
15 Sep 2023 03:10:02.000,264.058,6.228,2117.713999
15 Sep 2023 03:10:07.000,263.151,6.392,2103.988230
15 Sep 2023 03:10:12.000,262.232,6.552,2090.740906
15 Sep 2023 03:10:17.000,261.300,6.706,2077.981476
15 Sep 2023 03:10:22.000,260.356,6.856,2065.719279
15 Sep 2023 03:10:27.000,259.400,7.001,2053.963494
15 Sep 2023 03:10:32.000,258.433,7.140,2042.723124
15 Sep 2023 03:10:37.000,257.454,7.274,2032.006974
15 Sep 2023 03:10:42.000,256.465,7.401,2021.823600
15 Sep 2023 03:10:47.000,255.466,7.523,2012.181314
15 Sep 2023 03:10:52.000,254.456,7.639,2003.088125
15 Sep 2023 03:10:57.000,253.437,7.747,1994.551725
15 Sep 2023 03:11:02.000,252.409,7.850,1986.579458
15 Sep 2023 03:11:07.000,251.372,7.945,1979.178289
15 Sep 2023 03:11:12.000,250.327,8.033,1972.354784
15 Sep 2023 03:11:17.000,249.275,8.114,1966.115069
15 Sep 2023 03:11:22.000,248.216,8.187,1960.464818
15 Sep 2023 03:11:27.000,247.151,8.253,1955.409222
15 Sep 2023 03:11:32.000,246.080,8.311,1950.952966
15 Sep 2023 03:11:37.000,245.004,8.361,1947.100218
15 Sep 2023 03:11:42.000,243.924,8.402,1943.854591
15 Sep 2023 03:11:47.000,242.841,8.436,1941.219142
15 Sep 2023 03:11:52.000,241.754,8.462,1939.196353
15 Sep 2023 03:11:57.000,240.666,8.479,1937.788122
15 Sep 2023 03:12:02.000,239.576,8.488,1936.995743
15 Sep 2023 03:12:07.000,238.486,8.489,1936.819919
15 Sep 2023 03:12:12.000,237.396,8.481,1937.260739
15 Sep 2023 03:12:17.000,236.307,8.466,1938.317687
15 Sep 2023 03:12:22.000,235.219,8.441,1939.989650
15 Sep 2023 03:12:27.000,234.134,8.409,1942.274903
15 Sep 2023 03:12:32.000,233.052,8.368,1945.171145
15 Sep 2023 03:12:37.000,231.974,8.320,1948.675486
15 Sep 2023 03:12:42.000,230.900,8.263,1952.784476
15 Sep 2023 03:12:47.000,229.832,8.199,1957.494102
15 Sep 2023 03:12:52.000,228.769,8.127,1962.799833
15 Sep 2023 03:12:57.000,227.713,8.047,1968.696663
15 Sep 2023 03:13:02.000,226.664,7.960,1975.178964
15 Sep 2023 03:13:07.000,225.623,7.866,1982.240767
15 Sep 2023 03:13:12.000,224.590,7.765,1989.875625
15 Sep 2023 03:13:17.000,223.565,7.657,1998.076676
15 Sep 2023 03:13:22.000,222.550,7.543,2006.836663
15 Sep 2023 03:13:27.000,221.545,7.422,2016.147977
15 Sep 2023 03:13:32.000,220.550,7.295,2026.002672
15 Sep 2023 03:13:37.000,219.565,7.162,2036.392508
15 Sep 2023 03:13:42.000,218.591,7.024,2047.308960
15 Sep 2023 03:13:47.000,217.629,6.880,2058.743271
15 Sep 2023 03:13:52.000,216.678,6.731,2070.686460
15 Sep 2023 03:13:57.000,215.739,6.576,2083.129361
15 Sep 2023 03:14:02.000,214.812,6.418,2096.062648
15 Sep 2023 03:14:07.000,213.897,6.254,2109.476861
15 Sep 2023 03:14:12.000,212.995,6.086,2123.362434
15 Sep 2023 03:14:17.000,212.105,5.915,2137.709714
15 Sep 2023 03:14:22.000,211.228,5.739,2152.508990
15 Sep 2023 03:14:27.000,210.364,5.560,2167.750515
15 Sep 2023 03:14:32.000,209.513,5.378,2183.424524
15 Sep 2023 03:14:37.000,208.674,5.192,2199.521258
15 Sep 2023 03:14:42.000,207.848,5.003,2216.030981
15 Sep 2023 03:14:47.000,207.036,4.812,2232.943996
15 Sep 2023 03:14:52.000,206.236,4.618,2250.250662
15 Sep 2023 03:14:57.000,205.449,4.422,2267.941410
15 Sep 2023 03:15:02.000,204.675,4.223,2286.006755
15 Sep 2023 03:15:07.000,203.914,4.022,2304.437309
15 Sep 2023 03:15:12.000,203.166,3.820,2323.223795
15 Sep 2023 03:15:17.000,202.430,3.616,2342.357050
15 Sep 2023 03:15:22.000,201.706,3.410,2361.828044
15 Sep 2023 03:15:27.000,200.995,3.203,2381.627876
15 Sep 2023 03:15:32.000,200.296,2.994,2401.747791
15 Sep 2023 03:15:37.000,199.609,2.785,2422.179182
15 Sep 2023 03:15:42.000,198.934,2.574,2442.913591
15 Sep 2023 03:15:47.000,198.271,2.362,2463.942725
15 Sep 2023 03:15:52.000,197.619,2.150,2485.258444
15 Sep 2023 03:15:57.000,196.979,1.937,2506.852777
15 Sep 2023 03:16:02.000,196.350,1.723,2528.717914
15 Sep 2023 03:16:07.000,195.732,1.509,2550.846215
15 Sep 2023 03:16:12.000,195.125,1.294,2573.230208
15 Sep 2023 03:16:17.000,194.529,1.079,2595.862586
15 Sep 2023 03:16:22.000,193.943,0.864,2618.736214
15 Sep 2023 03:16:27.000,193.368,0.648,2641.844121
15 Sep 2023 03:16:32.000,192.802,0.432,2665.179506
15 Sep 2023 03:16:37.000,192.247,0.217,2688.735730
15 Sep 2023 03:16:42.000,191.702,0.001,2712.506320
15 Sep 2023 03:16:42.021,191.699,0.000,2712.606420
15 Sep 2023 15:22:31.594,154.778,0.000,2708.553766
15 Sep 2023 15:22:36.000,154.209,0.148,2692.232592
15 Sep 2023 15:22:41.000,153.556,0.315,2673.989680
15 Sep 2023 15:22:46.000,152.893,0.480,2656.051333
15 Sep 2023 15:22:51.000,152.222,0.644,2638.424355
15 Sep 2023 15:22:56.000,151.541,0.805,2621.115611
15 Sep 2023 15:23:01.000,150.852,0.965,2604.132023
15 Sep 2023 15:23:06.000,150.153,1.123,2587.480557
15 Sep 2023 15:23:11.000,149.445,1.278,2571.168226
15 Sep 2023 15:23:16.000,148.728,1.432,2555.202070
15 Sep 2023 15:23:21.000,148.002,1.583,2539.589158
15 Sep 2023 15:23:26.000,147.267,1.731,2524.336574
15 Sep 2023 15:23:31.000,146.523,1.877,2509.451403
15 Sep 2023 15:23:36.000,145.770,2.020,2494.940728
15 Sep 2023 15:23:41.000,145.008,2.161,2480.811625
15 Sep 2023 15:23:46.000,144.237,2.298,2467.071133
15 Sep 2023 15:23:51.000,143.457,2.432,2453.726254
15 Sep 2023 15:23:56.000,142.669,2.563,2440.783948
15 Sep 2023 15:24:01.000,141.873,2.691,2428.251101
15 Sep 2023 15:24:06.000,141.068,2.815,2416.134530
15 Sep 2023 15:24:11.000,140.254,2.936,2404.440958
15 Sep 2023 15:24:16.000,139.433,3.053,2393.177005
15 Sep 2023 15:24:21.000,138.604,3.166,2382.349172
15 Sep 2023 15:24:26.000,137.767,3.275,2371.963823
15 Sep 2023 15:24:31.000,136.923,3.380,2362.027182
15 Sep 2023 15:24:36.000,136.071,3.481,2352.545300
15 Sep 2023 15:24:41.000,135.213,3.577,2343.524055
15 Sep 2023 15:24:46.000,134.347,3.669,2334.969131
15 Sep 2023 15:24:51.000,133.476,3.756,2326.886000
15 Sep 2023 15:24:56.000,132.598,3.838,2319.279911
15 Sep 2023 15:25:01.000,131.715,3.916,2312.155880
15 Sep 2023 15:25:06.000,130.826,3.989,2305.518660
15 Sep 2023 15:25:11.000,129.931,4.056,2299.372746
15 Sep 2023 15:25:16.000,129.033,4.119,2293.722349
15 Sep 2023 15:25:21.000,128.129,4.176,2288.571387
15 Sep 2023 15:25:26.000,127.222,4.228,2283.923473
15 Sep 2023 15:25:31.000,126.311,4.275,2279.781901
15 Sep 2023 15:25:36.000,125.396,4.316,2276.149642
15 Sep 2023 15:25:41.000,124.479,4.352,2273.029328
15 Sep 2023 15:25:46.000,123.560,4.382,2270.423247
15 Sep 2023 15:25:51.000,122.638,4.406,2268.333332
15 Sep 2023 15:25:56.000,121.715,4.425,2266.761156
15 Sep 2023 15:26:01.000,120.791,4.438,2265.707925
15 Sep 2023 15:26:06.000,119.866,4.446,2265.174484
15 Sep 2023 15:26:11.000,118.941,4.447,2265.161305
15 Sep 2023 15:26:16.000,118.016,4.443,2265.668474
15 Sep 2023 15:26:21.000,117.092,4.434,2266.695723
15 Sep 2023 15:26:26.000,116.168,4.418,2268.242399
15 Sep 2023 15:26:31.000,115.247,4.397,2270.307479
15 Sep 2023 15:26:36.000,114.327,4.370,2272.889580
15 Sep 2023 15:26:41.000,113.410,4.338,2275.986955
15 Sep 2023 15:26:46.000,112.495,4.300,2279.597501
15 Sep 2023 15:26:51.000,111.584,4.257,2283.718767
15 Sep 2023 15:26:56.000,110.676,4.208,2288.347960
15 Sep 2023 15:27:01.000,109.773,4.154,2293.481954
15 Sep 2023 15:27:06.000,108.873,4.095,2299.117310
15 Sep 2023 15:27:11.000,107.979,4.030,2305.250274
15 Sep 2023 15:27:16.000,107.090,3.961,2311.876796
15 Sep 2023 15:27:21.000,106.206,3.886,2318.992541
15 Sep 2023 15:27:26.000,105.328,3.807,2326.592895
15 Sep 2023 15:27:31.000,104.456,3.722,2334.673002
15 Sep 2023 15:27:36.000,103.590,3.633,2343.227743
15 Sep 2023 15:27:41.000,102.732,3.540,2352.251782
15 Sep 2023 15:27:46.000,101.880,3.442,2361.739567
15 Sep 2023 15:27:51.000,101.035,3.339,2371.685342
15 Sep 2023 15:27:56.000,100.198,3.233,2382.083167
15 Sep 2023 15:28:01.000,99.369,3.122,2392.926940
15 Sep 2023 15:28:06.000,98.548,3.008,2404.210394
15 Sep 2023 15:28:11.000,97.734,2.890,2415.927270
15 Sep 2023 15:28:16.000,96.929,2.768,2428.070767
15 Sep 2023 15:28:21.000,96.133,2.642,2440.634386
15 Sep 2023 15:28:26.000,95.345,2.513,2453.611393
15 Sep 2023 15:28:31.000,94.565,2.381,2466.994972
15 Sep 2023 15:28:36.000,93.795,2.246,2480.778248
15 Sep 2023 15:28:41.000,93.033,2.107,2494.954274
15 Sep 2023 15:28:46.000,92.281,1.966,2509.516074
15 Sep 2023 15:28:51.000,91.537,1.822,2524.456635
15 Sep 2023 15:28:56.000,90.803,1.675,2539.768923
15 Sep 2023 15:29:01.000,90.077,1.525,2555.445898
15 Sep 2023 15:29:06.000,89.361,1.374,2571.480520
15 Sep 2023 15:29:11.000,88.655,1.219,2587.865760
15 Sep 2023 15:29:16.000,87.957,1.063,2604.594607
15 Sep 2023 15:29:21.000,87.268,0.905,2621.660085
15 Sep 2023 15:29:26.000,86.589,0.744,2639.055257
15 Sep 2023 15:29:31.000,85.919,0.582,2656.773218
15 Sep 2023 15:29:36.000,85.258,0.418,2674.807126
15 Sep 2023 15:29:41.000,84.607,0.252,2693.150195
15 Sep 2023 15:29:46.000,83.964,0.085,2711.795701
15 Sep 2023 15:29:48.502,83.646,0.000,2721.238459
15 Sep 2023 16:58:44.623,214.747,0.000,2709.585977
15 Sep 2023 16:58:49.000,214.673,0.265,2680.391749
15 Sep 2023 16:58:54.000,214.586,0.571,2647.050403
15 Sep 2023 16:58:59.000,214.497,0.881,2613.717139
15 Sep 2023 16:59:04.000,214.406,1.194,2580.393224
15 Sep 2023 16:59:09.000,214.312,1.513,2547.079979
15 Sep 2023 16:59:14.000,214.216,1.835,2513.778784
15 Sep 2023 16:59:19.000,214.117,2.162,2480.491075
15 Sep 2023 16:59:24.000,214.014,2.494,2447.218361
15 Sep 2023 16:59:29.000,213.909,2.831,2413.962213
15 Sep 2023 16:59:34.000,213.801,3.173,2380.724280
15 Sep 2023 16:59:39.000,213.689,3.520,2347.506288
15 Sep 2023 16:59:44.000,213.574,3.873,2314.310048
15 Sep 2023 16:59:49.000,213.455,4.232,2281.137463
15 Sep 2023 16:59:54.000,213.332,4.597,2247.990531
15 Sep 2023 16:59:59.000,213.205,4.968,2214.871356
15 Sep 2023 17:00:04.000,213.074,5.346,2181.782153
15 Sep 2023 17:00:09.000,212.939,5.730,2148.725255
15 Sep 2023 17:00:14.000,212.799,6.122,2115.703128
15 Sep 2023 17:00:19.000,212.654,6.521,2082.718374
15 Sep 2023 17:00:24.000,212.504,6.929,2049.773744
15 Sep 2023 17:00:29.000,212.348,7.344,2016.872152
15 Sep 2023 17:00:34.000,212.187,7.768,1984.016686
15 Sep 2023 17:00:39.000,212.020,8.201,1951.210620
15 Sep 2023 17:00:44.000,211.846,8.644,1918.457432
15 Sep 2023 17:00:49.000,211.666,9.097,1885.760820
15 Sep 2023 17:00:54.000,211.479,9.560,1853.124721
15 Sep 2023 17:00:59.000,211.284,10.034,1820.553328
15 Sep 2023 17:01:04.000,211.081,10.520,1788.051115
15 Sep 2023 17:01:09.000,210.869,11.017,1755.622862
15 Sep 2023 17:01:14.000,210.649,11.528,1723.273680
15 Sep 2023 17:01:19.000,210.419,12.052,1691.009036
15 Sep 2023 17:01:24.000,210.178,12.590,1658.834796
15 Sep 2023 17:01:29.000,209.927,13.143,1626.757252
15 Sep 2023 17:01:34.000,209.664,13.712,1594.783167
15 Sep 2023 17:01:39.000,209.389,14.297,1562.919809
15 Sep 2023 17:01:44.000,209.100,14.900,1531.175016
15 Sep 2023 17:01:49.000,208.797,15.522,1499.557232
15 Sep 2023 17:01:54.000,208.479,16.163,1468.075577
15 Sep 2023 17:01:59.000,208.144,16.825,1436.739913
15 Sep 2023 17:02:04.000,207.791,17.508,1405.560910
15 Sep 2023 17:02:09.000,207.419,18.215,1374.550128
15 Sep 2023 17:02:14.000,207.026,18.947,1343.720115
15 Sep 2023 17:02:19.000,206.610,19.704,1313.084496
15 Sep 2023 17:02:24.000,206.170,20.489,1282.658087
15 Sep 2023 17:02:29.000,205.703,21.303,1252.457019
15 Sep 2023 17:02:34.000,205.208,22.148,1222.498868
15 Sep 2023 17:02:39.000,204.680,23.026,1192.802806
15 Sep 2023 17:02:44.000,204.118,23.938,1163.389765
15 Sep 2023 17:02:49.000,203.517,24.887,1134.282618
15 Sep 2023 17:02:54.000,202.874,25.875,1105.506370
15 Sep 2023 17:02:59.000,202.185,26.903,1077.088379
15 Sep 2023 17:03:04.000,201.445,27.975,1049.058588
15 Sep 2023 17:03:09.000,200.647,29.091,1021.449769
15 Sep 2023 17:03:14.000,199.786,30.255,994.297792
15 Sep 2023 17:03:19.000,198.853,31.468,967.641905
15 Sep 2023 17:03:24.000,197.842,32.732,941.525019
15 Sep 2023 17:03:29.000,196.740,34.048,915.993999
15 Sep 2023 17:03:34.000,195.539,35.419,891.099946
15 Sep 2023 17:03:39.000,194.223,36.844,866.898458
15 Sep 2023 17:03:44.000,192.778,38.323,843.449856
15 Sep 2023 17:03:49.000,191.186,39.856,820.819350
15 Sep 2023 17:03:54.000,189.426,41.438,799.077105
15 Sep 2023 17:03:59.000,187.475,43.067,778.298197
15 Sep 2023 17:04:04.000,185.304,44.734,758.562398
15 Sep 2023 17:04:09.000,182.883,46.431,739.953747
15 Sep 2023 17:04:14.000,180.176,48.143,722.559871
15 Sep 2023 17:04:19.000,177.143,49.854,706.471004
15 Sep 2023 17:04:24.000,173.743,51.540,691.778667
15 Sep 2023 17:04:29.000,169.933,53.173,678.573999
15 Sep 2023 17:04:34.000,165.676,54.718,666.945745
15 Sep 2023 17:04:39.000,160.944,56.136,656.977950
15 Sep 2023 17:04:44.000,155.728,57.381,648.747436
15 Sep 2023 17:04:49.000,150.052,58.407,642.321224
15 Sep 2023 17:04:54.000,143.977,59.170,637.754040
15 Sep 2023 17:04:59.000,137.607,59.633,635.086108
15 Sep 2023 17:05:04.000,131.088,59.770,634.341510
15 Sep 2023 17:05:09.000,124.585,59.575,635.526996
15 Sep 2023 17:05:14.000,118.260,59.059,638.631781
15 Sep 2023 17:05:19.000,112.253,58.249,643.628005
15 Sep 2023 17:05:24.000,106.659,57.183,650.471946
15 Sep 2023 17:05:29.000,101.533,55.907,659.105858
15 Sep 2023 17:05:34.000,96.891,54.467,669.460253
15 Sep 2023 17:05:39.000,92.720,52.908,681.456422
15 Sep 2023 17:05:44.000,88.990,51.268,695.009030
15 Sep 2023 17:05:49.000,85.662,49.581,710.028585
15 Sep 2023 17:05:54.000,82.694,47.874,726.423690
15 Sep 2023 17:05:59.000,80.043,46.168,744.102979
15 Sep 2023 17:06:04.000,77.672,44.481,762.976708
15 Sep 2023 17:06:09.000,75.546,42.826,782.957990
15 Sep 2023 17:06:14.000,73.634,41.210,803.963704
15 Sep 2023 17:06:19.000,71.908,39.641,825.915122
15 Sep 2023 17:06:24.000,70.346,38.123,848.738271
15 Sep 2023 17:06:29.000,68.928,36.658,872.364118
15 Sep 2023 17:06:34.000,67.636,35.247,896.728579
15 Sep 2023 17:06:39.000,66.456,33.890,921.772427
15 Sep 2023 17:06:44.000,65.374,32.587,947.441109
15 Sep 2023 17:06:49.000,64.379,31.336,973.684513
15 Sep 2023 17:06:54.000,63.463,30.135,1000.456703
15 Sep 2023 17:06:59.000,62.616,28.984,1027.715632
15 Sep 2023 17:07:04.000,61.832,27.879,1055.422846
15 Sep 2023 17:07:09.000,61.103,26.818,1083.543508
15 Sep 2023 17:07:14.000,60.426,25.800,1112.044912
15 Sep 2023 17:07:19.000,59.793,24.822,1140.898033
15 Sep 2023 17:07:24.000,59.203,23.882,1170.076062
15 Sep 2023 17:07:29.000,58.650,22.978,1199.554503
15 Sep 2023 17:07:34.000,58.131,22.109,1229.310944
15 Sep 2023 17:07:39.000,57.644,21.271,1259.324871
15 Sep 2023 17:07:44.000,57.185,20.464,1289.577490
15 Sep 2023 17:07:49.000,56.753,19.686,1320.051570
15 Sep 2023 17:07:54.000,56.345,18.935,1350.731292
15 Sep 2023 17:07:59.000,55.959,18.210,1381.602123
15 Sep 2023 17:08:04.000,55.594,17.508,1412.650692
15 Sep 2023 17:08:09.000,55.248,16.830,1443.864693
15 Sep 2023 17:08:14.000,54.920,16.173,1475.232771
15 Sep 2023 17:08:19.000,54.608,15.537,1506.744453
15 Sep 2023 17:08:24.000,54.311,14.920,1538.390052
15 Sep 2023 17:08:29.000,54.029,14.322,1570.160614
15 Sep 2023 17:08:34.000,53.760,13.740,1602.047833
15 Sep 2023 17:08:39.000,53.503,13.175,1634.044015
15 Sep 2023 17:08:44.000,53.258,12.626,1666.142005
15 Sep 2023 17:08:49.000,53.024,12.091,1698.335157
15 Sep 2023 17:08:54.000,52.800,11.571,1730.617282
15 Sep 2023 17:08:59.000,52.586,11.063,1762.982614
15 Sep 2023 17:09:04.000,52.380,10.569,1795.425763
15 Sep 2023 17:09:09.000,52.183,10.086,1827.941703
15 Sep 2023 17:09:14.000,51.995,9.614,1860.525729
15 Sep 2023 17:09:19.000,51.813,9.154,1893.173434
15 Sep 2023 17:09:24.000,51.639,8.704,1925.880687
15 Sep 2023 17:09:29.000,51.472,8.263,1958.643611
15 Sep 2023 17:09:34.000,51.311,7.833,1991.458562
15 Sep 2023 17:09:39.000,51.156,7.411,2024.322115
15 Sep 2023 17:09:44.000,51.007,6.997,2057.231034
15 Sep 2023 17:09:49.000,50.863,6.592,2090.182281
15 Sep 2023 17:09:54.000,50.724,6.194,2123.172980
15 Sep 2023 17:09:59.000,50.591,5.804,2156.200419
