xian_to_sherpa-ltc2_Access_AER.csv

"Time (UTCG)","Azimuth (deg)","Elevation (deg)","Range (km)"
14 Sep 2023 04:50:14.113,284.877,0.000,2984.442330
14 Sep 2023 04:50:19.000,285.323,0.249,2960.855017
14 Sep 2023 04:50:24.000,285.786,0.505,2936.880742
14 Sep 2023 04:50:29.000,286.256,0.762,2913.072897
14 Sep 2023 04:50:34.000,286.734,1.019,2889.435884
14 Sep 2023 04:50:39.000,287.220,1.278,2865.974209
14 Sep 2023 04:50:44.000,287.714,1.538,2842.692485
14 Sep 2023 04:50:49.000,288.215,1.798,2819.595431
14 Sep 2023 04:50:54.000,288.725,2.059,2796.687880
14 Sep 2023 04:50:59.000,289.243,2.321,2773.974766
14 Sep 2023 04:51:04.000,289.770,2.583,2751.461147
14 Sep 2023 04:51:09.000,290.305,2.847,2729.152182
14 Sep 2023 04:51:14.000,290.849,3.111,2707.053157
14 Sep 2023 04:51:19.000,291.402,3.375,2685.169456
14 Sep 2023 04:51:24.000,291.964,3.640,2663.506596
14 Sep 2023 04:51:29.000,292.535,3.906,2642.070195
14 Sep 2023 04:51:34.000,293.116,4.172,2620.865992
14 Sep 2023 04:51:39.000,293.706,4.438,2599.899841
14 Sep 2023 04:51:44.000,294.306,4.705,2579.177708
14 Sep 2023 04:51:49.000,294.915,4.972,2558.705673
14 Sep 2023 04:51:54.000,295.535,5.238,2538.489931
14 Sep 2023 04:51:59.000,296.165,5.505,2518.536783
14 Sep 2023 04:52:04.000,296.805,5.772,2498.852646
14 Sep 2023 04:52:09.000,297.456,6.039,2479.444030
14 Sep 2023 04:52:14.000,298.117,6.305,2460.317561
14 Sep 2023 04:52:19.000,298.789,6.571,2441.479958
14 Sep 2023 04:52:24.000,299.472,6.836,2422.938032
14 Sep 2023 04:52:29.000,300.166,7.100,2404.698697
14 Sep 2023 04:52:34.000,300.871,7.364,2386.768943
14 Sep 2023 04:52:39.000,301.587,7.627,2369.155842
14 Sep 2023 04:52:44.000,302.314,7.889,2351.866543
14 Sep 2023 04:52:49.000,303.052,8.149,2334.908262
14 Sep 2023 04:52:54.000,303.802,8.408,2318.288267
14 Sep 2023 04:52:59.000,304.564,8.665,2302.013890
14 Sep 2023 04:53:04.000,305.337,8.921,2286.092491
14 Sep 2023 04:53:09.000,306.121,9.174,2270.531475
14 Sep 2023 04:53:14.000,306.918,9.426,2255.338260
14 Sep 2023 04:53:19.000,307.725,9.675,2240.520277
14 Sep 2023 04:53:24.000,308.545,9.921,2226.084956
14 Sep 2023 04:53:29.000,309.375,10.164,2212.039713
14 Sep 2023 04:53:34.000,310.218,10.405,2198.391937
14 Sep 2023 04:53:39.000,311.072,10.642,2185.148969
14 Sep 2023 04:53:44.000,311.937,10.875,2172.318104
14 Sep 2023 04:53:49.000,312.813,11.105,2159.906555
14 Sep 2023 04:53:54.000,313.701,11.331,2147.921449
14 Sep 2023 04:53:59.000,314.599,11.553,2136.369816
14 Sep 2023 04:54:04.000,315.508,11.770,2125.258551
14 Sep 2023 04:54:09.000,316.428,11.982,2114.594418
14 Sep 2023 04:54:14.000,317.358,12.189,2104.384023
14 Sep 2023 04:54:19.000,318.299,12.391,2094.633791
14 Sep 2023 04:54:24.000,319.249,12.587,2085.349962
14 Sep 2023 04:54:29.000,320.208,12.778,2076.538555
14 Sep 2023 04:54:34.000,321.177,12.962,2068.205362
14 Sep 2023 04:54:39.000,322.155,13.140,2060.355927
14 Sep 2023 04:54:44.000,323.141,13.312,2052.995523
14 Sep 2023 04:54:49.000,324.135,13.476,2046.129144
14 Sep 2023 04:54:54.000,325.137,13.634,2039.761475
14 Sep 2023 04:54:59.000,326.147,13.785,2033.896892
14 Sep 2023 04:55:04.000,327.162,13.928,2028.539431
14 Sep 2023 04:55:09.000,328.184,14.063,2023.692777
14 Sep 2023 04:55:14.000,329.212,14.190,2019.360258
14 Sep 2023 04:55:19.000,330.245,14.310,2015.544826
14 Sep 2023 04:55:24.000,331.283,14.421,2012.249041
14 Sep 2023 04:55:29.000,332.324,14.524,2009.475070
14 Sep 2023 04:55:34.000,333.369,14.618,2007.224674
14 Sep 2023 04:55:39.000,334.417,14.703,2005.499198
14 Sep 2023 04:55:44.000,335.467,14.780,2004.299571
14 Sep 2023 04:55:49.000,336.519,14.848,2003.626295
14 Sep 2023 04:55:54.000,337.572,14.908,2003.479451
14 Sep 2023 04:55:59.000,338.625,14.958,2003.858688
14 Sep 2023 04:56:04.000,339.678,14.999,2004.763234
14 Sep 2023 04:56:09.000,340.730,15.031,2006.191888
14 Sep 2023 04:56:14.000,341.780,15.055,2008.143033
14 Sep 2023 04:56:19.000,342.829,15.069,2010.614641
14 Sep 2023 04:56:24.000,343.874,15.074,2013.604272
14 Sep 2023 04:56:29.000,344.917,15.071,2017.109092
14 Sep 2023 04:56:34.000,345.955,15.059,2021.125879
14 Sep 2023 04:56:39.000,346.989,15.038,2025.651036
14 Sep 2023 04:56:44.000,348.018,15.008,2030.680602
14 Sep 2023 04:56:49.000,349.041,14.970,2036.210269
14 Sep 2023 04:56:54.000,350.058,14.924,2042.235451
14 Sep 2023 04:56:59.000,351.068,14.870,2048.751075
14 Sep 2023 04:57:04.000,352.072,14.807,2055.751930
14 Sep 2023 04:57:09.000,353.068,14.737,2063.232470
14 Sep 2023 04:57:14.000,354.055,14.659,2071.186881
14 Sep 2023 04:57:19.000,355.035,14.574,2079.609100
14 Sep 2023 04:57:24.000,356.006,14.481,2088.492836
14 Sep 2023 04:57:29.000,356.967,14.382,2097.831585
14 Sep 2023 04:57:34.000,357.919,14.275,2107.618652
14 Sep 2023 04:57:39.000,358.861,14.163,2117.847165
14 Sep 2023 04:57:44.000,359.794,14.043,2128.510100
14 Sep 2023 04:57:49.000,0.716,13.918,2139.600293
14 Sep 2023 04:57:54.000,1.627,13.787,2151.110460
14 Sep 2023 04:57:59.000,2.528,13.650,2163.033217
14 Sep 2023 04:58:04.000,3.417,13.508,2175.361092
14 Sep 2023 04:58:09.000,4.296,13.360,2188.086546
14 Sep 2023 04:58:14.000,5.164,13.208,2201.201985
14 Sep 2023 04:58:19.000,6.020,13.050,2214.699777
14 Sep 2023 04:58:24.000,6.865,12.889,2228.572267
14 Sep 2023 04:58:29.000,7.698,12.723,2242.811788
14 Sep 2023 04:58:34.000,8.520,12.553,2257.410678
14 Sep 2023 04:58:39.000,9.330,12.379,2272.361289
14 Sep 2023 04:58:44.000,10.129,12.202,2287.655998
14 Sep 2023 04:58:49.000,10.916,12.021,2303.287221
14 Sep 2023 04:58:54.000,11.691,11.837,2319.247421
14 Sep 2023 04:58:59.000,12.455,11.649,2335.529115
14 Sep 2023 04:59:04.000,13.208,11.459,2352.124887
14 Sep 2023 04:59:09.000,13.949,11.267,2369.027393
14 Sep 2023 04:59:14.000,14.679,11.072,2386.229368
14 Sep 2023 04:59:19.000,15.398,10.874,2403.723634
14 Sep 2023 04:59:24.000,16.105,10.675,2421.503103
14 Sep 2023 04:59:29.000,16.802,10.473,2439.560787
14 Sep 2023 04:59:34.000,17.487,10.270,2457.889796
14 Sep 2023 04:59:39.000,18.162,10.064,2476.483347
14 Sep 2023 04:59:44.000,18.826,9.858,2495.334766
14 Sep 2023 04:59:49.000,19.479,9.650,2514.437490
14 Sep 2023 04:59:54.000,20.122,9.440,2533.785073
14 Sep 2023 04:59:59.000,20.755,9.230,2553.371182
14 Sep 2023 05:00:04.000,21.377,9.018,2573.189602
14 Sep 2023 05:00:09.000,21.990,8.805,2593.234240
14 Sep 2023 05:00:14.000,22.593,8.592,2613.499122
14 Sep 2023 05:00:19.000,23.185,8.378,2633.978392
14 Sep 2023 05:00:24.000,23.769,8.163,2654.666318
14 Sep 2023 05:00:29.000,24.343,7.948,2675.557288
14 Sep 2023 05:00:34.000,24.908,7.732,2696.645810
14 Sep 2023 05:00:39.000,25.463,7.516,2717.926512
14 Sep 2023 05:00:44.000,26.010,7.299,2739.394142
14 Sep 2023 05:00:49.000,26.548,7.082,2761.043563
14 Sep 2023 05:00:54.000,27.077,6.865,2782.869758
14 Sep 2023 05:00:59.000,27.598,6.648,2804.867828
14 Sep 2023 05:01:04.000,28.110,6.431,2827.032984
14 Sep 2023 05:01:09.000,28.615,6.214,2849.360550
14 Sep 2023 05:01:14.000,29.111,5.996,2871.845965
14 Sep 2023 05:01:19.000,29.600,5.779,2894.484774
14 Sep 2023 05:01:24.000,30.081,5.562,2917.272633
14 Sep 2023 05:01:29.000,30.554,5.346,2940.205298
14 Sep 2023 05:01:34.000,31.020,5.129,2963.278635
14 Sep 2023 05:01:39.000,31.479,4.913,2986.488612
14 Sep 2023 05:01:44.000,31.930,4.697,3009.831290
14 Sep 2023 05:01:49.000,32.375,4.481,3033.302834
14 Sep 2023 05:01:54.000,32.813,4.266,3056.899504
14 Sep 2023 05:01:59.000,33.244,4.051,3080.617651
14 Sep 2023 05:02:04.000,33.668,3.836,3104.453721
14 Sep 2023 05:02:09.000,34.086,3.622,3128.404248
14 Sep 2023 05:02:14.000,34.498,3.408,3152.465853
14 Sep 2023 05:02:19.000,34.904,3.195,3176.635243
14 Sep 2023 05:02:24.000,35.304,2.982,3200.909207
14 Sep 2023 05:02:29.000,35.697,2.770,3225.284618
14 Sep 2023 05:02:34.000,36.085,2.558,3249.758427
14 Sep 2023 05:02:39.000,36.468,2.347,3274.327660
14 Sep 2023 05:02:44.000,36.845,2.136,3298.989423
14 Sep 2023 05:02:49.000,37.216,1.926,3323.740889
14 Sep 2023 05:02:54.000,37.582,1.717,3348.579311
14 Sep 2023 05:02:59.000,37.943,1.508,3373.502005
14 Sep 2023 05:03:04.000,38.299,1.299,3398.506356
14 Sep 2023 05:03:09.000,38.649,1.092,3423.589815
14 Sep 2023 05:03:14.000,38.995,0.884,3448.749901
14 Sep 2023 05:03:19.000,39.336,0.678,3473.984188
14 Sep 2023 05:03:24.000,39.673,0.472,3499.290320
14 Sep 2023 05:03:29.000,40.005,0.266,3524.665994
14 Sep 2023 05:03:34.000,40.332,0.061,3550.108961
14 Sep 2023 05:03:35.504,40.430,-0.000,3557.775885
14 Sep 2023 06:35:42.804,313.380,0.000,3284.176495
14 Sep 2023 06:35:47.000,313.760,0.185,3266.671352
14 Sep 2023 06:35:52.000,314.218,0.406,3245.958074
14 Sep 2023 06:35:57.000,314.681,0.628,3225.408877
14 Sep 2023 06:36:02.000,315.150,0.849,3205.027167
14 Sep 2023 06:36:07.000,315.625,1.070,3184.816407
14 Sep 2023 06:36:12.000,316.106,1.291,3164.780112
14 Sep 2023 06:36:17.000,316.593,1.513,3144.921846
14 Sep 2023 06:36:22.000,317.085,1.734,3125.245232
14 Sep 2023 06:36:27.000,317.584,1.955,3105.753948
14 Sep 2023 06:36:32.000,318.089,2.176,3086.451714
14 Sep 2023 06:36:37.000,318.600,2.396,3067.342314
14 Sep 2023 06:36:42.000,319.118,2.617,3048.429575
14 Sep 2023 06:36:47.000,319.642,2.837,3029.717375
14 Sep 2023 06:36:52.000,320.172,3.056,3011.209647
14 Sep 2023 06:36:57.000,320.709,3.276,2992.910366
14 Sep 2023 06:37:02.000,321.252,3.494,2974.823556
14 Sep 2023 06:37:07.000,321.802,3.713,2956.953287
14 Sep 2023 06:37:12.000,322.358,3.930,2939.303674
14 Sep 2023 06:37:17.000,322.922,4.147,2921.878872
14 Sep 2023 06:37:22.000,323.492,4.363,2904.683079
14 Sep 2023 06:37:27.000,324.069,4.579,2887.720531
14 Sep 2023 06:37:32.000,324.652,4.793,2870.995495
14 Sep 2023 06:37:37.000,325.243,5.007,2854.512279
14 Sep 2023 06:37:42.000,325.841,5.219,2838.275221
14 Sep 2023 06:37:47.000,326.445,5.430,2822.288683
14 Sep 2023 06:37:52.000,327.057,5.640,2806.557052
14 Sep 2023 06:37:57.000,327.676,5.849,2791.084746
14 Sep 2023 06:38:02.000,328.302,6.056,2775.876192
14 Sep 2023 06:38:07.000,328.934,6.262,2760.935836
14 Sep 2023 06:38:12.000,329.574,6.466,2746.268134
14 Sep 2023 06:38:17.000,330.222,6.669,2731.877550
14 Sep 2023 06:38:22.000,330.876,6.870,2717.768550
14 Sep 2023 06:38:27.000,331.537,7.068,2703.945601
14 Sep 2023 06:38:32.000,332.205,7.265,2690.413156
14 Sep 2023 06:38:37.000,332.881,7.460,2677.175666
14 Sep 2023 06:38:42.000,333.563,7.652,2664.237558
14 Sep 2023 06:38:47.000,334.253,7.842,2651.603241
14 Sep 2023 06:38:52.000,334.949,8.030,2639.277097
14 Sep 2023 06:38:57.000,335.652,8.215,2627.263470
14 Sep 2023 06:39:02.000,336.362,8.397,2615.566670
14 Sep 2023 06:39:07.000,337.079,8.577,2604.190959
14 Sep 2023 06:39:12.000,337.803,8.753,2593.140548
14 Sep 2023 06:39:17.000,338.533,8.927,2582.419591
14 Sep 2023 06:39:22.000,339.270,9.097,2572.032176
14 Sep 2023 06:39:27.000,340.013,9.264,2561.982323
14 Sep 2023 06:39:32.000,340.762,9.427,2552.273969
14 Sep 2023 06:39:37.000,341.517,9.587,2542.910972
14 Sep 2023 06:39:42.000,342.279,9.743,2533.897097
14 Sep 2023 06:39:47.000,343.046,9.895,2525.236009
14 Sep 2023 06:39:52.000,343.819,10.044,2516.931269
14 Sep 2023 06:39:57.000,344.598,10.188,2508.986330
14 Sep 2023 06:40:02.000,345.382,10.328,2501.404518
14 Sep 2023 06:40:07.000,346.171,10.464,2494.189043
14 Sep 2023 06:40:12.000,346.965,10.596,2487.342977
14 Sep 2023 06:40:17.000,347.764,10.723,2480.869257
14 Sep 2023 06:40:22.000,348.568,10.845,2474.770674
14 Sep 2023 06:40:27.000,349.376,10.962,2469.049868
14 Sep 2023 06:40:32.000,350.188,11.075,2463.709323
14 Sep 2023 06:40:37.000,351.004,11.182,2458.751363
14 Sep 2023 06:40:42.000,351.824,11.285,2454.178140
14 Sep 2023 06:40:47.000,352.647,11.382,2449.991637
14 Sep 2023 06:40:52.000,353.473,11.475,2446.193660
14 Sep 2023 06:40:57.000,354.302,11.562,2442.785831
14 Sep 2023 06:41:02.000,355.134,11.643,2439.769587
14 Sep 2023 06:41:07.000,355.968,11.719,2437.146178
14 Sep 2023 06:41:12.000,356.804,11.790,2434.916660
14 Sep 2023 06:41:17.000,357.642,11.855,2433.081894
14 Sep 2023 06:41:22.000,358.481,11.914,2431.642544
14 Sep 2023 06:41:27.000,359.321,11.968,2430.599074
14 Sep 2023 06:41:32.000,0.163,12.016,2429.951751
14 Sep 2023 06:41:37.000,1.004,12.058,2429.700636
14 Sep 2023 06:41:42.000,1.847,12.094,2429.845592
14 Sep 2023 06:41:47.000,2.689,12.125,2430.386279
14 Sep 2023 06:41:52.000,3.530,12.150,2431.322157
14 Sep 2023 06:41:57.000,4.371,12.169,2432.652485
14 Sep 2023 06:42:02.000,5.212,12.182,2434.376326
14 Sep 2023 06:42:07.000,6.050,12.190,2436.492546
14 Sep 2023 06:42:12.000,6.888,12.192,2438.999818
14 Sep 2023 06:42:17.000,7.723,12.188,2441.896622
14 Sep 2023 06:42:22.000,8.557,12.178,2445.181256
14 Sep 2023 06:42:27.000,9.387,12.163,2448.851831
14 Sep 2023 06:42:32.000,10.216,12.142,2452.906280
14 Sep 2023 06:42:37.000,11.041,12.116,2457.342363
14 Sep 2023 06:42:42.000,11.863,12.084,2462.157667
14 Sep 2023 06:42:47.000,12.682,12.046,2467.349619
14 Sep 2023 06:42:52.000,13.496,12.004,2472.915487
14 Sep 2023 06:42:57.000,14.307,11.956,2478.852383
14 Sep 2023 06:43:02.000,15.114,11.903,2485.157276
14 Sep 2023 06:43:07.000,15.916,11.844,2491.826991
14 Sep 2023 06:43:12.000,16.714,11.781,2498.858225
14 Sep 2023 06:43:17.000,17.506,11.713,2506.247540
14 Sep 2023 06:43:22.000,18.294,11.640,2513.991383
14 Sep 2023 06:43:27.000,19.076,11.562,2522.086086
14 Sep 2023 06:43:32.000,19.853,11.479,2530.527871
14 Sep 2023 06:43:37.000,20.624,11.392,2539.312864
14 Sep 2023 06:43:42.000,21.390,11.301,2548.437096
14 Sep 2023 06:43:47.000,22.149,11.205,2557.896617
14 Sep 2023 06:43:52.000,22.903,11.105,2567.687088
14 Sep 2023 06:43:57.000,23.650,11.001,2577.804401
14 Sep 2023 06:44:02.000,24.391,10.892,2588.244287
14 Sep 2023 06:44:07.000,25.125,10.780,2599.002411
14 Sep 2023 06:44:12.000,25.853,10.665,2610.074393
14 Sep 2023 06:44:17.000,26.574,10.545,2621.455799
14 Sep 2023 06:44:22.000,27.289,10.422,2633.142161
14 Sep 2023 06:44:27.000,27.997,10.296,2645.128975
14 Sep 2023 06:44:32.000,28.698,10.166,2657.411709
14 Sep 2023 06:44:37.000,29.392,10.034,2669.985808
14 Sep 2023 06:44:42.000,30.079,9.898,2682.846703
14 Sep 2023 06:44:47.000,30.759,9.759,2695.989808
14 Sep 2023 06:44:52.000,31.432,9.617,2709.410538
14 Sep 2023 06:44:57.000,32.097,9.473,2723.104301
14 Sep 2023 06:45:02.000,32.756,9.325,2737.066512
14 Sep 2023 06:45:07.000,33.408,9.176,2751.292590
14 Sep 2023 06:45:12.000,34.052,9.024,2765.777967
14 Sep 2023 06:45:17.000,34.689,8.869,2780.518094
14 Sep 2023 06:45:22.000,35.320,8.713,2795.508440
14 Sep 2023 06:45:27.000,35.943,8.554,2810.744494
14 Sep 2023 06:45:32.000,36.559,8.393,2826.221777
14 Sep 2023 06:45:37.000,37.168,8.231,2841.935836
14 Sep 2023 06:45:42.000,37.770,8.066,2857.882253
14 Sep 2023 06:45:47.000,38.365,7.900,2874.056642
14 Sep 2023 06:45:52.000,38.953,7.732,2890.454662
14 Sep 2023 06:45:57.000,39.534,7.562,2907.072003
14 Sep 2023 06:46:02.000,40.108,7.391,2923.904407
14 Sep 2023 06:46:07.000,40.675,7.219,2940.947652
14 Sep 2023 06:46:12.000,41.235,7.045,2958.197571
14 Sep 2023 06:46:17.000,41.789,6.870,2975.650035
14 Sep 2023 06:46:22.000,42.336,6.693,2993.300971
14 Sep 2023 06:46:27.000,42.877,6.516,3011.146356
14 Sep 2023 06:46:32.000,43.411,6.337,3029.182218
14 Sep 2023 06:46:37.000,43.938,6.158,3047.404637
14 Sep 2023 06:46:42.000,44.459,5.977,3065.809748
14 Sep 2023 06:46:47.000,44.973,5.796,3084.393740
14 Sep 2023 06:46:52.000,45.482,5.614,3103.152853
14 Sep 2023 06:46:57.000,45.984,5.431,3122.083393
14 Sep 2023 06:47:02.000,46.479,5.247,3141.181713
14 Sep 2023 06:47:07.000,46.969,5.063,3160.444221
14 Sep 2023 06:47:12.000,47.453,4.878,3179.867391
14 Sep 2023 06:47:17.000,47.931,4.693,3199.447742
14 Sep 2023 06:47:22.000,48.403,4.507,3219.181861
14 Sep 2023 06:47:27.000,48.869,4.320,3239.066381
14 Sep 2023 06:47:32.000,49.329,4.133,3259.098001
14 Sep 2023 06:47:37.000,49.784,3.946,3279.273466
14 Sep 2023 06:47:42.000,50.233,3.758,3299.589586
14 Sep 2023 06:47:47.000,50.677,3.570,3320.043224
14 Sep 2023 06:47:52.000,51.115,3.382,3340.631298
14 Sep 2023 06:47:57.000,51.548,3.194,3361.350776
14 Sep 2023 06:48:02.000,51.976,3.005,3382.198688
14 Sep 2023 06:48:07.000,52.398,2.816,3403.172114
14 Sep 2023 06:48:12.000,52.816,2.627,3424.268188
14 Sep 2023 06:48:17.000,53.228,2.438,3445.484097
14 Sep 2023 06:48:22.000,53.636,2.249,3466.817080
14 Sep 2023 06:48:27.000,54.038,2.060,3488.264425
14 Sep 2023 06:48:32.000,54.436,1.871,3509.823478
14 Sep 2023 06:48:37.000,54.829,1.681,3531.491629
14 Sep 2023 06:48:42.000,55.217,1.492,3553.266319
14 Sep 2023 06:48:47.000,55.601,1.303,3575.145037
14 Sep 2023 06:48:52.000,55.980,1.114,3597.125319
14 Sep 2023 06:48:57.000,56.355,0.924,3619.204755
14 Sep 2023 06:49:02.000,56.725,0.735,3641.380972
14 Sep 2023 06:49:07.000,57.091,0.546,3663.651654
14 Sep 2023 06:49:12.000,57.453,0.357,3686.014519
14 Sep 2023 06:49:17.000,57.810,0.169,3708.467333
14 Sep 2023 06:49:21.465,58.126,0.000,3728.592570
14 Sep 2023 08:19:41.999,321.020,0.000,3480.543929
14 Sep 2023 08:19:46.000,321.263,0.205,3460.173445
14 Sep 2023 08:19:51.000,321.571,0.463,3434.787857
14 Sep 2023 08:19:56.000,321.883,0.723,3409.480437
14 Sep 2023 08:20:01.000,322.200,0.983,3384.253370
14 Sep 2023 08:20:06.000,322.521,1.245,3359.108881
14 Sep 2023 08:20:11.000,322.846,1.509,3334.049265
14 Sep 2023 08:20:16.000,323.177,1.773,3309.076861
14 Sep 2023 08:20:21.000,323.512,2.040,3284.194071
14 Sep 2023 08:20:26.000,323.852,2.307,3259.403360
14 Sep 2023 08:20:31.000,324.197,2.576,3234.707248
14 Sep 2023 08:20:36.000,324.547,2.847,3210.108323
14 Sep 2023 08:20:41.000,324.903,3.119,3185.609233
14 Sep 2023 08:20:46.000,325.263,3.392,3161.212698
14 Sep 2023 08:20:51.000,325.630,3.667,3136.921502
14 Sep 2023 08:20:56.000,326.002,3.943,3112.738499
14 Sep 2023 08:21:01.000,326.379,4.221,3088.666617
14 Sep 2023 08:21:06.000,326.763,4.500,3064.708854
14 Sep 2023 08:21:11.000,327.152,4.780,3040.868286
14 Sep 2023 08:21:16.000,327.548,5.062,3017.148065
14 Sep 2023 08:21:21.000,327.950,5.346,2993.551420
14 Sep 2023 08:21:26.000,328.359,5.631,2970.081665
14 Sep 2023 08:21:31.000,328.774,5.917,2946.742194
14 Sep 2023 08:21:36.000,329.195,6.205,2923.536482
14 Sep 2023 08:21:41.000,329.624,6.494,2900.468094
14 Sep 2023 08:21:46.000,330.059,6.785,2877.540684
14 Sep 2023 08:21:51.000,330.502,7.077,2854.757995
14 Sep 2023 08:21:56.000,330.952,7.370,2832.123856
14 Sep 2023 08:22:01.000,331.410,7.665,2809.642199
14 Sep 2023 08:22:06.000,331.875,7.961,2787.317039
14 Sep 2023 08:22:11.000,332.348,8.258,2765.152500
14 Sep 2023 08:22:16.000,332.829,8.557,2743.152794
14 Sep 2023 08:22:21.000,333.318,8.857,2721.322239
14 Sep 2023 08:22:26.000,333.816,9.158,2699.665251
14 Sep 2023 08:22:31.000,334.322,9.460,2678.186348
14 Sep 2023 08:22:36.000,334.837,9.763,2656.890151
14 Sep 2023 08:22:41.000,335.361,10.068,2635.781389
14 Sep 2023 08:22:46.000,335.894,10.373,2614.864891
14 Sep 2023 08:22:51.000,336.436,10.679,2594.145599
14 Sep 2023 08:22:56.000,336.988,10.986,2573.628555
14 Sep 2023 08:23:01.000,337.549,11.294,2553.318912
14 Sep 2023 08:23:06.000,338.120,11.602,2533.221929
14 Sep 2023 08:23:11.000,338.701,11.912,2513.342974
14 Sep 2023 08:23:16.000,339.292,12.221,2493.687521
14 Sep 2023 08:23:21.000,339.894,12.531,2474.261148
14 Sep 2023 08:23:26.000,340.507,12.841,2455.069543
14 Sep 2023 08:23:31.000,341.130,13.152,2436.118495
14 Sep 2023 08:23:36.000,341.764,13.462,2417.413896
14 Sep 2023 08:23:41.000,342.409,13.773,2398.961743
14 Sep 2023 08:23:46.000,343.066,14.083,2380.768126
14 Sep 2023 08:23:51.000,343.734,14.393,2362.839235
14 Sep 2023 08:23:56.000,344.414,14.702,2345.181351
14 Sep 2023 08:24:01.000,345.105,15.011,2327.800844
14 Sep 2023 08:24:06.000,345.809,15.319,2310.704170
14 Sep 2023 08:24:11.000,346.525,15.626,2293.897864
14 Sep 2023 08:24:16.000,347.253,15.931,2277.388537
14 Sep 2023 08:24:21.000,347.994,16.235,2261.182870
14 Sep 2023 08:24:26.000,348.747,16.538,2245.287605
14 Sep 2023 08:24:31.000,349.513,16.838,2229.709541
14 Sep 2023 08:24:36.000,350.292,17.136,2214.455527
14 Sep 2023 08:24:41.000,351.084,17.432,2199.532449
14 Sep 2023 08:24:46.000,351.888,17.725,2184.947226
14 Sep 2023 08:24:51.000,352.706,18.016,2170.706799
14 Sep 2023 08:24:56.000,353.537,18.303,2156.818119
14 Sep 2023 08:25:01.000,354.381,18.587,2143.288138
14 Sep 2023 08:25:06.000,355.238,18.866,2130.123799
14 Sep 2023 08:25:11.000,356.108,19.142,2117.332018
14 Sep 2023 08:25:16.000,356.991,19.414,2104.919678
14 Sep 2023 08:25:21.000,357.888,19.680,2092.893610
14 Sep 2023 08:25:26.000,358.797,19.942,2081.260585
14 Sep 2023 08:25:31.000,359.719,20.198,2070.027291
14 Sep 2023 08:25:36.000,0.653,20.449,2059.200326
14 Sep 2023 08:25:41.000,1.601,20.693,2048.786180
14 Sep 2023 08:25:46.000,2.560,20.932,2038.791215
14 Sep 2023 08:25:51.000,3.532,21.163,2029.221655
14 Sep 2023 08:25:56.000,4.515,21.388,2020.083566
14 Sep 2023 08:26:01.000,5.510,21.604,2011.382839
14 Sep 2023 08:26:06.000,6.516,21.814,2003.125175
14 Sep 2023 08:26:11.000,7.532,22.015,1995.316068
14 Sep 2023 08:26:16.000,8.560,22.208,1987.960787
14 Sep 2023 08:26:21.000,9.597,22.392,1981.064362
14 Sep 2023 08:26:26.000,10.644,22.566,1974.631565
14 Sep 2023 08:26:31.000,11.699,22.732,1968.666897
14 Sep 2023 08:26:36.000,12.764,22.888,1963.174570
14 Sep 2023 08:26:41.000,13.836,23.034,1958.158497
14 Sep 2023 08:26:46.000,14.916,23.170,1953.622273
14 Sep 2023 08:26:51.000,16.002,23.295,1949.569165
14 Sep 2023 08:26:56.000,17.094,23.410,1946.002102
14 Sep 2023 08:27:01.000,18.192,23.514,1942.923659
14 Sep 2023 08:27:06.000,19.295,23.606,1940.336052
14 Sep 2023 08:27:11.000,20.402,23.688,1938.241127
14 Sep 2023 08:27:16.000,21.512,23.758,1936.640356
14 Sep 2023 08:27:21.000,22.625,23.817,1935.534825
14 Sep 2023 08:27:26.000,23.739,23.864,1934.925238
14 Sep 2023 08:27:31.000,24.855,23.900,1934.811904
14 Sep 2023 08:27:36.000,25.971,23.924,1935.194748
14 Sep 2023 08:27:41.000,27.087,23.936,1936.073299
14 Sep 2023 08:27:46.000,28.201,23.937,1937.446698
14 Sep 2023 08:27:51.000,29.314,23.926,1939.313706
14 Sep 2023 08:27:56.000,30.423,23.903,1941.672693
14 Sep 2023 08:28:01.000,31.530,23.869,1944.521660
14 Sep 2023 08:28:06.000,32.632,23.824,1947.858239
14 Sep 2023 08:28:11.000,33.730,23.767,1951.679703
14 Sep 2023 08:28:16.000,34.821,23.700,1955.982970
14 Sep 2023 08:28:21.000,35.907,23.621,1960.764691
14 Sep 2023 08:28:26.000,36.986,23.532,1966.021001
14 Sep 2023 08:28:31.000,38.057,23.433,1971.747903
14 Sep 2023 08:28:36.000,39.121,23.323,1977.941040
14 Sep 2023 08:28:41.000,40.176,23.204,1984.595772
14 Sep 2023 08:28:46.000,41.221,23.075,1991.707189
14 Sep 2023 08:28:51.000,42.257,22.936,1999.270126
14 Sep 2023 08:28:56.000,43.284,22.789,2007.279178
14 Sep 2023 08:29:01.000,44.299,22.633,2015.728724
14 Sep 2023 08:29:06.000,45.304,22.468,2024.612936
14 Sep 2023 08:29:11.000,46.297,22.295,2033.925799
14 Sep 2023 08:29:16.000,47.279,22.114,2043.661125
14 Sep 2023 08:29:21.000,48.249,21.926,2053.812574
14 Sep 2023 08:29:26.000,49.207,21.731,2064.373665
14 Sep 2023 08:29:31.000,50.152,21.529,2075.337801
14 Sep 2023 08:29:36.000,51.085,21.320,2086.698273
14 Sep 2023 08:29:41.000,52.005,21.105,2098.448286
14 Sep 2023 08:29:46.000,52.913,20.885,2110.580972
14 Sep 2023 08:29:51.000,53.807,20.659,2123.089397
14 Sep 2023 08:29:56.000,54.688,20.427,2135.966586
14 Sep 2023 08:30:01.000,55.557,20.191,2149.205526
14 Sep 2023 08:30:06.000,56.412,19.950,2162.799192
14 Sep 2023 08:30:11.000,57.253,19.705,2176.740540
14 Sep 2023 08:30:16.000,58.082,19.456,2191.022543
14 Sep 2023 08:30:21.000,58.898,19.203,2205.638174
14 Sep 2023 08:30:26.000,59.700,18.947,2220.580442
14 Sep 2023 08:30:31.000,60.489,18.688,2235.842388
14 Sep 2023 08:30:36.000,61.266,18.425,2251.417092
14 Sep 2023 08:30:41.000,62.029,18.160,2267.297690
14 Sep 2023 08:30:46.000,62.780,17.893,2283.477372
14 Sep 2023 08:30:51.000,63.518,17.623,2299.949403
14 Sep 2023 08:30:56.000,64.244,17.351,2316.707108
14 Sep 2023 08:31:01.000,64.957,17.078,2333.743902
14 Sep 2023 08:31:06.000,65.658,16.802,2351.053272
14 Sep 2023 08:31:11.000,66.347,16.526,2368.628800
14 Sep 2023 08:31:16.000,67.023,16.248,2386.464159
14 Sep 2023 08:31:21.000,67.689,15.969,2404.553115
14 Sep 2023 08:31:26.000,68.342,15.689,2422.889534
14 Sep 2023 08:31:31.000,68.985,15.409,2441.467382
14 Sep 2023 08:31:36.000,69.616,15.128,2460.280730
14 Sep 2023 08:31:41.000,70.235,14.846,2479.323750
14 Sep 2023 08:31:46.000,70.845,14.564,2498.590730
14 Sep 2023 08:31:51.000,71.443,14.282,2518.076053
14 Sep 2023 08:31:56.000,72.031,14.000,2537.774224
14 Sep 2023 08:32:01.000,72.609,13.718,2557.679844
14 Sep 2023 08:32:06.000,73.176,13.436,2577.787636
14 Sep 2023 08:32:11.000,73.734,13.154,2598.092421
14 Sep 2023 08:32:16.000,74.282,12.872,2618.589135
14 Sep 2023 08:32:21.000,74.821,12.591,2639.272824
14 Sep 2023 08:32:26.000,75.350,12.311,2660.138639
14 Sep 2023 08:32:31.000,75.870,12.030,2681.181840
14 Sep 2023 08:32:36.000,76.381,11.751,2702.397791
14 Sep 2023 08:32:41.000,76.883,11.472,2723.781964
14 Sep 2023 08:32:46.000,77.377,11.194,2745.329932
14 Sep 2023 08:32:51.000,77.862,10.916,2767.037372
14 Sep 2023 08:32:56.000,78.340,10.639,2788.900062
14 Sep 2023 08:33:01.000,78.809,10.364,2810.913876
14 Sep 2023 08:33:06.000,79.270,10.089,2833.074796
14 Sep 2023 08:33:11.000,79.723,9.815,2855.378887
14 Sep 2023 08:33:16.000,80.169,9.542,2877.822323
14 Sep 2023 08:33:21.000,80.607,9.270,2900.401354
14 Sep 2023 08:33:26.000,81.039,8.999,2923.112339
14 Sep 2023 08:33:31.000,81.463,8.729,2945.951709
14 Sep 2023 08:33:36.000,81.880,8.460,2968.915997
14 Sep 2023 08:33:41.000,82.290,8.192,2992.001810
14 Sep 2023 08:33:46.000,82.694,7.925,3015.205845
14 Sep 2023 08:33:51.000,83.091,7.660,3038.524884
14 Sep 2023 08:33:56.000,83.482,7.395,3061.955777
14 Sep 2023 08:34:01.000,83.867,7.132,3085.495462
14 Sep 2023 08:34:06.000,84.246,6.870,3109.140952
14 Sep 2023 08:34:11.000,84.619,6.609,3132.889333
14 Sep 2023 08:34:16.000,84.985,6.349,3156.737762
14 Sep 2023 08:34:21.000,85.347,6.090,3180.683469
14 Sep 2023 08:34:26.000,85.703,5.833,3204.723752
14 Sep 2023 08:34:31.000,86.053,5.576,3228.855976
14 Sep 2023 08:34:36.000,86.398,5.321,3253.077573
14 Sep 2023 08:34:41.000,86.738,5.067,3277.386037
14 Sep 2023 08:34:46.000,87.072,4.814,3301.778925
14 Sep 2023 08:34:51.000,87.402,4.563,3326.253855
14 Sep 2023 08:34:56.000,87.727,4.312,3350.808502
14 Sep 2023 08:35:01.000,88.047,4.063,3375.440598
14 Sep 2023 08:35:06.000,88.363,3.815,3400.147938
14 Sep 2023 08:35:11.000,88.673,3.568,3424.928362
14 Sep 2023 08:35:16.000,88.980,3.322,3449.779769
14 Sep 2023 08:35:21.000,89.282,3.077,3474.700100
14 Sep 2023 08:35:26.000,89.580,2.834,3499.687363
14 Sep 2023 08:35:31.000,89.874,2.591,3524.739600
14 Sep 2023 08:35:36.000,90.163,2.350,3549.854901
14 Sep 2023 08:35:41.000,90.449,2.109,3575.031413
14 Sep 2023 08:35:46.000,90.730,1.870,3600.267313
14 Sep 2023 08:35:51.000,91.008,1.632,3625.560837
14 Sep 2023 08:35:56.000,91.282,1.395,3650.910250
14 Sep 2023 08:36:01.000,91.553,1.159,3676.313861
14 Sep 2023 08:36:06.000,91.819,0.924,3701.770028
14 Sep 2023 08:36:11.000,92.083,0.690,3727.277132
14 Sep 2023 08:36:16.000,92.342,0.458,3752.833610
14 Sep 2023 08:36:21.000,92.599,0.226,3778.437917
14 Sep 2023 08:36:25.890,92.846,0.000,3803.521202
14 Sep 2023 10:02:55.401,315.985,0.000,3614.457594
14 Sep 2023 10:03:00.000,316.034,0.264,3587.359882
14 Sep 2023 10:03:05.000,316.088,0.554,3557.909882
14 Sep 2023 10:03:10.000,316.142,0.846,3528.469269
14 Sep 2023 10:03:15.000,316.197,1.140,3499.038839
14 Sep 2023 10:03:20.000,316.253,1.437,3469.619408
14 Sep 2023 10:03:25.000,316.310,1.737,3440.211818
14 Sep 2023 10:03:30.000,316.367,2.039,3410.816924
14 Sep 2023 10:03:35.000,316.424,2.344,3381.435615
14 Sep 2023 10:03:40.000,316.483,2.652,3352.068800
14 Sep 2023 10:03:45.000,316.542,2.962,3322.717416
14 Sep 2023 10:03:50.000,316.602,3.276,3293.382428
14 Sep 2023 10:03:55.000,316.663,3.593,3264.064821
14 Sep 2023 10:04:00.000,316.724,3.913,3234.765620
14 Sep 2023 10:04:05.000,316.786,4.236,3205.485875
14 Sep 2023 10:04:10.000,316.849,4.562,3176.226669
14 Sep 2023 10:04:15.000,316.913,4.892,3146.989123
14 Sep 2023 10:04:20.000,316.978,5.226,3117.774382
14 Sep 2023 10:04:25.000,317.044,5.563,3088.583638
14 Sep 2023 10:04:30.000,317.111,5.903,3059.418119
14 Sep 2023 10:04:35.000,317.179,6.248,3030.279088
14 Sep 2023 10:04:40.000,317.247,6.596,3001.167855
14 Sep 2023 10:04:45.000,317.317,6.948,2972.085772
14 Sep 2023 10:04:50.000,317.388,7.305,2943.034241
14 Sep 2023 10:04:55.000,317.460,7.666,2914.014701
14 Sep 2023 10:05:00.000,317.534,8.031,2885.028652
14 Sep 2023 10:05:05.000,317.608,8.401,2856.077644
14 Sep 2023 10:05:10.000,317.684,8.775,2827.163278
14 Sep 2023 10:05:15.000,317.761,9.154,2798.287215
14 Sep 2023 10:05:20.000,317.839,9.538,2769.451183
14 Sep 2023 10:05:25.000,317.919,9.927,2740.656960
14 Sep 2023 10:05:30.000,318.001,10.321,2711.906405
14 Sep 2023 10:05:35.000,318.083,10.721,2683.201434
14 Sep 2023 10:05:40.000,318.168,11.126,2654.544046
14 Sep 2023 10:05:45.000,318.254,11.536,2625.936315
14 Sep 2023 10:05:50.000,318.342,11.953,2597.380391
14 Sep 2023 10:05:55.000,318.432,12.376,2568.878516
14 Sep 2023 10:06:00.000,318.523,12.805,2540.433014
14 Sep 2023 10:06:05.000,318.617,13.240,2512.046310
14 Sep 2023 10:06:10.000,318.712,13.683,2483.720922
14 Sep 2023 10:06:15.000,318.810,14.131,2455.459477
14 Sep 2023 10:06:20.000,318.910,14.588,2427.264704
14 Sep 2023 10:06:25.000,319.012,15.051,2399.139455
14 Sep 2023 10:06:30.000,319.116,15.522,2371.086699
14 Sep 2023 10:06:35.000,319.224,16.001,2343.109528
14 Sep 2023 10:06:40.000,319.333,16.488,2315.211177
14 Sep 2023 10:06:45.000,319.446,16.983,2287.395016
14 Sep 2023 10:06:50.000,319.561,17.487,2259.664564
14 Sep 2023 10:06:55.000,319.679,17.999,2232.023495
14 Sep 2023 10:07:00.000,319.801,18.521,2204.475656
14 Sep 2023 10:07:05.000,319.926,19.052,2177.025059
14 Sep 2023 10:07:10.000,320.054,19.594,2149.675902
14 Sep 2023 10:07:15.000,320.186,20.145,2122.432577
14 Sep 2023 10:07:20.000,320.322,20.707,2095.299678
14 Sep 2023 10:07:25.000,320.462,21.280,2068.282015
14 Sep 2023 10:07:30.000,320.606,21.864,2041.384623
14 Sep 2023 10:07:35.000,320.755,22.460,2014.612775
14 Sep 2023 10:07:40.000,320.909,23.067,1987.971996
14 Sep 2023 10:07:45.000,321.067,23.687,1961.468077
14 Sep 2023 10:07:50.000,321.231,24.321,1935.107084
14 Sep 2023 10:07:55.000,321.401,24.967,1908.895380
14 Sep 2023 10:08:00.000,321.576,25.627,1882.839640
14 Sep 2023 10:08:05.000,321.758,26.302,1856.946855
14 Sep 2023 10:08:10.000,321.947,26.991,1831.224369
14 Sep 2023 10:08:15.000,322.142,27.695,1805.679885
14 Sep 2023 10:08:20.000,322.345,28.416,1780.321478
14 Sep 2023 10:08:25.000,322.557,29.152,1755.157632
14 Sep 2023 10:08:30.000,322.777,29.906,1730.197240
14 Sep 2023 10:08:35.000,323.006,30.677,1705.449642
14 Sep 2023 10:08:40.000,323.245,31.466,1680.924631
14 Sep 2023 10:08:45.000,323.495,32.273,1656.632485
14 Sep 2023 10:08:50.000,323.756,33.100,1632.583984
14 Sep 2023 10:08:55.000,324.029,33.947,1608.790434
14 Sep 2023 10:09:00.000,324.315,34.814,1585.263686
14 Sep 2023 10:09:05.000,324.616,35.702,1562.016163
14 Sep 2023 10:09:10.000,324.932,36.611,1539.060877
14 Sep 2023 10:09:15.000,325.264,37.543,1516.411454
14 Sep 2023 10:09:20.000,325.614,38.497,1494.082142
14 Sep 2023 10:09:25.000,325.984,39.475,1472.087851
14 Sep 2023 10:09:30.000,326.375,40.476,1450.444147
14 Sep 2023 10:09:35.000,326.789,41.502,1429.167276
14 Sep 2023 10:09:40.000,327.229,42.553,1408.274181
14 Sep 2023 10:09:45.000,327.697,43.629,1387.782493
14 Sep 2023 10:09:50.000,328.195,44.731,1367.710551
14 Sep 2023 10:09:55.000,328.727,45.859,1348.077383
14 Sep 2023 10:10:00.000,329.297,47.013,1328.902712
14 Sep 2023 10:10:05.000,329.908,48.193,1310.206927
14 Sep 2023 10:10:10.000,330.566,49.399,1292.011072
14 Sep 2023 10:10:15.000,331.275,50.630,1274.336799
14 Sep 2023 10:10:20.000,332.043,51.888,1257.206335
14 Sep 2023 10:10:25.000,332.876,53.170,1240.642423
14 Sep 2023 10:10:30.000,333.783,54.475,1224.668253
14 Sep 2023 10:10:35.000,334.775,55.804,1209.307386
14 Sep 2023 10:10:40.000,335.862,57.153,1194.583659
14 Sep 2023 10:10:45.000,337.060,58.522,1180.521075
14 Sep 2023 10:10:50.000,338.385,59.906,1167.143679
14 Sep 2023 10:10:55.000,339.856,61.304,1154.475425
14 Sep 2023 10:11:00.000,341.499,62.710,1142.540022
14 Sep 2023 10:11:05.000,343.341,64.121,1131.360766
14 Sep 2023 10:11:10.000,345.418,65.530,1120.960369
14 Sep 2023 10:11:15.000,347.771,66.928,1111.360769
14 Sep 2023 10:11:20.000,350.451,68.308,1102.582939
14 Sep 2023 10:11:25.000,353.515,69.656,1094.646686
14 Sep 2023 10:11:30.000,357.035,70.959,1087.570457
14 Sep 2023 10:11:35.000,1.084,72.199,1081.371138
14 Sep 2023 10:11:40.000,5.745,73.354,1076.063875
14 Sep 2023 10:11:45.000,11.091,74.398,1071.661890
14 Sep 2023 10:11:50.000,17.171,75.299,1068.176328
14 Sep 2023 10:11:55.000,23.983,76.026,1065.616117
14 Sep 2023 10:12:00.000,31.444,76.545,1063.987855
14 Sep 2023 10:12:05.000,39.370,76.829,1063.295720
14 Sep 2023 10:12:10.000,47.487,76.861,1063.541426
14 Sep 2023 10:12:15.000,55.479,76.639,1064.724207
14 Sep 2023 10:12:20.000,63.059,76.178,1066.840762
14 Sep 2023 10:12:25.000,70.019,75.503,1069.885393
14 Sep 2023 10:12:30.000,76.258,74.648,1073.850019
14 Sep 2023 10:12:35.000,81.758,73.645,1078.724295
14 Sep 2023 10:12:40.000,86.559,72.526,1084.495735
14 Sep 2023 10:12:45.000,90.733,71.319,1091.149872
14 Sep 2023 10:12:50.000,94.358,70.046,1098.670417
14 Sep 2023 10:12:55.000,97.514,68.725,1107.039448
14 Sep 2023 10:13:00.000,100.270,67.371,1116.237603
14 Sep 2023 10:13:05.000,102.687,65.998,1126.244275
14 Sep 2023 10:13:10.000,104.818,64.613,1137.037811
14 Sep 2023 10:13:15.000,106.707,63.226,1148.595710
14 Sep 2023 10:13:20.000,108.388,61.843,1160.894810
14 Sep 2023 10:13:25.000,109.893,60.468,1173.911469
14 Sep 2023 10:13:30.000,111.246,59.106,1187.621741
14 Sep 2023 10:13:35.000,112.468,57.760,1202.001523
14 Sep 2023 10:13:40.000,113.577,56.432,1217.026708
14 Sep 2023 10:13:45.000,114.586,55.126,1232.673307
14 Sep 2023 10:13:50.000,115.509,53.841,1248.917569
14 Sep 2023 10:13:55.000,116.356,52.580,1265.736074
14 Sep 2023 10:14:00.000,117.135,51.344,1283.105830
14 Sep 2023 10:14:05.000,117.854,50.132,1301.004331
14 Sep 2023 10:14:10.000,118.520,48.946,1319.409629
14 Sep 2023 10:14:15.000,119.139,47.785,1338.300376
14 Sep 2023 10:14:20.000,119.715,46.651,1357.655858
14 Sep 2023 10:14:25.000,120.253,45.541,1377.456037
14 Sep 2023 10:14:30.000,120.756,44.458,1397.681548
14 Sep 2023 10:14:35.000,121.228,43.399,1418.313732
14 Sep 2023 10:14:40.000,121.671,42.366,1439.334627
14 Sep 2023 10:14:45.000,122.088,41.356,1460.726976
14 Sep 2023 10:14:50.000,122.481,40.371,1482.474215
14 Sep 2023 10:14:55.000,122.852,39.409,1504.560467
14 Sep 2023 10:15:00.000,123.204,38.470,1526.970525
14 Sep 2023 10:15:05.000,123.537,37.553,1549.689851
14 Sep 2023 10:15:10.000,123.854,36.658,1572.704533
14 Sep 2023 10:15:15.000,124.154,35.784,1596.001292
14 Sep 2023 10:15:20.000,124.440,34.930,1619.567446
14 Sep 2023 10:15:25.000,124.713,34.097,1643.390894
14 Sep 2023 10:15:30.000,124.973,33.283,1667.460086
14 Sep 2023 10:15:35.000,125.222,32.487,1691.764013
14 Sep 2023 10:15:40.000,125.460,31.710,1716.292185
14 Sep 2023 10:15:45.000,125.688,30.951,1741.034596
14 Sep 2023 10:15:50.000,125.906,30.208,1765.981711
14 Sep 2023 10:15:55.000,126.116,29.482,1791.124443
14 Sep 2023 10:16:00.000,126.317,28.772,1816.454139
14 Sep 2023 10:16:05.000,126.510,28.078,1841.962548
14 Sep 2023 10:16:10.000,126.696,27.398,1867.641804
14 Sep 2023 10:16:15.000,126.875,26.733,1893.484419
14 Sep 2023 10:16:20.000,127.048,26.082,1919.483252
14 Sep 2023 10:16:25.000,127.215,25.444,1945.631492
14 Sep 2023 10:16:30.000,127.376,24.820,1971.922649
14 Sep 2023 10:16:35.000,127.531,24.208,1998.350537
14 Sep 2023 10:16:40.000,127.681,23.608,2024.909246
14 Sep 2023 10:16:45.000,127.826,23.020,2051.593146
14 Sep 2023 10:16:50.000,127.967,22.443,2078.396861
14 Sep 2023 10:16:55.000,128.103,21.878,2105.315259
14 Sep 2023 10:17:00.000,128.235,21.323,2132.343440
14 Sep 2023 10:17:05.000,128.363,20.778,2159.476724
14 Sep 2023 10:17:10.000,128.487,20.244,2186.710639
14 Sep 2023 10:17:15.000,128.608,19.719,2214.040910
14 Sep 2023 10:17:20.000,128.725,19.203,2241.463453
14 Sep 2023 10:17:25.000,128.839,18.697,2268.974354
14 Sep 2023 10:17:30.000,128.950,18.199,2296.569882
14 Sep 2023 10:17:35.000,129.058,17.709,2324.246452
14 Sep 2023 10:17:40.000,129.162,17.228,2352.000640
14 Sep 2023 10:17:45.000,129.265,16.755,2379.829161
14 Sep 2023 10:17:50.000,129.364,16.289,2407.728869
14 Sep 2023 10:17:55.000,129.461,15.831,2435.696754
14 Sep 2023 10:18:00.000,129.556,15.380,2463.729922
14 Sep 2023 10:18:05.000,129.648,14.936,2491.825596
14 Sep 2023 10:18:10.000,129.738,14.498,2519.981122
14 Sep 2023 10:18:15.000,129.826,14.067,2548.193938
14 Sep 2023 10:18:20.000,129.912,13.643,2576.461595
14 Sep 2023 10:18:25.000,129.996,13.225,2604.781732
14 Sep 2023 10:18:30.000,130.078,12.812,2633.152080
14 Sep 2023 10:18:35.000,130.158,12.406,2661.570465
14 Sep 2023 10:18:40.000,130.236,12.005,2690.034784
14 Sep 2023 10:18:45.000,130.313,11.609,2718.543024
14 Sep 2023 10:18:50.000,130.388,11.219,2747.093237
14 Sep 2023 10:18:55.000,130.461,10.834,2775.683557
14 Sep 2023 10:19:00.000,130.533,10.454,2804.312176
14 Sep 2023 10:19:05.000,130.604,10.078,2832.977360
14 Sep 2023 10:19:10.000,130.673,9.708,2861.677428
14 Sep 2023 10:19:15.000,130.741,9.342,2890.410766
14 Sep 2023 10:19:20.000,130.807,8.980,2919.175816
14 Sep 2023 10:19:25.000,130.872,8.623,2947.971064
14 Sep 2023 10:19:30.000,130.936,8.269,2976.795062
14 Sep 2023 10:19:35.000,130.999,7.920,3005.646398
14 Sep 2023 10:19:40.000,131.060,7.575,3034.523713
14 Sep 2023 10:19:45.000,131.121,7.234,3063.425697
14 Sep 2023 10:19:50.000,131.180,6.896,3092.351072
14 Sep 2023 10:19:55.000,131.238,6.562,3121.298609
14 Sep 2023 10:20:00.000,131.295,6.232,3150.267120
14 Sep 2023 10:20:05.000,131.352,5.905,3179.255445
14 Sep 2023 10:20:10.000,131.407,5.582,3208.262466
14 Sep 2023 10:20:15.000,131.461,5.261,3237.287104
14 Sep 2023 10:20:20.000,131.515,4.944,3266.328300
14 Sep 2023 10:20:25.000,131.567,4.630,3295.385038
14 Sep 2023 10:20:30.000,131.619,4.319,3324.456330
14 Sep 2023 10:20:35.000,131.670,4.011,3353.541209
14 Sep 2023 10:20:40.000,131.720,3.706,3382.638745
14 Sep 2023 10:20:45.000,131.769,3.404,3411.748034
14 Sep 2023 10:20:50.000,131.818,3.104,3440.868188
14 Sep 2023 10:20:55.000,131.865,2.807,3469.998353
14 Sep 2023 10:21:00.000,131.912,2.513,3499.137695
14 Sep 2023 10:21:05.000,131.959,2.221,3528.285406
14 Sep 2023 10:21:10.000,132.004,1.932,3557.440691
14 Sep 2023 10:21:15.000,132.049,1.645,3586.602783
14 Sep 2023 10:21:20.000,132.093,1.360,3615.770936
14 Sep 2023 10:21:25.000,132.137,1.078,3644.944415
14 Sep 2023 10:21:30.000,132.180,0.798,3674.122510
14 Sep 2023 10:21:35.000,132.222,0.520,3703.304528
14 Sep 2023 10:21:40.000,132.264,0.244,3732.489794
14 Sep 2023 10:21:44.460,132.301,0.000,3758.524019
14 Sep 2023 11:46:54.823,301.036,0.000,3729.667618
14 Sep 2023 11:46:59.000,300.826,0.205,3708.126312
14 Sep 2023 11:47:04.000,300.572,0.452,3682.399180
14 Sep 2023 11:47:09.000,300.314,0.701,3656.737159
14 Sep 2023 11:47:14.000,300.053,0.950,3631.142108
14 Sep 2023 11:47:19.000,299.787,1.200,3605.615945
14 Sep 2023 11:47:24.000,299.517,1.452,3580.160621
14 Sep 2023 11:47:29.000,299.243,1.704,3554.778144
14 Sep 2023 11:47:34.000,298.965,1.958,3529.470558
14 Sep 2023 11:47:39.000,298.682,2.213,3504.239970
14 Sep 2023 11:47:44.000,298.395,2.469,3479.088523
14 Sep 2023 11:47:49.000,298.103,2.727,3454.018424
14 Sep 2023 11:47:54.000,297.807,2.985,3429.031926
14 Sep 2023 11:47:59.000,297.506,3.245,3404.131333
14 Sep 2023 11:48:04.000,297.200,3.506,3379.319017
14 Sep 2023 11:48:09.000,296.889,3.768,3354.597398
14 Sep 2023 11:48:14.000,296.574,4.032,3329.968955
14 Sep 2023 11:48:19.000,296.253,4.297,3305.436228
14 Sep 2023 11:48:24.000,295.926,4.562,3281.001827
14 Sep 2023 11:48:29.000,295.595,4.830,3256.668414
14 Sep 2023 11:48:34.000,295.258,5.098,3232.438721
14 Sep 2023 11:48:39.000,294.915,5.367,3208.315548
14 Sep 2023 11:48:44.000,294.566,5.638,3184.301761
14 Sep 2023 11:48:49.000,294.212,5.910,3160.400296
14 Sep 2023 11:48:54.000,293.852,6.183,3136.614161
14 Sep 2023 11:48:59.000,293.485,6.457,3112.946438
14 Sep 2023 11:49:04.000,293.112,6.733,3089.400283
14 Sep 2023 11:49:09.000,292.733,7.010,3065.978928
14 Sep 2023 11:49:14.000,292.348,7.287,3042.685687
14 Sep 2023 11:49:19.000,291.955,7.566,3019.523944
14 Sep 2023 11:49:24.000,291.556,7.846,2996.497173
14 Sep 2023 11:49:29.000,291.150,8.128,2973.608931
14 Sep 2023 11:49:34.000,290.737,8.410,2950.862858
14 Sep 2023 11:49:39.000,290.316,8.693,2928.262675
14 Sep 2023 11:49:44.000,289.888,8.977,2905.812201
14 Sep 2023 11:49:49.000,289.453,9.263,2883.515331
14 Sep 2023 11:49:54.000,289.010,9.549,2861.376065
14 Sep 2023 11:49:59.000,288.559,9.836,2839.398486
14 Sep 2023 11:50:04.000,288.100,10.124,2817.586767
14 Sep 2023 11:50:09.000,287.632,10.413,2795.945188
14 Sep 2023 11:50:14.000,287.156,10.702,2774.478114
14 Sep 2023 11:50:19.000,286.672,10.993,2753.190011
14 Sep 2023 11:50:24.000,286.179,11.284,2732.085439
14 Sep 2023 11:50:29.000,285.677,11.575,2711.169062
14 Sep 2023 11:50:34.000,285.166,11.867,2690.445637
14 Sep 2023 11:50:39.000,284.646,12.160,2669.920024
14 Sep 2023 11:50:44.000,284.116,12.452,2649.597184
14 Sep 2023 11:50:49.000,283.577,12.745,2629.482173
14 Sep 2023 11:50:54.000,283.027,13.039,2609.580156
14 Sep 2023 11:50:59.000,282.468,13.332,2589.896382
14 Sep 2023 11:51:04.000,281.899,13.625,2570.436212
14 Sep 2023 11:51:09.000,281.320,13.918,2551.205106
14 Sep 2023 11:51:14.000,280.730,14.211,2532.208612
14 Sep 2023 11:51:19.000,280.129,14.504,2513.452373
14 Sep 2023 11:51:24.000,279.517,14.796,2494.942140
14 Sep 2023 11:51:29.000,278.895,15.087,2476.683741
14 Sep 2023 11:51:34.000,278.261,15.378,2458.683100
14 Sep 2023 11:51:39.000,277.617,15.667,2440.946226
14 Sep 2023 11:51:44.000,276.960,15.956,2423.479211
14 Sep 2023 11:51:49.000,276.292,16.243,2406.288226
14 Sep 2023 11:51:54.000,275.613,16.528,2389.379524
14 Sep 2023 11:51:59.000,274.921,16.812,2372.759415
14 Sep 2023 11:52:04.000,274.218,17.094,2356.434286
14 Sep 2023 11:52:09.000,273.502,17.374,2340.410586
14 Sep 2023 11:52:14.000,272.774,17.652,2324.694807
14 Sep 2023 11:52:19.000,272.034,17.927,2309.293495
14 Sep 2023 11:52:24.000,271.282,18.199,2294.213235
14 Sep 2023 11:52:29.000,270.517,18.468,2279.460643
14 Sep 2023 11:52:34.000,269.740,18.734,2265.042361
14 Sep 2023 11:52:39.000,268.950,18.997,2250.965044
14 Sep 2023 11:52:44.000,268.148,19.256,2237.235351
14 Sep 2023 11:52:49.000,267.333,19.510,2223.859943
14 Sep 2023 11:52:54.000,266.506,19.760,2210.845451
14 Sep 2023 11:52:59.000,265.666,20.006,2198.198496
14 Sep 2023 11:53:04.000,264.814,20.247,2185.925648
14 Sep 2023 11:53:09.000,263.950,20.482,2174.033429
14 Sep 2023 11:53:14.000,263.073,20.712,2162.528298
14 Sep 2023 11:53:19.000,262.185,20.936,2151.416637
14 Sep 2023 11:53:24.000,261.284,21.154,2140.704740
14 Sep 2023 11:53:29.000,260.372,21.365,2130.398785
14 Sep 2023 11:53:34.000,259.449,21.570,2120.504844
14 Sep 2023 11:53:39.000,258.514,21.768,2111.028842
14 Sep 2023 11:53:44.000,257.568,21.958,2101.976570
14 Sep 2023 11:53:49.000,256.612,22.140,2093.353642
14 Sep 2023 11:53:54.000,255.646,22.315,2085.165502
14 Sep 2023 11:53:59.000,254.669,22.481,2077.417387
14 Sep 2023 11:54:04.000,253.683,22.638,2070.114339
14 Sep 2023 11:54:09.000,252.688,22.787,2063.261173
14 Sep 2023 11:54:14.000,251.685,22.926,2056.862461
14 Sep 2023 11:54:19.000,250.673,23.056,2050.922524
14 Sep 2023 11:54:24.000,249.654,23.177,2045.445421
14 Sep 2023 11:54:29.000,248.627,23.287,2040.434928
14 Sep 2023 11:54:34.000,247.594,23.388,2035.894536
14 Sep 2023 11:54:39.000,246.555,23.478,2031.827421
14 Sep 2023 11:54:44.000,245.511,23.557,2028.236461
14 Sep 2023 11:54:49.000,244.462,23.626,2025.124199
14 Sep 2023 11:54:54.000,243.409,23.684,2022.492850
14 Sep 2023 11:54:59.000,242.353,23.731,2020.344286
14 Sep 2023 11:55:04.000,241.294,23.768,2018.680036
14 Sep 2023 11:55:09.000,240.233,23.793,2017.501278
14 Sep 2023 11:55:14.000,239.170,23.807,2016.808827
14 Sep 2023 11:55:19.000,238.107,23.810,2016.603137
14 Sep 2023 11:55:24.000,237.044,23.801,2016.884313
14 Sep 2023 11:55:29.000,235.982,23.782,2017.652090
14 Sep 2023 11:55:34.000,234.922,23.751,2018.905836
14 Sep 2023 11:55:39.000,233.863,23.709,2020.644570
14 Sep 2023 11:55:44.000,232.808,23.656,2022.866955
14 Sep 2023 11:55:49.000,231.756,23.593,2025.571298
14 Sep 2023 11:55:54.000,230.708,23.518,2028.755565
14 Sep 2023 11:55:59.000,229.665,23.433,2032.417383
14 Sep 2023 11:56:04.000,228.627,23.338,2036.554051
14 Sep 2023 11:56:09.000,227.596,23.232,2041.162586
14 Sep 2023 11:56:14.000,226.571,23.117,2046.239584
14 Sep 2023 11:56:19.000,225.553,22.991,2051.781452
14 Sep 2023 11:56:24.000,224.543,22.856,2057.784271
14 Sep 2023 11:56:29.000,223.541,22.712,2064.243850
14 Sep 2023 11:56:34.000,222.548,22.559,2071.155736
14 Sep 2023 11:56:39.000,221.565,22.397,2078.515234
14 Sep 2023 11:56:44.000,220.590,22.226,2086.317408
14 Sep 2023 11:56:49.000,219.626,22.047,2094.557111
14 Sep 2023 11:56:54.000,218.672,21.861,2103.228988
14 Sep 2023 11:56:59.000,217.728,21.667,2112.327497
14 Sep 2023 11:57:04.000,216.796,21.465,2121.846924
14 Sep 2023 11:57:09.000,215.874,21.257,2131.781393
14 Sep 2023 11:57:14.000,214.965,21.042,2142.124890
14 Sep 2023 11:57:19.000,214.066,20.820,2152.871266
14 Sep 2023 11:57:24.000,213.180,20.593,2164.014264
14 Sep 2023 11:57:29.000,212.306,20.360,2175.547524
14 Sep 2023 11:57:34.000,211.443,20.121,2187.464598
14 Sep 2023 11:57:39.000,210.593,19.878,2199.758974
14 Sep 2023 11:57:44.000,209.755,19.629,2212.424075
14 Sep 2023 11:57:49.000,208.930,19.376,2225.453275
14 Sep 2023 11:57:54.000,208.117,19.119,2238.839920
14 Sep 2023 11:57:59.000,207.316,18.858,2252.577333
14 Sep 2023 11:58:04.000,206.528,18.593,2266.658821
14 Sep 2023 11:58:09.000,205.752,18.325,2281.077695
14 Sep 2023 11:58:14.000,204.989,18.054,2295.827273
14 Sep 2023 11:58:19.000,204.238,17.780,2310.900891
14 Sep 2023 11:58:24.000,203.499,17.503,2326.291914
14 Sep 2023 11:58:29.000,202.772,17.223,2341.993740
14 Sep 2023 11:58:34.000,202.057,16.942,2357.999815
14 Sep 2023 11:58:39.000,201.354,16.658,2374.303628
14 Sep 2023 11:58:44.000,200.663,16.373,2390.898732
14 Sep 2023 11:58:49.000,199.984,16.086,2407.778737
14 Sep 2023 11:58:54.000,199.316,15.798,2424.937325
14 Sep 2023 11:58:59.000,198.660,15.509,2442.368250
14 Sep 2023 11:59:04.000,198.015,15.218,2460.065341
14 Sep 2023 11:59:09.000,197.381,14.927,2478.022514
14 Sep 2023 11:59:14.000,196.758,14.635,2496.233764
14 Sep 2023 11:59:19.000,196.146,14.342,2514.693180
14 Sep 2023 11:59:24.000,195.545,14.049,2533.394935
14 Sep 2023 11:59:29.000,194.954,13.755,2552.333300
14 Sep 2023 11:59:34.000,194.374,13.462,2571.502641
14 Sep 2023 11:59:39.000,193.803,13.168,2590.897421
14 Sep 2023 11:59:44.000,193.243,12.874,2610.512196
14 Sep 2023 11:59:49.000,192.692,12.581,2630.341628
14 Sep 2023 11:59:54.000,192.151,12.287,2650.380473
14 Sep 2023 11:59:59.000,191.619,11.994,2670.623592
14 Sep 2023 12:00:04.000,191.097,11.702,2691.065942
14 Sep 2023 12:00:09.000,190.583,11.410,2711.702583
14 Sep 2023 12:00:14.000,190.079,11.118,2732.528675
14 Sep 2023 12:00:19.000,189.583,10.827,2753.539477
14 Sep 2023 12:00:24.000,189.096,10.537,2774.730348
14 Sep 2023 12:00:29.000,188.618,10.248,2796.096745
14 Sep 2023 12:00:34.000,188.147,9.959,2817.634223
14 Sep 2023 12:00:39.000,187.685,9.671,2839.338434
14 Sep 2023 12:00:44.000,187.230,9.384,2861.205126
14 Sep 2023 12:00:49.000,186.783,9.099,2883.230140
14 Sep 2023 12:00:54.000,186.344,8.814,2905.409411
14 Sep 2023 12:00:59.000,185.912,8.530,2927.738968
14 Sep 2023 12:01:04.000,185.488,8.247,2950.214927
14 Sep 2023 12:01:09.000,185.070,7.965,2972.833496
14 Sep 2023 12:01:14.000,184.660,7.684,2995.590968
14 Sep 2023 12:01:19.000,184.256,7.405,3018.483725
14 Sep 2023 12:01:24.000,183.859,7.126,3041.508230
14 Sep 2023 12:01:29.000,183.469,6.849,3064.661032
14 Sep 2023 12:01:34.000,183.084,6.573,3087.938759
14 Sep 2023 12:01:39.000,182.707,6.298,3111.338120
14 Sep 2023 12:01:44.000,182.335,6.024,3134.855900
14 Sep 2023 12:01:49.000,181.969,5.752,3158.488962
14 Sep 2023 12:01:54.000,181.609,5.481,3182.234244
14 Sep 2023 12:01:59.000,181.255,5.211,3206.088753
14 Sep 2023 12:02:04.000,180.906,4.942,3230.049573
14 Sep 2023 12:02:09.000,180.563,4.674,3254.113852
14 Sep 2023 12:02:14.000,180.225,4.408,3278.278811
14 Sep 2023 12:02:19.000,179.892,4.143,3302.541732
14 Sep 2023 12:02:24.000,179.565,3.879,3326.899968
14 Sep 2023 12:02:29.000,179.242,3.617,3351.350928
14 Sep 2023 12:02:34.000,178.924,3.355,3375.892090
14 Sep 2023 12:02:39.000,178.612,3.095,3400.520986
14 Sep 2023 12:02:44.000,178.304,2.836,3425.235210
14 Sep 2023 12:02:49.000,178.000,2.579,3450.032412
14 Sep 2023 12:02:54.000,177.701,2.322,3474.910297
14 Sep 2023 12:02:59.000,177.406,2.067,3499.866627
14 Sep 2023 12:03:04.000,177.116,1.813,3524.899212
14 Sep 2023 12:03:09.000,176.830,1.560,3550.005917
14 Sep 2023 12:03:14.000,176.548,1.308,3575.184657
14 Sep 2023 12:03:19.000,176.270,1.058,3600.433394
14 Sep 2023 12:03:24.000,175.996,0.808,3625.750138
14 Sep 2023 12:03:29.000,175.725,0.560,3651.132946
14 Sep 2023 12:03:34.000,175.459,0.313,3676.579920
14 Sep 2023 12:03:39.000,175.196,0.067,3702.089204
14 Sep 2023 12:03:40.366,175.125,0.000,3709.070814
15 Sep 2023 00:31:09.912,164.428,0.000,2547.547802
15 Sep 2023 00:31:14.000,163.915,0.193,2529.163691
15 Sep 2023 00:31:19.000,163.277,0.429,2506.935120
15 Sep 2023 00:31:24.000,162.627,0.664,2484.996750
15 Sep 2023 00:31:29.000,161.966,0.900,2463.356763
15 Sep 2023 00:31:34.000,161.293,1.135,2442.023506
15 Sep 2023 00:31:39.000,160.608,1.369,2421.005489
15 Sep 2023 00:31:44.000,159.911,1.604,2400.311382
15 Sep 2023 00:31:49.000,159.202,1.837,2379.950006
15 Sep 2023 00:31:54.000,158.481,2.070,2359.930337
15 Sep 2023 00:31:59.000,157.746,2.302,2340.261491
15 Sep 2023 00:32:04.000,157.000,2.534,2320.952716
15 Sep 2023 00:32:09.000,156.240,2.764,2302.013393
15 Sep 2023 00:32:14.000,155.467,2.992,2283.453014
15 Sep 2023 00:32:19.000,154.682,3.220,2265.281183
15 Sep 2023 00:32:24.000,153.884,3.445,2247.507594
15 Sep 2023 00:32:29.000,153.072,3.669,2230.142025
15 Sep 2023 00:32:34.000,152.248,3.891,2213.194321
15 Sep 2023 00:32:39.000,151.410,4.111,2196.674373
15 Sep 2023 00:32:44.000,150.559,4.328,2180.592115
15 Sep 2023 00:32:49.000,149.696,4.543,2164.957485
15 Sep 2023 00:32:54.000,148.819,4.754,2149.780426
15 Sep 2023 00:32:59.000,147.929,4.963,2135.070850
15 Sep 2023 00:33:04.000,147.027,5.169,2120.838622
15 Sep 2023 00:33:09.000,146.112,5.371,2107.093534
15 Sep 2023 00:33:14.000,145.184,5.569,2093.845281
15 Sep 2023 00:33:19.000,144.244,5.764,2081.103435
15 Sep 2023 00:33:24.000,143.292,5.954,2068.877423
15 Sep 2023 00:33:29.000,142.329,6.140,2057.176482
15 Sep 2023 00:33:34.000,141.353,6.320,2046.009649
15 Sep 2023 00:33:39.000,140.367,6.496,2035.385729
15 Sep 2023 00:33:44.000,139.370,6.667,2025.313253
15 Sep 2023 00:33:49.000,138.362,6.832,2015.800456
15 Sep 2023 00:33:54.000,137.344,6.992,2006.855251
15 Sep 2023 00:33:59.000,136.317,7.145,1998.485191
15 Sep 2023 00:34:04.000,135.281,7.293,1990.697440
15 Sep 2023 00:34:09.000,134.236,7.433,1983.498756
15 Sep 2023 00:34:14.000,133.183,7.568,1976.895442
15 Sep 2023 00:34:19.000,132.123,7.695,1970.893337
15 Sep 2023 00:34:24.000,131.055,7.815,1965.497785
15 Sep 2023 00:34:29.000,129.982,7.928,1960.713605
15 Sep 2023 00:34:34.000,128.903,8.033,1956.545074
15 Sep 2023 00:34:39.000,127.820,8.130,1952.995916
15 Sep 2023 00:34:44.000,126.732,8.220,1950.069260
15 Sep 2023 00:34:49.000,125.641,8.302,1947.767653
15 Sep 2023 00:34:54.000,124.547,8.376,1946.093024
15 Sep 2023 00:34:59.000,123.451,8.441,1945.046697
15 Sep 2023 00:35:04.000,122.354,8.499,1944.629356
15 Sep 2023 00:35:09.000,121.257,8.548,1944.841070
15 Sep 2023 00:35:14.000,120.160,8.588,1945.681272
15 Sep 2023 00:35:19.000,119.064,8.621,1947.148772
15 Sep 2023 00:35:24.000,117.970,8.644,1949.241751
15 Sep 2023 00:35:29.000,116.879,8.660,1951.957787
15 Sep 2023 00:35:34.000,115.790,8.667,1955.293849
15 Sep 2023 00:35:39.000,114.706,8.666,1959.246321
15 Sep 2023 00:35:44.000,113.627,8.657,1963.811010
15 Sep 2023 00:35:49.000,112.554,8.639,1968.983179
15 Sep 2023 00:35:54.000,111.486,8.614,1974.757546
15 Sep 2023 00:35:59.000,110.425,8.580,1981.128332
15 Sep 2023 00:36:04.000,109.372,8.539,1988.089269
15 Sep 2023 00:36:09.000,108.326,8.490,1995.633725
15 Sep 2023 00:36:14.000,107.290,8.434,2003.754364
15 Sep 2023 00:36:19.000,106.262,8.371,2012.443713
15 Sep 2023 00:36:24.000,105.244,8.300,2021.693848
15 Sep 2023 00:36:29.000,104.235,8.223,2031.496500
15 Sep 2023 00:36:34.000,103.238,8.139,2041.843083
15 Sep 2023 00:36:39.000,102.251,8.048,2052.724744
15 Sep 2023 00:36:44.000,101.275,7.951,2064.132362
15 Sep 2023 00:36:49.000,100.311,7.848,2076.056609
15 Sep 2023 00:36:54.000,99.359,7.740,2088.487960
15 Sep 2023 00:36:59.000,98.419,7.626,2101.416728
15 Sep 2023 00:37:04.000,97.491,7.506,2114.833091
15 Sep 2023 00:37:09.000,96.576,7.381,2128.727117
15 Sep 2023 00:37:14.000,95.674,7.252,2143.088798
15 Sep 2023 00:37:19.000,94.785,7.118,2157.908064
15 Sep 2023 00:37:24.000,93.908,6.979,2173.174812
15 Sep 2023 00:37:29.000,93.045,6.836,2188.878928
15 Sep 2023 00:37:34.000,92.194,6.689,2205.010305
15 Sep 2023 00:37:39.000,91.357,6.539,2221.558863
15 Sep 2023 00:37:44.000,90.534,6.384,2238.514576
15 Sep 2023 00:37:49.000,89.723,6.227,2255.867469
15 Sep 2023 00:37:54.000,88.926,6.066,2273.607655
15 Sep 2023 00:37:59.000,88.141,5.902,2291.725338
15 Sep 2023 00:38:04.000,87.370,5.735,2310.210824
15 Sep 2023 00:38:09.000,86.612,5.566,2329.054537
15 Sep 2023 00:38:14.000,85.867,5.394,2348.247029
15 Sep 2023 00:38:19.000,85.134,5.220,2367.778983
15 Sep 2023 00:38:24.000,84.415,5.044,2387.641238
15 Sep 2023 00:38:29.000,83.707,4.865,2407.824767
15 Sep 2023 00:38:34.000,83.013,4.685,2428.320715
15 Sep 2023 00:38:39.000,82.330,4.503,2449.120383
15 Sep 2023 00:38:44.000,81.660,4.320,2470.215237
15 Sep 2023 00:38:49.000,81.001,4.135,2491.596916
15 Sep 2023 00:38:54.000,80.355,3.949,2513.257228
15 Sep 2023 00:38:59.000,79.720,3.761,2535.188159
15 Sep 2023 00:39:04.000,79.097,3.573,2557.381862
15 Sep 2023 00:39:09.000,78.484,3.383,2579.830682
15 Sep 2023 00:39:14.000,77.883,3.193,2602.527122
15 Sep 2023 00:39:19.000,77.293,3.001,2625.463879
15 Sep 2023 00:39:24.000,76.713,2.809,2648.633808
15 Sep 2023 00:39:29.000,76.144,2.617,2672.029951
15 Sep 2023 00:39:34.000,75.586,2.423,2695.645517
15 Sep 2023 00:39:39.000,75.037,2.229,2719.473892
15 Sep 2023 00:39:44.000,74.499,2.035,2743.508619
15 Sep 2023 00:39:49.000,73.970,1.841,2767.743418
15 Sep 2023 00:39:54.000,73.451,1.646,2792.172165
15 Sep 2023 00:39:59.000,72.941,1.451,2816.788911
15 Sep 2023 00:40:04.000,72.440,1.255,2841.587851
15 Sep 2023 00:40:09.000,71.949,1.060,2866.563342
15 Sep 2023 00:40:14.000,71.466,0.864,2891.709887
15 Sep 2023 00:40:19.000,70.992,0.669,2917.022152
15 Sep 2023 00:40:24.000,70.526,0.473,2942.494931
15 Sep 2023 00:40:29.000,70.068,0.277,2968.123178
15 Sep 2023 00:40:34.000,69.619,0.082,2993.901970
15 Sep 2023 00:40:36.086,69.434,0.000,3004.699761
15 Sep 2023 02:11:40.343,224.633,0.000,2608.161989
15 Sep 2023 02:11:45.000,224.654,0.317,2576.697376
15 Sep 2023 02:11:50.000,224.678,0.662,2542.934559
15 Sep 2023 02:11:55.000,224.701,1.011,2509.192204
15 Sep 2023 02:12:00.000,224.725,1.367,2475.471807
15 Sep 2023 02:12:05.000,224.750,1.728,2441.774929
15 Sep 2023 02:12:10.000,224.775,2.094,2408.103203
15 Sep 2023 02:12:15.000,224.800,2.467,2374.458343
15 Sep 2023 02:12:20.000,224.827,2.846,2340.842135
15 Sep 2023 02:12:25.000,224.853,3.232,2307.256455
15 Sep 2023 02:12:30.000,224.881,3.625,2273.703268
15 Sep 2023 02:12:35.000,224.909,4.024,2240.184645
15 Sep 2023 02:12:40.000,224.937,4.432,2206.702756
15 Sep 2023 02:12:45.000,224.967,4.847,2173.259889
15 Sep 2023 02:12:50.000,224.997,5.270,2139.858451
15 Sep 2023 02:12:55.000,225.027,5.702,2106.500983
15 Sep 2023 02:13:00.000,225.059,6.143,2073.190165
15 Sep 2023 02:13:05.000,225.092,6.594,2039.928839
15 Sep 2023 02:13:10.000,225.125,7.054,2006.720001
15 Sep 2023 02:13:15.000,225.159,7.525,1973.566830
15 Sep 2023 02:13:20.000,225.194,8.006,1940.472698
15 Sep 2023 02:13:25.000,225.231,8.499,1907.441183
15 Sep 2023 02:13:30.000,225.268,9.004,1874.476089
15 Sep 2023 02:13:35.000,225.306,9.521,1841.581467
15 Sep 2023 02:13:40.000,225.346,10.052,1808.761629
15 Sep 2023 02:13:45.000,225.387,10.597,1776.021179
15 Sep 2023 02:13:50.000,225.429,11.156,1743.365031
15 Sep 2023 02:13:55.000,225.473,11.731,1710.798443
15 Sep 2023 02:14:00.000,225.518,12.323,1678.327043
15 Sep 2023 02:14:05.000,225.565,12.931,1645.956858
15 Sep 2023 02:14:10.000,225.614,13.558,1613.694366
15 Sep 2023 02:14:15.000,225.665,14.204,1581.546524
15 Sep 2023 02:14:20.000,225.717,14.871,1549.520819
15 Sep 2023 02:14:25.000,225.772,15.559,1517.625310
15 Sep 2023 02:14:30.000,225.829,16.271,1485.868698
15 Sep 2023 02:14:35.000,225.888,17.006,1454.260378
15 Sep 2023 02:14:40.000,225.951,17.768,1422.810503
15 Sep 2023 02:14:45.000,226.016,18.557,1391.530073
15 Sep 2023 02:14:50.000,226.084,19.375,1360.431003
15 Sep 2023 02:14:55.000,226.156,20.224,1329.526234
15 Sep 2023 02:15:00.000,226.231,21.105,1298.829816
15 Sep 2023 02:15:05.000,226.310,22.023,1268.357036
15 Sep 2023 02:15:10.000,226.394,22.977,1238.124539
15 Sep 2023 02:15:15.000,226.483,23.972,1208.150473
15 Sep 2023 02:15:20.000,226.577,25.009,1178.454633
15 Sep 2023 02:15:25.000,226.677,26.091,1149.058640
15 Sep 2023 02:15:30.000,226.783,27.222,1119.986115
15 Sep 2023 02:15:35.000,226.897,28.404,1091.262895
15 Sep 2023 02:15:40.000,227.019,29.642,1062.917248
15 Sep 2023 02:15:45.000,227.150,30.938,1034.980102
15 Sep 2023 02:15:50.000,227.291,32.297,1007.485319
15 Sep 2023 02:15:55.000,227.444,33.723,980.469943
15 Sep 2023 02:16:00.000,227.610,35.220,953.974492
15 Sep 2023 02:16:05.000,227.791,36.793,928.043244
15 Sep 2023 02:16:10.000,227.990,38.446,902.724520
15 Sep 2023 02:16:15.000,228.209,40.184,878.070952
15 Sep 2023 02:16:20.000,228.452,42.011,854.139739
15 Sep 2023 02:16:25.000,228.724,43.933,830.992833
15 Sep 2023 02:16:30.000,229.029,45.953,808.697070
15 Sep 2023 02:16:35.000,229.374,48.075,787.324191
15 Sep 2023 02:16:40.000,229.769,50.303,766.950719
15 Sep 2023 02:16:45.000,230.225,52.640,747.657666
15 Sep 2023 02:16:50.000,230.759,55.086,729.529995
15 Sep 2023 02:16:55.000,231.391,57.641,712.655813
15 Sep 2023 02:17:00.000,232.154,60.305,697.125253
15 Sep 2023 02:17:05.000,233.091,63.071,683.029016
15 Sep 2023 02:17:10.000,234.273,65.933,670.456537
15 Sep 2023 02:17:15.000,235.808,68.879,659.493870
15 Sep 2023 02:17:20.000,237.881,71.892,650.221274
15 Sep 2023 02:17:25.000,240.828,74.948,642.710667
15 Sep 2023 02:17:30.000,245.323,78.005,637.023073
15 Sep 2023 02:17:35.000,252.891,80.983,633.206227
15 Sep 2023 02:17:40.000,267.417,83.683,631.292728
15 Sep 2023 02:17:45.000,297.567,85.499,631.298360
15 Sep 2023 02:17:50.000,339.376,85.260,633.221554
15 Sep 2023 02:17:55.000,5.381,83.209,637.043381
15 Sep 2023 02:18:00.000,17.869,80.494,642.728372
15 Sep 2023 02:18:05.000,24.572,77.595,650.226027
15 Sep 2023 02:18:10.000,28.650,74.668,659.472863
15 Sep 2023 02:18:15.000,31.370,71.777,670.394824
15 Sep 2023 02:18:20.000,33.307,68.954,682.909842
15 Sep 2023 02:18:25.000,34.755,66.218,696.930388
15 Sep 2023 02:18:30.000,35.878,63.580,712.365855
15 Sep 2023 02:18:35.000,36.774,61.045,729.124660
15 Sep 2023 02:18:40.000,37.506,58.618,747.116028
15 Sep 2023 02:18:45.000,38.116,56.299,766.251417
15 Sep 2023 02:18:50.000,38.633,54.086,786.445603
15 Sep 2023 02:18:55.000,39.076,51.978,807.617445
15 Sep 2023 02:19:00.000,39.460,49.972,829.690396
15 Sep 2023 02:19:05.000,39.798,48.063,852.592770
15 Sep 2023 02:19:10.000,40.096,46.248,876.257843
15 Sep 2023 02:19:15.000,40.363,44.521,900.623818
15 Sep 2023 02:19:20.000,40.602,42.879,925.633675
15 Sep 2023 02:19:25.000,40.818,41.316,951.234975
15 Sep 2023 02:19:30.000,41.015,39.829,977.379599
15 Sep 2023 02:19:35.000,41.195,38.412,1004.023753
15 Sep 2023 02:19:40.000,41.360,37.061,1031.126568
15 Sep 2023 02:19:45.000,41.512,35.773,1058.651468
