xian_to_ion_scv-009_55441_Access_AER.csv

"Time (UTCG)","Azimuth (deg)","Elevation (deg)","Range (km)"
14 Sep 2023 06:11:57.409,198.359,0.000,2194.448622
14 Sep 2023 06:12:57.000,197.899,4.294,1770.700988
14 Sep 2023 06:13:57.000,197.077,10.128,1347.405373
14 Sep 2023 06:14:57.000,195.328,19.461,935.228746
14 Sep 2023 06:15:57.000,189.768,39.242,563.034630
14 Sep 2023 06:16:57.000,95.121,76.684,380.771259
14 Sep 2023 06:17:57.000,31.204,36.272,599.381574
14 Sep 2023 06:18:57.000,26.490,18.364,979.146226
14 Sep 2023 06:19:57.000,24.941,9.602,1393.029416
14 Sep 2023 06:20:57.000,24.236,3.998,1816.609391
14 Sep 2023 06:21:53.680,23.893,0.000,2219.382417
14 Sep 2023 07:48:36.086,272.653,0.000,2207.452101
14 Sep 2023 07:49:36.000,283.650,1.799,2018.545749
14 Sep 2023 07:50:36.000,296.418,2.966,1906.485653
14 Sep 2023 07:51:36.000,310.105,3.210,1885.698033
14 Sep 2023 07:52:36.000,323.417,2.466,1958.971788
14 Sep 2023 07:53:36.000,335.262,0.944,2116.075370
14 Sep 2023 07:54:05.759,340.427,0.000,2219.738997
14 Sep 2023 15:50:40.183,347.277,0.000,2232.528885
14 Sep 2023 15:51:40.000,350.894,4.058,1825.427055
14 Sep 2023 15:52:40.000,356.528,9.263,1428.779845
14 Sep 2023 15:53:40.000,6.510,16.526,1059.991923
14 Sep 2023 15:54:40.000,27.307,26.726,763.633796
14 Sep 2023 15:55:40.000,68.603,33.143,650.250067
14 Sep 2023 15:56:40.000,106.826,24.890,802.311886
14 Sep 2023 15:57:40.000,125.123,15.062,1115.846425
14 Sep 2023 15:58:40.000,134.090,8.194,1491.531290
14 Sep 2023 15:59:40.000,139.238,3.208,1891.629407
14 Sep 2023 16:00:27.838,141.994,0.000,2218.487059
14 Sep 2023 17:25:35.151,303.729,0.000,2230.264623
14 Sep 2023 17:26:35.000,294.349,2.657,1952.720356
14 Sep 2023 17:27:35.000,282.158,5.007,1739.119558
14 Sep 2023 17:28:35.000,267.265,6.510,1617.041964
14 Sep 2023 17:29:35.000,251.066,6.609,1607.893960
14 Sep 2023 17:30:35.000,235.843,5.255,1713.365187
14 Sep 2023 17:31:35.000,223.188,2.971,1914.040455
14 Sep 2023 17:32:35.000,213.351,0.318,2182.934739
14 Sep 2023 17:32:42.035,212.362,0.000,2217.792079
15 Sep 2023 05:11:38.999,164.252,0.000,2193.230291
15 Sep 2023 05:12:38.000,157.120,3.442,1846.078365
15 Sep 2023 05:13:38.000,146.595,7.280,1534.109643
15 Sep 2023 05:14:38.000,131.197,11.045,1295.659816
15 Sep 2023 05:15:38.000,110.509,13.352,1177.780700
15 Sep 2023 05:16:38.000,88.266,12.608,1216.741294
15 Sep 2023 05:17:38.000,69.982,9.418,1399.464194
15 Sep 2023 05:18:38.000,57.150,5.551,1679.106543
15 Sep 2023 05:19:38.000,48.448,1.880,2014.819001
15 Sep 2023 05:20:11.278,44.843,0.000,2215.596516
15 Sep 2023 06:45:10.640,232.202,0.000,2197.770033
15 Sep 2023 06:46:10.000,238.413,3.682,1828.502847
15 Sep 2023 06:47:10.000,247.761,8.021,1485.783909
15 Sep 2023 06:48:10.000,262.338,12.878,1202.151395
15 Sep 2023 06:49:10.000,284.348,16.891,1029.161072
15 Sep 2023 06:50:10.000,310.937,17.048,1025.075409
15 Sep 2023 06:51:10.000,333.300,13.219,1191.429608
15 Sep 2023 06:52:10.000,348.210,8.405,1470.771156
15 Sep 2023 06:53:10.000,357.791,4.067,1810.499843
15 Sep 2023 06:54:10.000,4.231,0.346,2181.333345
15 Sep 2023 06:54:16.038,4.762,0.000,2219.724430
15 Sep 2023 14:50:14.539,7.417,0.000,2231.795542
15 Sep 2023 14:51:14.000,16.454,2.759,1944.995797
15 Sep 2023 14:52:14.000,28.366,5.361,1712.311255
15 Sep 2023 14:53:14.000,43.299,7.268,1563.578945
15 Sep 2023 14:54:14.000,60.186,7.798,1524.507228
15 Sep 2023 14:55:14.000,76.624,6.698,1603.505663
15 Sep 2023 14:56:14.000,90.547,4.447,1784.843509
15 Sep 2023 14:57:14.000,101.407,1.714,2040.921136
15 Sep 2023 14:57:50.561,106.700,0.000,2222.592546
15 Sep 2023 16:23:18.928,328.121,-0.000,2231.126080
15 Sep 2023 16:24:18.000,325.006,4.047,1824.803860
15 Sep 2023 16:25:18.000,319.865,9.321,1423.398396
15 Sep 2023 16:26:18.000,310.375,16.760,1049.270600
15 Sep 2023 16:27:18.000,289.742,27.449,747.491101
15 Sep 2023 16:28:18.000,247.044,34.203,633.846377
15 Sep 2023 16:29:18.000,208.315,25.171,794.137118
15 Sep 2023 16:30:18.000,190.664,15.017,1115.476705
15 Sep 2023 16:31:18.000,182.264,8.079,1496.584610
15 Sep 2023 16:32:18.000,177.549,3.077,1900.640952
15 Sep 2023 16:33:03.685,175.169,0.000,2215.105435
16 Sep 2023 04:14:44.798,101.784,0.000,2202.309394
16 Sep 2023 04:15:21.646,94.559,0.000,2203.976613
16 Sep 2023 05:43:20.312,199.254,0.000,2192.357157
16 Sep 2023 05:44:20.000,198.985,4.306,1767.689561
16 Sep 2023 05:45:20.000,198.479,10.155,1344.044266
16 Sep 2023 05:46:20.000,197.362,19.541,931.256241
16 Sep 2023 05:47:20.000,193.678,39.650,557.875566
16 Sep 2023 05:48:20.000,86.192,80.612,375.251538
16 Sep 2023 05:49:20.000,27.971,36.376,597.203042
16 Sep 2023 05:50:20.000,24.909,18.342,978.581598
16 Sep 2023 05:51:20.000,23.946,9.576,1393.140899
16 Sep 2023 05:52:20.000,23.542,3.974,1817.055651
16 Sep 2023 05:53:16.354,23.376,0.000,2217.681995
16 Sep 2023 07:20:04.740,274.186,0.000,2205.893413
16 Sep 2023 07:21:04.000,285.155,1.699,2027.197429
16 Sep 2023 07:22:04.000,297.908,2.769,1923.799420
16 Sep 2023 07:23:04.000,311.448,2.923,1911.288756
16 Sep 2023 07:24:04.000,324.521,2.124,1991.226082
16 Sep 2023 07:25:04.000,336.114,0.587,2152.830835
16 Sep 2023 07:25:22.902,339.379,0.000,2217.926071
16 Sep 2023 15:21:56.744,346.819,0.000,2230.850889
16 Sep 2023 15:22:56.000,350.243,4.033,1825.970416
16 Sep 2023 15:23:56.000,355.622,9.268,1426.820248
16 Sep 2023 15:24:56.000,5.208,16.647,1053.861539
16 Sep 2023 15:25:56.000,25.590,27.318,750.373090
16 Sep 2023 15:26:56.000,68.098,34.564,629.206667
16 Sep 2023 15:27:56.000,107.932,25.771,781.170765
16 Sep 2023 15:28:56.000,126.292,15.445,1097.907588
16 Sep 2023 15:29:56.000,135.084,8.393,1476.161952
16 Sep 2023 15:30:56.000,140.081,3.331,1878.058621
16 Sep 2023 15:31:45.338,142.814,0.000,2216.322198
16 Sep 2023 16:56:54.438,302.856,0.000,2228.405887
16 Sep 2023 16:57:54.000,293.379,2.579,1958.322356
16 Sep 2023 16:58:54.000,281.110,4.829,1752.256738
16 Sep 2023 16:59:54.000,266.289,6.208,1638.469423
16 Sep 2023 17:00:54.000,250.347,6.208,1636.699570
16 Sep 2023 17:01:54.000,235.464,4.828,1747.135875
16 Sep 2023 17:02:54.000,223.096,2.571,1950.228927
16 Sep 2023 17:03:53.194,213.561,0.000,2215.838360
17 Sep 2023 04:42:45.390,165.071,0.000,2191.034333
17 Sep 2023 04:43:45.000,157.978,3.515,1837.267240
17 Sep 2023 04:44:45.000,147.539,7.430,1521.400127
17 Sep 2023 04:45:45.000,132.114,11.328,1278.159119
17 Sep 2023 04:46:45.000,111.127,13.779,1155.897921
17 Sep 2023 04:47:45.000,88.398,13.048,1193.134132
17 Sep 2023 04:48:45.000,69.785,9.753,1376.953796
17 Sep 2023 04:49:45.000,56.844,5.782,1658.770859
17 Sep 2023 04:50:45.000,48.140,2.043,1996.616720
17 Sep 2023 04:51:20.782,44.309,0.000,2213.917740
17 Sep 2023 06:16:19.976,233.000,0.000,2195.852172
17 Sep 2023 06:17:19.000,239.310,3.632,1831.129611
17 Sep 2023 06:18:19.000,248.810,7.907,1491.932264
17 Sep 2023 06:19:19.000,263.500,12.626,1213.280496
17 Sep 2023 06:20:19.000,285.353,16.416,1046.162950
17 Sep 2023 06:21:19.000,311.380,16.467,1046.063075
17 Sep 2023 06:22:19.000,333.263,12.759,1212.802940
17 Sep 2023 06:23:19.000,347.998,8.090,1490.691505
17 Sep 2023 06:24:19.000,357.556,3.846,1828.703251
17 Sep 2023 06:25:19.000,4.024,0.179,2198.025989
17 Sep 2023 06:25:22.160,4.306,0.000,2218.026097
17 Sep 2023 14:21:15.519,6.967,0.000,2230.118570
17 Sep 2023 14:22:15.000,15.928,2.796,1939.701301
17 Sep 2023 14:23:15.000,27.794,5.458,1702.635445
17 Sep 2023 14:24:15.000,42.774,7.445,1549.050950
17 Sep 2023 14:25:15.000,59.838,8.044,1505.680117
17 Sep 2023 14:26:15.000,76.523,6.962,1582.007954
17 Sep 2023 14:27:15.000,90.652,4.685,1762.441005
17 Sep 2023 14:28:15.000,101.637,1.914,2018.760296
17 Sep 2023 14:28:55.326,107.472,0.000,2220.479720
17 Sep 2023 15:54:21.042,327.707,0.000,2229.366001
17 Sep 2023 15:55:21.000,324.393,4.102,1818.152524
17 Sep 2023 15:56:21.000,318.994,9.366,1418.871626
17 Sep 2023 15:57:21.000,309.067,16.738,1048.659135
17 Sep 2023 15:58:21.000,287.823,27.046,754.457479
17 Sep 2023 15:59:21.000,245.901,32.914,651.209907
17 Sep 2023 16:00:21.000,208.787,24.209,815.389988
17 Sep 2023 16:01:21.000,191.403,14.514,1135.945297
17 Sep 2023 16:02:21.000,182.951,7.774,1515.798688
17 Sep 2023 16:03:21.000,178.153,2.862,1918.846221
17 Sep 2023 16:04:03.820,175.849,0.000,2212.911075
18 Sep 2023 03:45:14.840,106.456,0.000,2199.265211
18 Sep 2023 03:46:14.000,94.793,0.151,2185.197825
18 Sep 2023 03:46:37.985,90.099,0.000,2203.089285
18 Sep 2023 05:14:13.270,199.808,0.000,2190.281294
18 Sep 2023 05:15:13.000,199.657,4.312,1765.199044
18 Sep 2023 05:16:13.000,199.348,10.170,1341.390569
18 Sep 2023 05:17:13.000,198.623,19.589,928.347388
18 Sep 2023 05:18:13.000,196.132,39.883,554.580988
18 Sep 2023 05:19:13.000,74.757,82.775,372.696170
18 Sep 2023 05:20:13.000,25.956,36.313,597.064433
18 Sep 2023 05:21:13.000,23.931,18.282,979.375547
18 Sep 2023 05:22:13.000,23.333,9.532,1394.300218
18 Sep 2023 05:23:13.000,23.114,3.940,1818.389351
18 Sep 2023 05:24:08.917,23.056,0.000,2215.992255
18 Sep 2023 06:51:01.028,275.181,0.000,2204.220331
18 Sep 2023 06:52:01.000,286.362,1.660,2029.501943
18 Sep 2023 06:53:01.000,299.129,2.652,1933.430755
18 Sep 2023 06:54:01.000,312.580,2.731,1928.135529
18 Sep 2023 06:55:01.000,325.482,1.880,2014.149381
18 Sep 2023 06:56:01.000,336.881,0.322,2180.162782
18 Sep 2023 06:56:11.485,338.684,0.000,2216.121843
18 Sep 2023 14:52:43.426,346.555,-0.000,2229.130833
18 Sep 2023 14:53:43.000,349.913,4.067,1821.201468
18 Sep 2023 14:54:43.000,355.176,9.337,1420.803453
18 Sep 2023 14:55:43.000,4.603,16.814,1045.928840
18 Sep 2023 14:56:43.000,24.933,27.799,739.657166
18 Sep 2023 14:57:43.000,68.433,35.398,617.115990
18 Sep 2023 14:58:43.000,108.964,26.126,772.177824
18 Sep 2023 14:59:43.000,127.149,15.545,1092.119382
18 Sep 2023 15:00:43.000,135.757,8.420,1472.363240
18 Sep 2023 15:01:43.000,140.630,3.336,1875.513375
18 Sep 2023 15:02:32.282,143.288,0.000,2214.117894
18 Sep 2023 16:27:42.381,302.319,0.000,2226.508103
18 Sep 2023 16:28:42.000,292.739,2.542,1960.049266
18 Sep 2023 16:29:42.000,280.409,4.728,1758.930634
18 Sep 2023 16:30:42.000,265.620,6.027,1650.660394
18 Sep 2023 16:31:42.000,249.827,5.963,1653.924068
18 Sep 2023 16:32:42.000,235.150,4.560,1767.931290
18 Sep 2023 16:33:42.000,222.963,2.315,1972.983383
18 Sep 2023 16:34:35.944,214.291,0.000,2213.771046
19 Sep 2023 04:13:22.661,165.488,0.000,2188.854100
19 Sep 2023 04:14:22.000,158.495,3.517,1835.019861
19 Sep 2023 04:15:22.000,148.131,7.469,1516.701983
19 Sep 2023 04:16:22.000,132.735,11.440,1270.230619
19 Sep 2023 04:17:22.000,111.620,13.988,1144.583959
19 Sep 2023 04:18:22.000,88.613,13.290,1179.765563
19 Sep 2023 04:19:22.000,69.782,9.948,1363.352935
19 Sep 2023 04:20:22.000,56.748,5.922,1645.863332
19 Sep 2023 04:21:22.000,48.021,2.146,1984.595798
19 Sep 2023 04:21:59.360,44.040,0.000,2212.197490
19 Sep 2023 05:46:58.301,233.430,0.000,2193.888842
19 Sep 2023 05:47:58.000,239.906,3.662,1826.525476
19 Sep 2023 05:48:58.000,249.553,7.912,1489.893201
19 Sep 2023 05:49:58.000,264.405,12.557,1215.218405
19 Sep 2023 05:50:58.000,286.289,16.195,1053.527756
19 Sep 2023 05:51:58.000,312.028,16.120,1058.482870
19 Sep 2023 05:52:58.000,333.553,12.435,1227.829597
19 Sep 2023 05:53:58.000,348.091,7.842,1506.380099
19 Sep 2023 05:54:58.000,357.571,3.656,1844.255189
19 Sep 2023 05:55:58.000,4.012,0.028,2213.198445
19 Sep 2023 05:55:58.490,4.056,0.000,2216.291238
19 Sep 2023 13:51:47.110,6.775,0.000,2228.337176
19 Sep 2023 13:52:47.000,15.775,2.832,1934.505573
19 Sep 2023 13:53:47.000,27.648,5.518,1695.988714
19 Sep 2023 13:54:47.000,42.679,7.533,1541.011508
19 Sep 2023 13:55:47.000,59.840,8.147,1496.728397
19 Sep 2023 13:56:47.000,76.629,7.059,1572.916220
19 Sep 2023 13:57:47.000,90.828,4.762,1753.836452
19 Sep 2023 13:58:47.000,101.844,1.971,2010.921511
19 Sep 2023 13:59:28.311,107.816,0.000,2218.355173
19 Sep 2023 15:24:52.604,327.506,-0.000,2227.558614
19 Sep 2023 15:25:52.000,324.161,4.053,1820.698008
19 Sep 2023 15:26:52.000,318.682,9.287,1422.156288
19 Sep 2023 15:27:52.000,308.646,16.584,1053.163358
19 Sep 2023 15:28:52.000,287.368,26.679,760.837586
19 Sep 2023 15:29:52.000,246.032,32.336,658.791753
19 Sep 2023 15:30:52.000,209.344,23.897,821.656119
19 Sep 2023 15:31:52.000,191.898,14.372,1140.619632
19 Sep 2023 15:32:52.000,183.351,7.693,1519.448604
19 Sep 2023 15:33:52.000,178.484,2.807,1921.857028
19 Sep 2023 15:34:34.108,176.176,0.000,2210.700530
20 Sep 2023 03:15:32.983,107.497,0.000,2197.053175
20 Sep 2023 03:16:32.000,95.841,0.216,2175.873791
20 Sep 2023 03:17:06.177,89.132,0.000,2201.406274
20 Sep 2023 04:44:35.916,200.015,0.000,2188.153004
20 Sep 2023 04:45:35.000,199.910,4.261,1767.588561
20 Sep 2023 04:46:35.000,199.676,10.102,1343.640652
20 Sep 2023 04:47:35.000,199.105,19.483,930.316306
20 Sep 2023 04:48:35.000,197.095,39.679,555.753799
20 Sep 2023 04:49:35.000,72.225,83.825,371.319227
20 Sep 2023 04:50:35.000,25.228,36.465,594.281963
20 Sep 2023 04:51:35.000,23.573,18.325,976.531020
20 Sep 2023 04:52:35.000,23.105,9.551,1391.512621
20 Sep 2023 04:53:35.000,22.955,3.952,1815.660563
20 Sep 2023 04:54:31.052,22.937,0.000,2214.276137
20 Sep 2023 06:21:24.381,275.599,0.000,2202.428235
20 Sep 2023 06:22:24.000,286.743,1.629,2030.957677
20 Sep 2023 06:23:24.000,299.510,2.596,1937.140923
20 Sep 2023 06:24:24.000,312.927,2.652,1934.024472
20 Sep 2023 06:25:24.000,325.773,1.787,2021.835579
20 Sep 2023 06:26:24.000,337.112,0.226,2189.123709
20 Sep 2023 06:26:31.382,338.380,0.000,2214.367661
20 Sep 2023 14:22:59.881,346.488,0.000,2227.328186
20 Sep 2023 14:23:59.000,349.793,4.035,1822.219221
20 Sep 2023 14:24:59.000,355.007,9.302,1421.325116
20 Sep 2023 14:25:59.000,4.351,16.785,1045.608351
20 Sep 2023 14:26:59.000,24.562,27.834,737.803329
20 Sep 2023 14:27:59.000,68.232,35.615,613.286056
20 Sep 2023 14:28:59.000,109.109,26.266,767.905138
20 Sep 2023 14:29:59.000,127.328,15.597,1088.297409
20 Sep 2023 14:30:59.000,135.915,8.441,1468.975741
20 Sep 2023 14:31:59.000,140.766,3.345,1872.454620
20 Sep 2023 14:32:48.370,143.413,0.000,2211.874310
20 Sep 2023 15:57:58.528,302.137,0.000,2224.578312
20 Sep 2023 15:58:58.000,292.548,2.523,1959.956909
20 Sep 2023 15:59:58.000,280.196,4.689,1760.288005
20 Sep 2023 16:00:58.000,265.411,5.964,1653.676864
20 Sep 2023 16:01:58.000,249.656,5.880,1658.508876
20 Sep 2023 16:02:58.000,235.036,4.469,1773.694704
20 Sep 2023 16:03:58.000,222.902,2.227,1979.465039
20 Sep 2023 16:04:50.077,214.531,0.000,2211.562281
21 Sep 2023 03:43:30.434,165.503,0.000,2186.745429
21 Sep 2023 03:44:30.000,158.471,3.533,1831.547270
21 Sep 2023 03:45:30.000,148.076,7.489,1513.416390
21 Sep 2023 03:46:30.000,132.628,11.460,1267.444334
21 Sep 2023 03:47:30.000,111.454,13.993,1142.794650
21 Sep 2023 03:48:30.000,88.431,13.267,1179.325371
21 Sep 2023 03:49:30.000,69.632,9.909,1364.113870
21 Sep 2023 03:50:30.000,56.637,5.880,1647.451761
21 Sep 2023 03:51:30.000,47.940,2.107,1986.713703
21 Sep 2023 03:52:06.698,44.036,0.000,2210.433427
21 Sep 2023 05:17:05.232,233.485,0.000,2191.870166
21 Sep 2023 05:18:05.000,239.988,3.666,1824.258422
21 Sep 2023 05:19:05.000,249.666,7.914,1487.982060
21 Sep 2023 05:20:05.000,264.564,12.551,1213.972164
21 Sep 2023 05:21:05.000,286.487,16.163,1053.385821
21 Sep 2023 05:22:05.000,312.207,16.055,1059.653416
21 Sep 2023 05:23:05.000,333.672,12.364,1229.983122
21 Sep 2023 05:24:05.000,348.163,7.780,1509.075006
21 Sep 2023 05:25:05.000,357.616,3.605,1847.225272
21 Sep 2023 05:26:04.725,4.018,0.000,2214.577948
21 Sep 2023 13:21:48.945,6.838,0.000,2226.519697
21 Sep 2023 13:22:48.000,15.713,2.788,1936.817037
21 Sep 2023 13:23:48.000,27.564,5.473,1697.894011
21 Sep 2023 13:24:48.000,42.571,7.489,1542.309479
21 Sep 2023 13:25:48.000,59.717,8.113,1497.252668
21 Sep 2023 13:26:48.000,76.510,7.037,1572.656457
21 Sep 2023 13:27:48.000,90.726,4.749,1752.939631
21 Sep 2023 13:28:48.000,101.761,1.964,2009.578097
21 Sep 2023 13:29:29.201,107.729,0.000,2216.220250
21 Sep 2023 14:54:53.256,327.521,-0.000,2225.698944
21 Sep 2023 14:55:53.000,324.155,4.080,1816.375668
21 Sep 2023 14:56:53.000,318.659,9.328,1417.816404
21 Sep 2023 14:57:53.000,308.572,16.652,1048.966978
21 Sep 2023 14:58:53.000,287.132,26.785,757.398720
21 Sep 2023 14:59:53.000,245.560,32.338,657.624445
21 Sep 2023 15:00:53.000,209.015,23.785,823.005010
21 Sep 2023 15:01:53.000,191.710,14.274,1143.259966
21 Sep 2023 15:02:53.000,183.230,7.618,1522.697506
21 Sep 2023 15:03:53.000,178.397,2.746,1925.434394
21 Sep 2023 15:04:34.228,176.146,0.000,2208.355292
22 Sep 2023 02:45:31.526,106.336,0.000,2195.367745
22 Sep 2023 02:46:31.000,94.592,0.141,2182.504157
22 Sep 2023 02:46:53.246,90.231,0.000,2199.243807
22 Sep 2023 04:14:27.878,199.872,0.000,2186.083171
22 Sep 2023 04:15:27.000,199.736,4.266,1765.206928
22 Sep 2023 04:16:27.000,199.450,10.112,1341.231616
22 Sep 2023 04:17:27.000,198.772,19.513,927.939971
22 Sep 2023 04:18:27.000,196.425,39.790,553.711313
22 Sep 2023 04:19:27.000,73.269,83.009,371.281342
22 Sep 2023 04:20:27.000,25.724,36.231,596.203601
22 Sep 2023 04:21:27.000,23.819,18.218,978.919284
22 Sep 2023 04:22:27.000,23.262,9.485,1394.064103
22 Sep 2023 04:23:27.000,23.065,3.903,1818.298709
22 Sep 2023 04:24:22.430,23.020,0.000,2212.539103
22 Sep 2023 05:51:14.335,275.417,0.000,2200.502331
22 Sep 2023 05:52:14.000,286.572,1.640,2027.983305
22 Sep 2023 05:53:14.000,299.355,2.617,1933.302589
22 Sep 2023 05:54:14.000,312.802,2.681,1929.497595
22 Sep 2023 05:55:14.000,325.682,1.819,2016.892714
22 Sep 2023 05:56:14.000,337.050,0.256,2184.032190
22 Sep 2023 05:56:22.350,338.486,0.000,2212.650355
22 Sep 2023 13:52:45.765,346.620,0.000,2225.451647
22 Sep 2023 13:53:45.000,349.980,4.040,1819.895963
22 Sep 2023 13:54:45.000,355.274,9.302,1419.601757
22 Sep 2023 13:55:45.000,4.756,16.761,1044.994338
22 Sep 2023 13:56:45.000,25.182,27.690,739.404246
22 Sep 2023 13:57:45.000,68.638,35.155,618.189943
22 Sep 2023 13:58:45.000,108.946,25.913,774.213098
22 Sep 2023 13:59:45.000,127.081,15.409,1094.445215
22 Sep 2023 14:00:45.000,135.689,8.325,1474.785147
22 Sep 2023 14:01:45.000,140.568,3.262,1877.990666
22 Sep 2023 14:02:33.264,143.184,0.000,2209.597017
22 Sep 2023 15:27:42.489,302.322,0.000,2222.620761
22 Sep 2023 15:28:42.000,292.745,2.539,1956.407830
22 Sep 2023 15:29:42.000,280.391,4.726,1755.118274
22 Sep 2023 15:30:42.000,265.566,6.024,1646.912608
22 Sep 2023 15:31:42.000,249.737,5.954,1650.551619
22 Sep 2023 15:32:42.000,235.038,4.543,1765.170965
22 Sep 2023 15:33:42.000,222.847,2.291,1970.908206
22 Sep 2023 15:34:35.314,214.268,0.000,2209.218474
23 Sep 2023 03:13:08.381,165.109,0.000,2184.681886
23 Sep 2023 03:14:08.000,157.994,3.521,1830.679415
23 Sep 2023 03:15:08.000,147.506,7.443,1514.820108
23 Sep 2023 03:16:08.000,131.990,11.345,1272.074707
23 Sep 2023 03:17:08.000,110.882,13.778,1151.214298
23 Sep 2023 03:18:08.000,88.094,13.003,1190.669746
23 Sep 2023 03:19:08.000,69.513,9.677,1376.679619
23 Sep 2023 03:20:08.000,56.631,5.700,1660.132762
23 Sep 2023 03:21:08.000,47.978,1.966,1999.098312
23 Sep 2023 03:21:42.448,44.299,0.000,2208.621507
23 Sep 2023 04:46:40.413,233.160,0.000,2189.796394
23 Sep 2023 04:47:40.000,239.593,3.667,1822.165048
23 Sep 2023 04:48:40.000,249.211,7.941,1484.249464
23 Sep 2023 04:49:40.000,264.077,12.636,1208.026548
23 Sep 2023 04:50:40.000,286.096,16.336,1045.029895
23 Sep 2023 04:51:40.000,312.069,16.262,1049.945484
23 Sep 2023 04:52:40.000,333.729,12.518,1220.506464
23 Sep 2023 04:53:40.000,348.283,7.878,1500.519408
23 Sep 2023 04:54:40.000,357.738,3.670,1839.617788
23 Sep 2023 04:55:40.000,4.148,0.030,2209.508725
23 Sep 2023 04:55:40.529,4.195,0.000,2212.854510
23 Sep 2023 12:51:20.702,7.162,0.000,2224.640332
23 Sep 2023 12:52:20.000,16.148,2.775,1936.172439
23 Sep 2023 12:53:20.000,28.068,5.416,1700.596315
23 Sep 2023 12:54:20.000,43.089,7.370,1549.048594
23 Sep 2023 12:55:20.000,60.147,7.930,1508.035661
23 Sep 2023 12:56:20.000,76.776,6.824,1586.538954
23 Sep 2023 12:57:20.000,90.832,4.542,1768.598304
23 Sep 2023 12:58:20.000,101.755,1.780,2025.986414
23 Sep 2023 12:58:57.626,107.205,0.000,2214.081133
23 Sep 2023 14:24:22.653,327.757,-0.000,2223.788903
23 Sep 2023 14:25:22.000,324.494,4.059,1816.395326
23 Sep 2023 14:26:22.000,319.128,9.319,1416.546457
23 Sep 2023 14:27:22.000,309.240,16.701,1045.502603
23 Sep 2023 14:28:22.000,287.986,27.074,750.186407
23 Sep 2023 14:29:22.000,245.761,33.002,646.563093
23 Sep 2023 14:30:22.000,208.484,24.176,812.063487
23 Sep 2023 14:31:22.000,191.152,14.440,1133.932144
23 Sep 2023 14:32:22.000,182.754,7.702,1514.645645
23 Sep 2023 14:33:22.000,177.992,2.796,1918.276453
23 Sep 2023 14:34:03.856,175.752,0.000,2206.002930
24 Sep 2023 02:15:20.166,101.001,0.000,2194.703646
24 Sep 2023 02:15:48.818,95.364,0.000,2196.083170
24 Sep 2023 03:43:48.839,199.373,0.000,2183.968996
24 Sep 2023 03:44:48.000,199.130,4.270,1762.808851
24 Sep 2023 03:45:48.000,198.664,10.122,1338.884852
24 Sep 2023 03:46:48.000,197.622,19.536,925.792889
24 Sep 2023 03:47:48.000,194.140,39.837,552.322112
24 Sep 2023 03:48:48.000,80.285,80.714,372.673281
24 Sep 2023 03:49:48.000,27.474,35.903,599.322787
24 Sep 2023 03:50:48.000,24.682,18.084,982.251833
24 Sep 2023 03:51:48.000,23.808,9.405,1397.447923
24 Sep 2023 03:52:48.000,23.447,3.846,1821.718842
24 Sep 2023 03:53:42.696,23.308,0.000,2210.774698
24 Sep 2023 05:20:30.558,274.633,0.000,2198.435905
24 Sep 2023 05:21:30.000,285.710,1.677,2022.110624
24 Sep 2023 05:22:30.000,298.513,2.709,1922.474842
24 Sep 2023 05:23:30.000,312.053,2.821,1914.056461
24 Sep 2023 05:24:30.000,325.072,1.989,1997.836919
24 Sep 2023 05:25:30.000,336.582,0.435,2162.604552
24 Sep 2023 05:25:44.030,339.003,0.000,2210.968195
24 Sep 2023 13:22:00.737,346.954,0.000,2223.543607
24 Sep 2023 13:23:00.000,350.432,4.031,1818.787878
24 Sep 2023 13:24:00.000,355.906,9.266,1420.069690
24 Sep 2023 13:25:00.000,5.678,16.639,1048.171262
24 Sep 2023 13:26:00.000,26.440,27.226,747.419192
24 Sep 2023 13:27:00.000,69.062,34.058,631.881701
24 Sep 2023 13:28:00.000,108.197,25.211,788.440521
24 Sep 2023 13:29:00.000,126.286,15.076,1106.826053
24 Sep 2023 13:30:00.000,135.013,8.135,1485.650290
24 Sep 2023 13:31:00.000,139.995,3.132,1887.804124
24 Sep 2023 13:31:46.596,142.595,0.000,2207.288463
24 Sep 2023 14:56:53.941,302.871,0.000,2220.621219
24 Sep 2023 14:57:53.000,293.453,2.562,1952.146708
24 Sep 2023 14:58:53.000,281.150,4.819,1745.272972
24 Sep 2023 14:59:53.000,266.267,6.202,1631.017314
24 Sep 2023 15:00:53.000,250.249,6.198,1629.366362
24 Sep 2023 15:01:53.000,235.308,4.806,1740.491582
24 Sep 2023 15:02:53.000,222.912,2.538,1944.574544
24 Sep 2023 15:03:51.285,213.500,0.000,2206.736585
25 Sep 2023 02:42:16.209,164.299,0.000,2182.667284
25 Sep 2023 02:43:16.000,157.012,3.498,1830.848253
25 Sep 2023 02:44:16.000,146.350,7.350,1519.716404
25 Sep 2023 02:45:16.000,130.729,11.110,1283.487801
25 Sep 2023 02:46:16.000,109.799,13.350,1169.949557
25 Sep 2023 02:47:16.000,87.494,12.493,1214.683703
25 Sep 2023 02:48:16.000,69.338,9.238,1402.561286
25 Sep 2023 02:49:16.000,56.669,5.363,1685.816538
25 Sep 2023 02:50:16.000,48.093,1.704,2023.885608
25 Sep 2023 02:50:46.220,44.839,0.000,2206.755141
25 Sep 2023 04:15:43.516,232.451,0.000,2187.668299
25 Sep 2023 04:16:43.000,238.759,3.687,1818.319307
25 Sep 2023 04:17:43.000,248.245,8.018,1477.027940
25 Sep 2023 04:18:43.000,263.031,12.839,1196.164248
25 Sep 2023 04:19:43.000,285.237,16.737,1027.970605
25 Sep 2023 04:20:43.000,311.752,16.741,1029.807559
25 Sep 2023 04:21:43.000,333.836,12.881,1200.665489
25 Sep 2023 04:22:43.000,348.530,8.114,1482.483473
25 Sep 2023 04:23:43.000,357.989,3.828,1823.472628
25 Sep 2023 04:24:43.000,4.365,0.145,2194.970824
25 Sep 2023 04:24:45.539,4.589,0.000,2211.117546
25 Sep 2023 12:20:22.087,7.758,0.000,2222.694909
25 Sep 2023 12:21:22.000,16.970,2.757,1935.932051
25 Sep 2023 12:22:22.000,29.012,5.317,1706.774333
25 Sep 2023 12:23:22.000,44.042,7.153,1562.836096
25 Sep 2023 12:24:22.000,60.923,7.600,1529.286156
25 Sep 2023 12:25:22.000,77.241,6.442,1613.377931
25 Sep 2023 12:26:22.000,91.002,4.174,1798.547521
25 Sep 2023 12:27:22.000,101.721,1.452,2057.166429
25 Sep 2023 12:27:53.158,106.229,0.000,2211.947786
25 Sep 2023 13:53:20.462,328.214,-0.000,2221.827867
25 Sep 2023 13:54:20.000,325.088,4.089,1811.764867
25 Sep 2023 13:55:20.000,319.936,9.396,1409.816702
25 Sep 2023 13:56:20.000,310.360,16.925,1035.307522
25 Sep 2023 13:57:20.000,289.289,27.799,734.453795
25 Sep 2023 13:58:20.000,245.583,34.333,626.590854
25 Sep 2023 13:59:20.000,207.126,24.838,795.012279
25 Sep 2023 14:00:20.000,189.936,14.691,1120.956148
25 Sep 2023 14:01:20.000,181.768,7.817,1504.385135
25 Sep 2023 14:02:20.000,177.176,2.861,1909.777609
25 Sep 2023 14:03:02.600,174.991,0.000,2203.546806
26 Sep 2023 03:12:38.483,198.514,0.000,2181.843572
26 Sep 2023 03:13:38.000,198.083,4.299,1758.253880
26 Sep 2023 03:14:38.000,197.303,10.164,1334.592518
26 Sep 2023 03:15:38.000,195.626,19.607,922.157842
26 Sep 2023 03:16:38.000,190.163,39.905,550.713386
26 Sep 2023 03:17:38.000,86.008,76.609,377.129642
26 Sep 2023 03:18:38.000,30.387,35.264,606.468860
26 Sep 2023 03:19:38.000,26.144,17.844,989.370715
26 Sep 2023 03:20:38.000,24.737,9.269,1404.436670
26 Sep 2023 03:21:38.000,24.099,3.750,1828.632157
26 Sep 2023 03:22:31.477,23.806,0.000,2208.978411
26 Sep 2023 04:49:12.844,273.266,0.000,2196.211573
26 Sep 2023 04:50:12.000,284.217,1.745,2013.069920
26 Sep 2023 04:51:12.000,297.043,2.871,1904.803793
26 Sep 2023 04:52:12.000,310.734,3.072,1888.226748
26 Sep 2023 04:53:12.000,323.993,2.294,1965.520653
26 Sep 2023 04:54:12.000,335.752,0.755,2125.971304
26 Sep 2023 04:54:35.944,339.911,0.000,2209.314791
26 Sep 2023 12:50:44.473,347.494,-0.000,2221.609255
26 Sep 2023 12:51:44.000,351.177,4.032,1816.787073
26 Sep 2023 12:52:44.000,356.947,9.225,1420.826295
26 Sep 2023 12:53:44.000,7.185,16.458,1053.629710
26 Sep 2023 12:54:44.000,28.448,26.497,761.119009
26 Sep 2023 12:55:44.000,69.740,32.383,654.964573
26 Sep 2023 12:56:44.000,107.073,24.120,812.524544
26 Sep 2023 12:57:44.000,125.043,14.551,1127.947215
26 Sep 2023 12:58:44.000,133.938,7.835,1504.249258
26 Sep 2023 12:59:44.000,139.076,2.929,1904.616019
26 Sep 2023 13:00:27.961,141.641,0.000,2204.952663
26 Sep 2023 14:25:32.615,303.774,0.000,2218.616636
26 Sep 2023 14:26:32.000,294.436,2.644,1942.190701
26 Sep 2023 14:27:32.000,282.183,5.005,1727.544422
26 Sep 2023 14:28:32.000,267.184,6.513,1605.023367
26 Sep 2023 14:29:32.000,250.860,6.600,1596.413080
26 Sep 2023 14:30:32.000,235.546,5.224,1703.324455
26 Sep 2023 14:31:32.000,222.854,2.917,1905.853966
26 Sep 2023 14:32:32.000,213.018,0.251,2176.584545
26 Sep 2023 14:32:37.534,212.239,0.000,2204.117205
27 Sep 2023 02:10:53.664,163.055,0.000,2180.713012
27 Sep 2023 02:11:53.000,155.620,3.417,1836.376737
27 Sep 2023 02:12:53.000,144.760,7.157,1531.904698
27 Sep 2023 02:13:53.000,129.080,10.711,1304.399350
27 Sep 2023 02:14:53.000,108.494,12.708,1199.900178
27 Sep 2023 02:15:53.000,86.883,11.781,1250.268473
27 Sep 2023 02:16:53.000,69.275,8.648,1439.249333
27 Sep 2023 02:17:53.000,56.855,4.916,1721.199572
27 Sep 2023 02:18:53.000,48.352,1.362,2057.336464
27 Sep 2023 02:19:17.580,45.668,0.000,2204.806465
27 Sep 2023 03:44:14.239,231.357,0.000,2185.481069
27 Sep 2023 03:45:14.000,237.521,3.745,1810.953075
27 Sep 2023 03:46:14.000,246.816,8.168,1464.818407
27 Sep 2023 03:47:14.000,261.494,13.188,1177.313768
27 Sep 2023 03:48:14.000,284.015,17.396,1001.784997
27 Sep 2023 03:49:14.000,311.398,17.508,999.702974
27 Sep 2023 03:50:14.000,334.120,13.440,1171.776557
27 Sep 2023 03:51:14.000,348.991,8.467,1456.821654
27 Sep 2023 03:52:14.000,358.431,4.059,1800.922196
27 Sep 2023 03:53:14.000,4.737,0.310,2174.967120
27 Sep 2023 03:53:19.373,5.200,0.000,2209.362136
27 Sep 2023 11:48:52.840,8.640,0.000,2220.677758
27 Sep 2023 11:49:52.000,17.889,2.654,1943.823124
27 Sep 2023 11:50:52.000,30.010,5.106,1722.253707
27 Sep 2023 11:51:52.000,44.963,6.803,1586.716319
27 Sep 2023 11:52:52.000,61.551,7.137,1560.654932
27 Sep 2023 11:53:52.000,77.470,5.949,1649.584908
27 Sep 2023 11:54:52.000,90.895,3.722,1836.721652
27 Sep 2023 11:55:52.000,101.403,1.063,2095.394004
27 Sep 2023 11:56:15.312,104.784,0.000,2209.859155
27 Sep 2023 13:21:46.366,328.893,0.000,2219.814003
27 Sep 2023 13:22:46.000,325.986,4.118,1807.192551
27 Sep 2023 13:23:46.000,321.174,9.486,1402.255886
27 Sep 2023 13:24:46.000,312.116,17.216,1022.675857
27 Sep 2023 13:25:46.000,291.500,28.853,713.239968
27 Sep 2023 13:26:46.000,245.539,36.485,597.701774
27 Sep 2023 13:27:46.000,205.107,25.914,769.490511
27 Sep 2023 13:28:46.000,188.134,15.107,1100.995192
27 Sep 2023 13:29:46.000,180.313,8.019,1488.144555
27 Sep 2023 13:30:46.000,175.973,2.981,1895.946964
27 Sep 2023 13:31:30.048,173.861,0.000,2201.022308
28 Sep 2023 02:40:56.524,197.287,0.000,2179.707069
28 Sep 2023 02:41:56.000,196.591,4.293,1756.719891
28 Sep 2023 02:42:56.000,195.367,10.149,1333.642306
28 Sep 2023 02:43:56.000,192.798,19.553,922.434424
28 Sep 2023 02:44:56.000,184.649,39.483,554.105594
28 Sep 2023 02:45:56.000,91.675,71.082,386.530010
28 Sep 2023 02:46:56.000,34.435,34.514,615.310018
28 Sep 2023 02:47:56.000,28.210,17.600,996.729008
28 Sep 2023 02:48:56.000,26.055,9.139,1411.046789
28 Sep 2023 02:49:56.000,25.025,3.662,1834.851352
28 Sep 2023 02:50:48.376,24.519,0.000,2207.166426
28 Sep 2023 04:17:21.073,271.351,0.000,2193.875015
28 Sep 2023 04:18:21.000,282.346,1.869,1998.230318
28 Sep 2023 04:19:21.000,295.218,3.116,1879.466135
28 Sep 2023 04:20:21.000,309.120,3.426,1853.085616
28 Sep 2023 04:21:21.000,322.701,2.711,1922.795344
28 Sep 2023 04:22:21.000,334.788,1.183,2078.475715
28 Sep 2023 04:22:57.523,341.174,0.000,2207.694960
28 Sep 2023 12:18:56.672,348.245,0.000,2219.556487
28 Sep 2023 12:19:56.000,352.169,3.988,1818.635130
28 Sep 2023 12:20:56.000,358.313,9.105,1426.581754
28 Sep 2023 12:21:56.000,9.098,16.109,1065.817983
28 Sep 2023 12:22:56.000,30.764,25.390,783.790685
28 Sep 2023 12:23:56.000,70.122,30.261,687.693750
28 Sep 2023 12:24:56.000,105.380,22.797,844.251835
28 Sep 2023 12:25:56.000,123.270,13.923,1154.613500
28 Sep 2023 12:26:56.000,132.417,7.482,1526.957189
28 Sep 2023 12:27:56.000,137.780,2.695,1924.579182
28 Sep 2023 12:28:36.916,140.312,0.000,2202.595133
28 Sep 2023 13:53:38.307,305.011,0.000,2216.578836
28 Sep 2023 13:54:38.000,295.820,2.750,1929.881857
28 Sep 2023 13:55:38.000,283.662,5.258,1704.403892
28 Sep 2023 13:56:38.000,268.524,6.950,1570.099940
28 Sep 2023 13:57:38.000,251.773,7.178,1551.332738
28 Sep 2023 13:58:38.000,235.917,5.831,1651.973489
28 Sep 2023 13:59:38.000,222.788,3.468,1852.124894
28 Sep 2023 14:00:38.000,212.684,0.723,2122.953809
28 Sep 2023 14:00:53.522,210.502,0.000,2201.341424
29 Sep 2023 01:39:00.542,161.359,0.000,2178.831411
29 Sep 2023 01:40:00.000,153.622,3.349,1840.809230
29 Sep 2023 01:41:00.000,142.465,6.937,1546.322591
29 Sep 2023 01:42:00.000,126.680,10.213,1331.891978
29 Sep 2023 01:43:00.000,106.536,11.880,1241.064767
29 Sep 2023 01:44:00.000,85.837,10.841,1300.557701
29 Sep 2023 01:45:00.000,68.986,7.842,1492.380416
29 Sep 2023 01:46:00.000,56.947,4.288,1773.511568
29 Sep 2023 01:47:00.000,48.586,0.868,2107.597373
29 Sep 2023 01:47:16.056,46.805,-0.000,2202.827677
29 Sep 2023 03:12:12.313,229.878,0.000,2183.214130
29 Sep 2023 03:13:12.000,235.784,3.792,1804.554866
29 Sep 2023 03:14:12.000,244.771,8.332,1451.723166
29 Sep 2023 03:15:12.000,259.211,13.625,1154.659291
29 Sep 2023 03:16:12.000,282.070,18.310,967.787526
29 Sep 2023 03:17:12.000,310.704,18.637,958.592479
29 Sep 2023 03:18:12.000,334.415,14.277,1131.223974
29 Sep 2023 03:19:12.000,349.575,8.997,1420.134053
29 Sep 2023 03:20:12.000,359.006,4.410,1768.166035
29 Sep 2023 03:21:12.000,5.225,0.563,2145.475630
29 Sep 2023 03:21:21.622,6.027,0.000,2207.613136
29 Sep 2023 11:16:52.742,9.834,0.000,2218.603473
29 Sep 2023 11:17:52.000,19.316,2.564,1950.432558
29 Sep 2023 11:18:52.000,31.579,4.864,1740.472494
29 Sep 2023 11:19:52.000,46.453,6.364,1617.928452
29 Sep 2023 11:20:52.000,62.660,6.531,1603.759728
29 Sep 2023 11:21:52.000,78.036,5.285,1700.942042
29 Sep 2023 11:22:52.000,90.982,3.096,1892.205968
29 Sep 2023 11:23:52.000,101.169,0.510,2152.070919
29 Sep 2023 11:24:03.510,102.838,0.000,2207.779194
29 Sep 2023 12:49:40.058,329.791,0.000,2217.743267
29 Sep 2023 12:50:40.000,327.172,4.168,1800.709622
29 Sep 2023 12:51:40.000,322.815,9.617,1392.175235
29 Sep 2023 12:52:40.000,314.482,17.612,1006.414032
29 Sep 2023 12:53:40.000,294.625,30.315,686.209562
29 Sep 2023 12:54:40.000,245.317,39.653,560.917840
29 Sep 2023 12:55:40.000,202.092,27.358,738.099823
29 Sep 2023 12:56:40.000,185.610,15.629,1077.167974
29 Sep 2023 12:57:40.000,178.321,8.264,1469.106588
29 Sep 2023 12:58:40.000,174.344,3.125,1879.928980
29 Sep 2023 12:59:25.744,172.360,0.000,2198.433381
30 Sep 2023 02:08:42.703,195.687,0.000,2177.540233
30 Sep 2023 02:09:42.000,194.648,4.272,1756.504529
30 Sep 2023 02:10:42.000,192.848,10.102,1334.614447
30 Sep 2023 02:11:42.000,189.135,19.402,925.758760
30 Sep 2023 02:12:42.000,177.758,38.554,562.967989
30 Sep 2023 02:13:42.000,95.370,64.234,404.068847
30 Sep 2023 02:14:42.000,39.404,33.386,629.802182
30 Sep 2023 02:15:42.000,30.844,17.255,1007.919775
30 Sep 2023 02:16:42.000,27.752,8.964,1420.592738
30 Sep 2023 02:17:42.000,26.221,3.547,1843.504735
30 Sep 2023 02:18:32.956,25.454,0.000,2205.258826
30 Sep 2023 03:44:55.210,268.931,0.000,2191.383362
30 Sep 2023 03:45:55.000,279.743,1.997,1982.950870
30 Sep 2023 03:46:55.000,292.626,3.415,1849.291328
30 Sep 2023 03:47:55.000,306.782,3.891,1808.497724
30 Sep 2023 03:48:55.000,320.803,3.281,1866.629035
30 Sep 2023 03:49:55.000,333.361,1.780,2014.707706
30 Sep 2023 03:50:48.126,342.750,0.000,2206.063427
30 Sep 2023 11:46:37.021,349.212,0.000,2217.480407
30 Sep 2023 11:47:37.000,353.517,3.996,1815.818248
30 Sep 2023 11:48:37.000,0.176,9.029,1429.490119
30 Sep 2023 11:49:37.000,11.712,15.761,1078.228262
30 Sep 2023 11:50:37.000,33.938,24.125,811.747242
30 Sep 2023 11:51:37.000,71.133,27.772,731.547903
30 Sep 2023 11:52:37.000,103.790,21.076,890.063624
30 Sep 2023 11:53:37.000,121.309,13.024,1195.541601
30 Sep 2023 11:54:37.000,130.639,6.950,1563.326996
30 Sep 2023 11:55:37.000,136.223,2.330,1957.555692
30 Sep 2023 11:56:12.977,138.600,0.000,2200.223020
30 Sep 2023 13:21:10.844,306.554,0.000,2214.510590
30 Sep 2023 13:22:10.000,297.726,2.839,1919.268316
30 Sep 2023 13:23:10.000,285.767,5.542,1679.145901
30 Sep 2023 13:24:10.000,270.523,7.498,1528.207723
30 Sep 2023 13:25:10.000,253.230,7.951,1494.326297
30 Sep 2023 13:26:10.000,236.611,6.668,1585.024490
30 Sep 2023 13:27:10.000,222.844,4.236,1780.877205
30 Sep 2023 13:28:10.000,212.340,1.383,2051.132715
30 Sep 2023 13:28:38.665,208.312,0.000,2198.478751
1 Oct 2023 01:06:36.707,159.180,0.000,2177.000112
1 Oct 2023 01:07:36.000,151.118,3.239,1849.187378
1 Oct 2023 01:08:36.000,139.637,6.630,1567.534531
1 Oct 2023 01:09:36.000,123.804,9.569,1369.336804
1 Oct 2023 01:10:36.000,104.255,10.873,1294.723437
1 Oct 2023 01:11:36.000,84.625,9.732,1364.596585
1 Oct 2023 01:12:36.000,68.638,6.887,1559.496132
1 Oct 2023 01:13:36.000,57.044,3.533,1839.494421
1 Oct 2023 01:14:36.000,48.854,0.267,2170.992350
1 Oct 2023 01:14:41.090,48.279,0.000,2200.724785
1 Oct 2023 02:39:37.492,228.018,0.000,2180.861060
1 Oct 2023 02:40:37.000,233.580,3.842,1797.822529
1 Oct 2023 02:41:37.000,242.148,8.524,1436.817207
1 Oct 2023 02:42:37.000,256.214,14.169,1127.771865
1 Oct 2023 02:43:37.000,279.428,19.524,926.028098
1 Oct 2023 02:44:37.000,309.790,20.195,907.080527
1 Oct 2023 02:45:37.000,334.878,15.408,1080.432753
1 Oct 2023 02:46:37.000,350.400,9.691,1374.445632
1 Oct 2023 02:47:37.000,359.793,4.861,1727.526585
1 Oct 2023 02:48:37.000,5.883,0.884,2108.947603
1 Oct 2023 02:48:51.836,7.069,0.000,2205.782956
1 Oct 2023 10:44:21.651,11.376,0.000,2216.421930
1 Oct 2023 10:45:21.000,21.134,2.445,1959.832249
1 Oct 2023 10:46:21.000,33.548,4.553,1764.822980
1 Oct 2023 10:47:21.000,48.291,5.816,1658.643334
1 Oct 2023 10:48:21.000,64.016,5.791,1659.142584
1 Oct 2023 10:49:21.000,78.740,4.482,1766.431055
1 Oct 2023 10:50:21.000,91.117,2.336,1962.844725
1 Oct 2023 10:51:17.085,100.351,0.000,2205.727144
1 Oct 2023 12:17:01.245,330.907,0.000,2215.607423
1 Oct 2023 12:18:01.000,328.682,4.181,1797.369719
1 Oct 2023 12:19:01.000,324.935,9.704,1384.755478
1 Oct 2023 12:20:01.000,317.639,17.974,991.734125
1 Oct 2023 12:21:01.000,299.283,31.997,657.834301
1 Oct 2023 12:22:01.000,245.578,44.219,517.374450
1 Oct 2023 12:23:01.000,198.074,29.346,699.344148
1 Oct 2023 12:24:01.000,182.374,16.333,1046.877469
1 Oct 2023 12:25:01.000,175.804,8.603,1444.126698
1 Oct 2023 12:26:01.000,172.296,3.331,1858.276110
1 Oct 2023 12:26:49.196,170.488,0.000,2195.785338
2 Oct 2023 01:35:56.779,193.705,0.000,2175.387726
2 Oct 2023 01:36:56.000,192.239,4.253,1756.152935
2 Oct 2023 01:37:56.000,189.729,10.041,1336.425442
2 Oct 2023 01:38:56.000,184.630,19.171,931.751911
2 Oct 2023 01:39:56.000,169.725,37.086,578.431197
2 Oct 2023 01:40:56.000,97.088,56.518,433.195684
2 Oct 2023 01:41:56.000,44.897,31.667,654.208507
2 Oct 2023 01:42:56.000,33.958,16.714,1026.838136
2 Oct 2023 01:43:56.000,29.794,8.692,1436.637951
2 Oct 2023 01:44:56.000,27.673,3.371,1857.925157
2 Oct 2023 01:45:44.775,26.617,0.000,2203.330075
2 Oct 2023 03:11:55.236,266.054,0.000,2188.741281
2 Oct 2023 03:12:55.000,276.653,2.151,1965.028712
2 Oct 2023 03:13:55.000,289.523,3.776,1813.848490
2 Oct 2023 03:14:55.000,303.972,4.461,1755.802539
2 Oct 2023 03:15:55.000,318.535,3.986,1799.958664
2 Oct 2023 03:16:55.000,331.688,2.519,1938.964591
2 Oct 2023 03:17:55.000,342.656,0.456,2153.822412
2 Oct 2023 03:18:07.099,344.595,0.000,2204.419115
2 Oct 2023 11:13:45.239,350.403,0.000,2215.321230
2 Oct 2023 11:14:45.000,355.085,3.926,1819.914679
2 Oct 2023 11:15:45.000,2.299,8.824,1440.821890
2 Oct 2023 11:16:45.000,14.553,15.173,1101.054524
2 Oct 2023 11:17:45.000,36.977,22.487,851.720888
2 Oct 2023 11:18:45.000,71.586,25.110,786.059000
2 Oct 2023 11:19:45.000,101.727,19.275,943.718725
2 Oct 2023 11:20:45.000,118.904,12.068,1242.081418
2 Oct 2023 11:21:45.000,128.461,6.382,1603.696239
2 Oct 2023 11:22:45.000,134.314,1.943,1993.386728
2 Oct 2023 11:23:15.610,136.491,0.000,2197.823672
2 Oct 2023 12:48:10.070,308.373,0.000,2212.415747
2 Oct 2023 12:49:10.000,299.758,3.010,1900.934011
2 Oct 2023 12:50:10.000,287.997,5.938,1645.346328
2 Oct 2023 12:51:10.000,272.597,8.204,1476.842386
2 Oct 2023 12:52:10.000,254.620,8.918,1427.315044
2 Oct 2023 12:53:10.000,237.060,7.686,1508.601175
2 Oct 2023 12:54:10.000,222.542,5.138,1701.605799
2 Oct 2023 12:55:10.000,211.611,2.130,1972.985163
2 Oct 2023 12:55:52.307,205.699,0.000,2195.484011
3 Oct 2023 00:33:42.093,156.477,0.000,2175.235696
3 Oct 2023 00:34:42.000,147.899,3.143,1856.528538
3 Oct 2023 00:35:42.000,136.015,6.285,1592.188222
3 Oct 2023 00:36:42.000,120.140,8.819,1415.499791
3 Oct 2023 00:37:42.000,101.306,9.707,1362.087561
3 Oct 2023 00:38:42.000,82.906,8.438,1446.053544
3 Oct 2023 00:39:42.000,67.942,5.740,1646.299062
3 Oct 2023 00:40:42.000,56.919,2.596,1926.262591
3 Oct 2023 00:41:32.066,50.129,0.000,2198.552145
3 Oct 2023 02:06:29.540,225.778,0.000,2178.481864
3 Oct 2023 02:07:29.000,230.934,3.908,1789.565876
3 Oct 2023 02:08:29.000,238.971,8.757,1419.306553
3 Oct 2023 02:09:29.000,252.510,14.837,1096.370947
3 Oct 2023 02:10:29.000,276.078,21.107,876.665434
3 Oct 2023 02:11:29.000,308.790,22.288,845.846920
3 Oct 2023 02:12:29.000,335.713,16.857,1021.050532
3 Oct 2023 02:13:29.000,351.608,10.534,1322.065329
3 Oct 2023 02:14:29.000,0.885,5.390,1681.589180
3 Oct 2023 02:15:29.000,6.775,1.253,2068.059034
3 Oct 2023 02:15:49.564,8.323,0.000,2203.927402
3 Oct 2023 10:11:19.510,13.319,0.000,2214.134397
3 Oct 2023 10:12:19.000,23.404,2.294,1972.326442
3 Oct 2023 10:13:19.000,35.964,4.167,1796.122300
3 Oct 2023 10:14:19.000,50.508,5.156,1710.022502
3 Oct 2023 10:15:19.000,65.647,4.921,1728.150161
3 Oct 2023 10:16:19.000,79.619,3.543,1847.564526
3 Oct 2023 10:17:19.000,91.346,1.441,2050.365268
3 Oct 2023 10:17:55.239,97.260,0.000,2203.732606
3 Oct 2023 11:43:49.640,332.237,0.000,2213.408996
3 Oct 2023 11:44:49.000,330.493,4.178,1795.476088
3 Oct 2023 11:45:49.000,327.498,9.769,1378.766299
3 Oct 2023 11:46:49.000,321.552,18.309,978.271657
3 Oct 2023 11:47:49.000,305.648,33.856,629.370765
3 Oct 2023 11:48:49.000,246.152,50.701,469.946976
3 Oct 2023 11:49:49.000,192.463,31.799,657.325675
3 Oct 2023 11:50:49.000,178.237,17.133,1014.326149
3 Oct 2023 11:51:49.000,172.677,8.979,1417.210549
3 Oct 2023 11:52:49.000,169.783,3.559,1834.803592
3 Oct 2023 11:53:39.864,168.242,0.000,2193.063139
4 Oct 2023 01:02:38.549,191.329,0.000,2173.235363
4 Oct 2023 01:03:38.000,189.343,4.248,1754.502467
4 Oct 2023 01:04:38.000,185.982,9.977,1338.391796
4 Oct 2023 01:05:38.000,179.268,18.855,940.600387
4 Oct 2023 01:06:38.000,160.848,35.057,602.242681
4 Oct 2023 01:07:38.000,97.261,48.547,477.006154
4 Oct 2023 01:08:38.000,50.379,29.275,692.691563
4 Oct 2023 01:09:38.000,37.401,15.896,1057.522009
4 Oct 2023 01:10:38.000,32.121,8.273,1462.923956
4 Oct 2023 01:11:38.000,29.349,3.097,1881.614717
4 Oct 2023 01:12:23.343,28.021,0.000,2201.358468
4 Oct 2023 02:38:21.120,262.761,0.000,2186.008015
4 Oct 2023 02:39:21.000,273.114,2.330,1944.714313
4 Oct 2023 02:40:21.000,285.936,4.198,1773.720204
4 Oct 2023 02:41:21.000,300.704,5.140,1695.746154
4 Oct 2023 02:42:21.000,315.918,4.837,1723.587436
4 Oct 2023 02:43:21.000,329.804,3.410,1852.155640
4 Oct 2023 02:44:21.000,341.371,1.295,2062.019512
4 Oct 2023 02:44:53.786,346.669,0.000,2202.747587
4 Oct 2023 10:40:21.058,351.828,0.000,2213.053014
4 Oct 2023 10:41:21.000,356.993,3.869,1822.798611
4 Oct 2023 10:42:21.000,4.860,8.603,1453.280558
4 Oct 2023 10:43:21.000,17.903,14.501,1128.469571
4 Oct 2023 10:44:21.000,40.403,20.692,900.580929
4 Oct 2023 10:45:21.000,72.329,22.337,852.847744
4 Oct 2023 10:46:21.000,99.822,17.268,1011.522801
4 Oct 2023 10:47:21.000,116.418,10.913,1302.938321
4 Oct 2023 10:48:21.000,126.099,5.662,1657.757356
4 Oct 2023 10:49:21.000,132.189,1.438,2042.157510
4 Oct 2023 10:49:44.245,133.970,0.000,2195.471361
4 Oct 2023 12:14:35.838,310.440,0.000,2210.264464
4 Oct 2023 12:15:35.000,302.372,3.117,1888.733585
4 Oct 2023 12:16:35.000,290.995,6.314,1613.874628
4 Oct 2023 12:17:35.000,275.576,8.998,1422.110175
4 Oct 2023 12:18:35.000,256.827,10.122,1350.188393
4 Oct 2023 12:19:35.000,238.001,9.019,1416.664315
4 Oct 2023 12:20:35.000,222.416,6.330,1604.034626
4 Oct 2023 12:21:35.000,210.865,3.114,1875.620237
4 Oct 2023 12:22:33.772,202.689,0.000,2192.378855
5 Oct 2023 00:00:16.740,153.193,0.000,2173.593945
5 Oct 2023 00:01:16.000,144.252,2.944,1873.642827
5 Oct 2023 00:02:16.000,132.038,5.790,1629.342319
5 Oct 2023 00:03:16.000,116.297,7.894,1476.146233
5 Oct 2023 00:04:16.000,98.352,8.403,1444.273434
5 Oct 2023 00:05:16.000,81.233,7.054,1541.547348
5 Oct 2023 00:06:16.000,67.282,4.518,1746.256180
5 Oct 2023 00:07:16.000,56.827,1.585,2025.426058
5 Oct 2023 00:07:48.234,52.413,0.000,2196.224148
5 Oct 2023 01:32:48.270,223.161,0.000,2175.997857
5 Oct 2023 01:33:48.000,227.860,4.004,1778.673025
5 Oct 2023 01:34:48.000,235.250,9.046,1398.489028
5 Oct 2023 01:35:48.000,248.077,15.652,1060.292525
5 Oct 2023 01:36:48.000,271.952,23.157,819.966321
5 Oct 2023 01:37:48.000,307.891,25.090,775.722409
5 Oct 2023 01:38:48.000,337.197,18.656,955.144118
5 Oct 2023 01:39:48.000,353.373,11.501,1265.765884
5 Oct 2023 01:40:48.000,2.383,5.965,1633.332101
5 Oct 2023 01:41:48.000,7.963,1.642,2025.804329
5 Oct 2023 01:42:14.320,9.790,0.000,2202.056469
5 Oct 2023 09:37:46.419,15.746,0.000,2211.740081
5 Oct 2023 09:38:46.000,26.182,2.101,1989.032013
5 Oct 2023 09:39:46.000,38.860,3.695,1835.978061
5 Oct 2023 09:40:46.000,53.116,4.376,1773.877782
5 Oct 2023 09:41:46.000,67.562,3.919,1812.587843
5 Oct 2023 09:42:46.000,80.694,2.472,1946.139319
5 Oct 2023 09:43:46.000,91.703,0.414,2156.647967
5 Oct 2023 09:43:56.980,93.476,0.000,2201.844929
5 Oct 2023 11:10:04.961,333.779,0.000,2211.161505
5 Oct 2023 11:11:04.000,332.587,4.177,1793.368016
5 Oct 2023 11:12:04.000,330.483,9.828,1373.056412
5 Oct 2023 11:13:04.000,326.198,18.621,965.850103
5 Oct 2023 11:14:04.000,313.966,35.776,602.746289
5 Oct 2023 11:15:04.000,246.744,59.848,423.376184
5 Oct 2023 11:16:04.000,184.499,34.453,617.745942
5 Oct 2023 11:17:04.000,173.024,17.897,984.652166
5 Oct 2023 11:18:04.000,168.868,9.323,1392.986200
5 Oct 2023 11:19:04.000,166.764,3.762,1813.792760
5 Oct 2023 11:19:57.182,165.622,0.000,2190.328667
6 Oct 2023 00:28:47.838,188.546,0.000,2171.091767
6 Oct 2023 00:29:47.000,185.977,4.188,1757.695608
6 Oct 2023 00:30:47.000,181.661,9.803,1347.048105
6 Oct 2023 00:31:47.000,173.240,18.256,959.277463
6 Oct 2023 00:32:47.000,152.052,32.202,640.788707
6 Oct 2023 00:33:47.000,97.345,40.998,536.704788
6 Oct 2023 00:34:47.000,55.700,26.541,743.702444
6 Oct 2023 00:35:47.000,41.106,14.901,1097.499555
6 Oct 2023 00:36:47.000,34.708,7.761,1496.421995
6 Oct 2023 00:37:47.000,31.239,2.765,1911.192180
6 Oct 2023 00:38:28.128,29.680,0.000,2199.297775
6 Oct 2023 02:04:12.836,259.090,0.000,2183.160341
6 Oct 2023 02:05:12.000,268.973,2.493,1926.001945
6 Oct 2023 02:06:12.000,281.651,4.648,1731.910738
6 Oct 2023 02:07:12.000,296.720,5.923,1629.767935
6 Oct 2023 02:08:12.000,312.706,5.862,1637.114081
6 Oct 2023 02:09:12.000,327.525,4.499,1752.326929
6 Oct 2023 02:10:12.000,339.864,2.319,1955.806030
6 Oct 2023 02:11:07.537,348.936,0.000,2201.012804
6 Oct 2023 10:06:24.216,353.501,0.000,2210.744315
6 Oct 2023 10:07:24.000,359.176,3.768,1829.613977
6 Oct 2023 10:08:24.000,7.735,8.290,1472.070772
6 Oct 2023 10:09:24.000,21.498,13.656,1165.271600
6 Oct 2023 10:10:24.000,43.755,18.717,961.340661
6 Oct 2023 10:11:24.000,72.936,19.575,931.862160
6 Oct 2023 10:12:24.000,97.893,15.203,1091.404560
6 Oct 2023 10:13:24.000,113.803,9.650,1375.352314
6 Oct 2023 10:14:24.000,123.536,4.845,1722.491465
6 Oct 2023 10:15:24.000,129.841,0.854,2100.698164
6 Oct 2023 10:15:38.236,131.015,0.000,2193.116732
6 Oct 2023 11:40:27.991,312.724,0.000,2208.035631
6 Oct 2023 11:41:27.000,305.183,3.264,1872.793551
6 Oct 2023 11:42:27.000,294.269,6.759,1577.868517
6 Oct 2023 11:43:27.000,278.890,9.938,1361.155739
6 Oct 2023 11:44:27.000,259.247,11.589,1264.575910
6 Oct 2023 11:45:27.000,238.834,10.647,1315.179022
6 Oct 2023 11:46:27.000,221.930,7.746,1497.801373
6 Oct 2023 11:47:27.000,209.676,4.238,1771.313764
6 Oct 2023 11:48:27.000,201.074,0.830,2099.434859
6 Oct 2023 11:48:42.357,199.307,0.000,2189.159334
6 Oct 2023 23:26:20.859,149.241,0.000,2172.115089
6 Oct 2023 23:27:20.000,139.799,2.731,1892.506127
6 Oct 2023 23:28:20.000,127.243,5.223,1673.802363
6 Oct 2023 23:29:20.000,111.724,6.849,1549.661735
6 Oct 2023 23:30:20.000,94.793,6.967,1543.831978
6 Oct 2023 23:31:20.000,79.046,5.528,1657.727669
6 Oct 2023 23:32:20.000,66.201,3.135,1869.265166
6 Oct 2023 23:33:20.000,56.412,0.402,2149.112819
6 Oct 2023 23:33:28.685,55.216,0.000,2193.752240
7 Oct 2023 00:58:33.488,220.170,0.000,2173.487781
7 Oct 2023 00:59:33.000,224.276,4.066,1770.777739
7 Oct 2023 01:00:33.000,230.831,9.302,1380.054256
7 Oct 2023 01:01:33.000,242.579,16.496,1024.913076
7 Oct 2023 01:02:33.000,266.336,25.681,759.479551
7 Oct 2023 01:03:33.000,306.702,28.954,696.685207
7 Oct 2023 01:04:33.000,339.348,20.980,880.986436
7 Oct 2023 01:05:33.000,355.707,12.663,1203.072580
7 Oct 2023 01:06:33.000,4.284,6.632,1579.765952
7 Oct 2023 01:07:33.000,9.441,2.086,1978.843352
7 Oct 2023 01:08:05.582,11.469,0.000,2200.105478
7 Oct 2023 09:03:42.769,18.796,0.000,2209.238643
7 Oct 2023 09:04:42.000,29.519,1.845,2012.101585
7 Oct 2023 09:05:42.000,42.251,3.115,1886.938074
7 Oct 2023 09:06:42.000,56.101,3.466,1852.749330
7 Oct 2023 09:07:42.000,69.746,2.787,1914.766822
7 Oct 2023 09:08:42.000,81.968,1.272,2064.277866
7 Oct 2023 09:09:20.961,88.849,0.000,2200.045644
7 Oct 2023 10:35:46.939,335.532,0.000,2208.844330
7 Oct 2023 10:36:46.000,334.960,4.196,1789.418512
7 Oct 2023 10:37:46.000,333.884,9.899,1366.552861
7 Oct 2023 10:38:46.000,331.580,18.906,954.482650
7 Oct 2023 10:39:46.000,324.510,37.511,580.665765
7 Oct 2023 10:40:46.000,246.260,72.501,385.468243
7 Oct 2023 10:41:46.000,173.474,36.665,588.429769
7 Oct 2023 10:42:46.000,166.643,18.435,964.042576
7 Oct 2023 10:43:46.000,164.347,9.544,1376.739241
7 Oct 2023 10:44:46.000,163.226,3.886,1800.010000
7 Oct 2023 10:45:40.532,162.624,0.000,2187.572457
7 Oct 2023 23:54:24.510,185.336,0.000,2168.988468
7 Oct 2023 23:55:24.000,182.068,4.159,1758.272810
7 Oct 2023 23:56:24.000,176.660,9.630,1355.803154
7 Oct 2023 23:57:24.000,166.413,17.545,982.726952
7 Oct 2023 23:58:24.000,143.103,29.023,691.528935
7 Oct 2023 23:59:24.000,96.180,34.075,614.693831
8 Oct 2023 00:00:24.000,60.085,23.321,815.570186
8 Oct 2023 00:01:24.000,44.715,13.547,1157.081900
8 Oct 2023 00:02:24.000,37.378,7.019,1547.845906
8 Oct 2023 00:03:24.000,33.244,2.271,1957.368303
8 Oct 2023 00:03:58.558,31.613,0.000,2197.122783
8 Oct 2023 01:29:30.334,255.072,0.000,2180.185321
8 Oct 2023 01:30:30.000,264.640,2.717,1901.527618
8 Oct 2023 01:31:30.000,277.147,5.184,1684.124991
8 Oct 2023 01:32:30.000,292.539,6.837,1557.160464
8 Oct 2023 01:33:30.000,309.417,7.056,1543.479318
8 Oct 2023 01:34:30.000,325.338,5.751,1645.744534
8 Oct 2023 01:35:30.000,338.564,3.466,1844.182318
8 Oct 2023 01:36:30.000,348.833,0.803,2110.953496
8 Oct 2023 01:36:47.740,351.373,0.000,2199.267079
8 Oct 2023 09:31:54.494,355.440,0.000,2208.348667
8 Oct 2023 09:32:54.000,1.668,3.636,1839.211437
8 Oct 2023 09:33:54.000,10.947,7.900,1496.556475
8 Oct 2023 09:34:54.000,25.341,12.669,1211.305242
8 Oct 2023 09:35:54.000,47.080,16.645,1034.116442
8 Oct 2023 09:36:54.000,73.574,16.873,1023.907253
8 Oct 2023 09:37:54.000,96.112,13.095,1185.259597
8 Oct 2023 09:38:54.000,111.205,8.271,1462.078525
8 Oct 2023 09:39:54.000,120.881,3.910,1801.138417
8 Oct 2023 09:40:54.000,127.346,0.166,2172.473222
8 Oct 2023 09:40:56.873,127.600,0.000,2190.764621
8 Oct 2023 11:05:46.340,315.204,0.000,2205.803540
8 Oct 2023 11:06:46.000,308.161,3.463,1852.038206
8 Oct 2023 11:07:46.000,297.799,7.288,1536.774423
8 Oct 2023 11:08:46.000,282.541,11.054,1293.943304
8 Oct 2023 11:09:46.000,261.861,13.389,1170.782627
8 Oct 2023 11:10:46.000,239.425,12.651,1205.025463
8 Oct 2023 11:11:46.000,220.894,9.416,1384.796785
8 Oct 2023 11:12:46.000,207.880,5.496,1662.826774
8 Oct 2023 11:13:46.000,199.048,1.787,1997.459857
8 Oct 2023 11:14:17.351,195.573,0.000,2185.883211
8 Oct 2023 22:51:54.953,144.483,0.000,2170.807327
8 Oct 2023 22:52:54.000,134.498,2.465,1916.852350
8 Oct 2023 22:53:54.000,121.656,4.542,1729.826997
8 Oct 2023 22:54:54.000,106.516,5.661,1640.041746
8 Oct 2023 22:55:54.000,90.735,5.402,1663.896111
8 Oct 2023 22:56:54.000,76.414,3.880,1796.910258
8 Oct 2023 22:57:54.000,64.718,1.612,2017.204287
8 Oct 2023 22:58:32.219,58.672,0.000,2191.093290
9 Oct 2023 00:23:45.037,216.804,0.000,2170.937107
9 Oct 2023 00:24:45.000,220.277,4.177,1758.541347
9 Oct 2023 00:25:45.000,225.858,9.626,1357.672084
9 Oct 2023 00:26:45.000,236.213,17.495,985.800513
9 Oct 2023 00:27:45.000,259.380,28.936,694.004369
9 Oct 2023 00:28:45.000,306.206,34.325,612.079738
9 Oct 2023 00:29:45.000,343.093,23.712,806.795386
9 Oct 2023 00:30:45.000,359.045,13.847,1144.049720
9 Oct 2023 00:31:45.000,6.818,7.259,1531.364530
9 Oct 2023 00:32:45.000,11.350,2.481,1937.663030
9 Oct 2023 00:33:22.809,13.362,0.000,2198.058172
9 Oct 2023 08:29:09.579,22.725,0.000,2206.546148
9 Oct 2023 08:30:09.000,33.849,1.539,2040.520582
9 Oct 2023 08:31:09.000,46.562,2.417,1951.019208
9 Oct 2023 08:32:09.000,59.865,2.396,1951.424947
9 Oct 2023 08:33:09.000,72.568,1.477,2041.880260
9 Oct 2023 08:34:05.185,83.110,0.000,2198.389316
9 Oct 2023 10:00:55.307,337.495,0.000,2206.451536
9 Oct 2023 10:01:55.000,337.628,4.252,1782.074124
9 Oct 2023 10:02:55.000,337.723,9.999,1358.325982
9 Oct 2023 10:03:55.000,337.733,19.154,944.481081
9 Oct 2023 10:04:55.000,337.424,38.643,566.782462
9 Oct 2023 10:05:55.000,196.856,88.228,367.947159
9 Oct 2023 10:06:55.000,159.495,37.339,579.206428
9 Oct 2023 10:07:55.000,159.186,18.508,959.571687
9 Oct 2023 10:08:55.000,159.157,9.544,1374.320605
9 Oct 2023 10:09:55.000,159.191,3.871,1798.651498
9 Oct 2023 10:10:49.255,159.241,0.000,2184.823556
9 Oct 2023 11:37:52.204,274.256,0.000,2197.694582
9 Oct 2023 11:38:52.000,262.442,0.451,2145.705901
9 Oct 2023 11:39:52.000,250.487,0.118,2179.643691
9 Oct 2023 11:40:01.214,248.702,0.000,2192.361620
9 Oct 2023 23:19:28.489,181.674,0.000,2166.885114
9 Oct 2023 23:20:28.000,177.638,4.081,1763.116542
9 Oct 2023 23:21:28.000,171.065,9.339,1372.064017
9 Oct 2023 23:22:28.000,159.085,16.538,1018.624366
9 Oct 2023 23:23:28.000,134.779,25.487,760.035205
9 Oct 2023 23:24:28.000,94.825,28.016,710.579847
9 Oct 2023 23:25:28.000,63.672,20.028,905.438929
9 Oct 2023 23:26:28.000,48.150,11.986,1233.274602
9 Oct 2023 23:27:28.000,40.076,6.121,1614.065369
9 Oct 2023 23:28:28.000,35.328,1.659,2016.835886
9 Oct 2023 23:28:54.014,33.846,0.000,2194.903666
10 Oct 2023 00:54:13.532,250.730,0.000,2177.135194
10 Oct 2023 00:55:13.000,259.769,2.920,1879.196424
10 Oct 2023 00:56:13.000,271.963,5.741,1636.070392
10 Oct 2023 00:57:13.000,287.604,7.868,1480.376381
10 Oct 2023 00:58:13.000,305.511,8.480,1441.254010
10 Oct 2023 00:59:13.000,322.826,7.270,1527.623617
10 Oct 2023 01:00:13.000,337.189,4.841,1720.155153
10 Oct 2023 01:01:13.000,348.145,1.971,1987.367516
10 Oct 2023 01:01:53.767,353.959,0.000,2197.431333
10 Oct 2023 08:56:51.711,357.674,0.000,2205.856047
10 Oct 2023 08:57:51.000,4.511,3.481,1850.883000
10 Oct 2023 08:58:51.000,14.528,7.440,1526.632162
10 Oct 2023 08:59:51.000,29.436,11.563,1266.942658
10 Oct 2023 09:00:51.000,50.421,14.532,1119.450096
10 Oct 2023 09:01:51.000,74.346,14.261,1129.959442
10 Oct 2023 09:02:51.000,94.597,10.966,1294.802810
10 Oct 2023 09:03:51.000,108.753,6.780,1565.582154
10 Oct 2023 09:04:51.000,118.242,2.845,1896.701739
10 Oct 2023 09:05:39.381,123.688,0.000,2188.528084
10 Oct 2023 10:30:30.704,317.856,0.000,2203.452324
10 Oct 2023 10:31:30.000,311.552,3.603,1836.967278
10 Oct 2023 10:32:30.000,301.979,7.773,1500.032893
10 Oct 2023 10:33:30.000,287.163,12.248,1227.521293
10 Oct 2023 10:34:30.000,265.476,15.581,1071.321946
10 Oct 2023 10:35:30.000,240.363,15.241,1083.630794
10 Oct 2023 10:36:30.000,219.598,11.530,1259.365230
10 Oct 2023 10:37:30.000,205.629,7.018,1542.985442
10 Oct 2023 10:38:30.000,196.562,2.905,1885.399636
10 Oct 2023 10:39:18.022,191.504,0.000,2182.589209
10 Oct 2023 22:17:00.043,138.689,0.000,2169.773557
10 Oct 2023 22:18:00.000,127.939,2.162,1945.656571
10 Oct 2023 22:19:00.000,114.882,3.740,1799.532001
10 Oct 2023 22:20:00.000,100.307,4.309,1752.150128
10 Oct 2023 22:21:00.000,85.833,3.674,1811.649142
10 Oct 2023 22:22:00.000,73.024,2.058,1968.252600
10 Oct 2023 22:22:57.097,63.012,0.000,2188.176182
10 Oct 2023 23:48:22.774,213.060,0.000,2168.362883
10 Oct 2023 23:49:22.000,215.722,4.188,1755.030451
10 Oct 2023 23:50:22.000,220.079,9.804,1344.537026
10 Oct 2023 23:51:22.000,228.401,18.294,955.924895
10 Oct 2023 23:52:22.000,249.234,32.560,633.963260
10 Oct 2023 23:53:22.000,305.265,42.273,523.571346
10 Oct 2023 23:54:22.000,348.472,27.204,728.493548
10 Oct 2023 23:55:22.000,3.307,15.213,1081.732479
10 Oct 2023 23:56:22.000,9.907,7.960,1479.600231
10 Oct 2023 23:57:22.000,13.629,2.923,1892.873245
10 Oct 2023 23:58:05.443,15.475,0.000,2195.965666
11 Oct 2023 07:54:09.488,28.099,0.000,2203.597235
11 Oct 2023 07:55:09.000,39.586,1.127,2080.212320
11 Oct 2023 07:56:09.000,52.120,1.530,2036.780216
11 Oct 2023 07:57:09.000,64.656,1.097,2080.095636
11 Oct 2023 07:58:05.981,75.683,0.000,2197.007009
11 Oct 2023 09:25:29.801,339.672,0.000,2204.005969
11 Oct 2023 09:26:29.000,340.590,4.201,1784.103908
11 Oct 2023 09:27:29.000,341.993,9.906,1361.698656
11 Oct 2023 09:28:29.000,344.595,18.929,950.027843
11 Oct 2023 09:29:29.000,351.928,37.641,576.648840
11 Oct 2023 09:30:29.000,72.199,72.699,383.305083
11 Oct 2023 09:31:29.000,143.995,36.405,588.902134
11 Oct 2023 09:32:29.000,150.906,18.287,965.130130
11 Oct 2023 09:33:29.000,153.386,9.448,1377.849704
11 Oct 2023 09:34:29.000,154.700,3.815,1800.993015
11 Oct 2023 09:35:22.639,155.462,0.000,2182.059824
11 Oct 2023 11:01:36.412,284.338,0.000,2196.823887
11 Oct 2023 11:02:36.000,272.827,1.177,2067.384905
11 Oct 2023 11:03:36.000,260.206,1.581,2023.061256
11 Oct 2023 11:04:36.000,247.606,1.098,2070.597367
11 Oct 2023 11:05:30.034,237.146,0.000,2187.011736
11 Oct 2023 22:43:59.746,177.524,0.000,2164.863578
11 Oct 2023 22:44:59.000,172.668,3.952,1772.617648
11 Oct 2023 22:45:59.000,164.892,8.919,1396.966035
11 Oct 2023 22:46:59.000,151.398,15.250,1068.656989
11 Oct 2023 22:47:59.000,127.120,21.861,847.097058
11 Oct 2023 22:48:59.000,93.176,22.783,824.764174
11 Oct 2023 22:49:59.000,66.357,16.775,1015.045939
11 Oct 2023 22:50:59.000,51.221,10.239,1329.034684
11 Oct 2023 22:51:59.000,42.669,5.050,1698.532268
11 Oct 2023 22:52:59.000,37.406,0.908,2093.161633
11 Oct 2023 22:53:13.782,36.417,0.000,2192.531855
12 Oct 2023 00:18:22.340,246.081,0.000,2174.025264
12 Oct 2023 00:19:22.000,254.566,3.147,1854.784122
12 Oct 2023 00:20:22.000,266.332,6.355,1585.287870
12 Oct 2023 00:21:22.000,282.146,9.049,1398.920080
12 Oct 2023 00:22:22.000,301.232,10.178,1331.755537
12 Oct 2023 00:23:22.000,320.289,9.091,1401.100026
12 Oct 2023 00:24:22.000,336.051,6.443,1588.707580
12 Oct 2023 00:25:22.000,347.787,3.280,1858.261566
12 Oct 2023 00:26:22.000,356.319,0.153,2178.465078
12 Oct 2023 00:26:25.018,356.683,0.000,2195.501192
12 Oct 2023 08:21:15.739,0.243,0.000,2203.281176
12 Oct 2023 08:22:15.000,7.758,3.305,1864.542023
12 Oct 2023 08:23:15.000,18.509,6.908,1562.899025
12 Oct 2023 08:24:15.000,33.780,10.349,1333.211931
12 Oct 2023 08:25:15.000,53.808,12.409,1218.390439
12 Oct 2023 08:26:15.000,75.305,11.748,1251.248176
12 Oct 2023 08:27:15.000,93.415,8.833,1421.664493
12 Oct 2023 08:28:15.000,106.547,5.186,1688.062250
12 Oct 2023 08:29:15.000,115.717,1.647,2011.906854
12 Oct 2023 08:29:44.845,119.227,0.000,2186.336989
12 Oct 2023 09:54:40.850,320.669,0.000,2201.060251
12 Oct 2023 09:55:40.000,315.166,3.749,1821.340212
12 Oct 2023 09:56:40.000,306.566,8.274,1463.276155
12 Oct 2023 09:57:40.000,292.513,13.566,1160.223882
12 Oct 2023 09:58:40.000,269.900,18.290,967.239084
12 Oct 2023 09:59:40.000,241.211,18.610,954.545404
12 Oct 2023 10:00:40.000,217.471,14.129,1128.205564
12 Oct 2023 10:01:40.000,202.485,8.745,1420.828817
12 Oct 2023 10:02:40.000,193.321,4.099,1773.479893
12 Oct 2023 10:03:40.000,187.397,0.215,2155.660312
12 Oct 2023 10:03:43.611,187.109,-0.000,2179.233157
12 Oct 2023 21:41:38.368,131.399,0.000,2169.161055
12 Oct 2023 21:42:38.000,120.134,1.710,1990.332863
12 Oct 2023 21:43:38.000,107.095,2.717,1894.110105
12 Oct 2023 21:44:38.000,93.372,2.737,1895.270724
12 Oct 2023 21:45:38.000,80.364,1.768,1993.795651
12 Oct 2023 21:46:38.000,69.093,0.076,2176.234214
12 Oct 2023 21:46:40.352,68.693,0.000,2184.826786
12 Oct 2023 23:12:26.585,208.932,0.000,2165.779447
12 Oct 2023 23:13:26.000,210.742,4.260,1746.256401
12 Oct 2023 23:14:26.000,213.709,10.041,1328.062602
12 Oct 2023 23:15:26.000,219.518,19.146,925.826479
12 Oct 2023 23:16:26.000,235.915,36.774,577.476357
12 Oct 2023 23:17:26.000,307.241,54.108,441.391978
12 Oct 2023 23:18:26.000,357.403,30.696,664.498373
12 Oct 2023 23:19:26.000,9.068,16.305,1035.506541
12 Oct 2023 23:20:26.000,13.812,8.459,1443.544214
12 Oct 2023 23:21:26.000,16.432,3.215,1863.147976
12 Oct 2023 23:22:12.877,17.818,0.000,2193.801046
13 Oct 2023 00:50:41.299,297.213,0.000,2186.135814
13 Oct 2023 00:51:41.000,309.076,0.390,2145.670114
13 Oct 2023 00:52:41.000,320.994,0.038,2186.734641
13 Oct 2023 00:52:44.173,321.608,0.000,2191.135203
13 Oct 2023 07:18:52.449,36.891,0.000,2200.096033
13 Oct 2023 07:19:52.000,48.634,0.494,2144.233299
13 Oct 2023 07:20:52.000,60.634,0.248,2169.381888
13 Oct 2023 07:21:12.296,64.577,0.000,2196.184294
13 Oct 2023 08:49:30.176,342.069,0.000,2201.463760
13 Oct 2023 08:50:30.000,343.874,4.218,1780.054453
13 Oct 2023 08:51:30.000,346.718,9.858,1362.206595
13 Oct 2023 08:52:30.000,352.106,18.611,958.710479
13 Oct 2023 08:53:30.000,6.644,35.338,603.024514
13 Oct 2023 08:54:30.000,72.584,55.606,438.084935
13 Oct 2023 08:55:30.000,129.659,32.719,636.405676
13 Oct 2023 08:56:30.000,142.316,17.218,1001.108665
