xian_to_bluewalker_3_53807_Access_AER.csv

"Time (UTCG)","Azimuth (deg)","Elevation (deg)","Range (km)"
14 Sep 2023 04:35:57.224,317.292,0.000,2608.173455
14 Sep 2023 04:36:02.000,317.367,0.291,2576.015553
14 Sep 2023 04:36:07.000,317.448,0.599,2542.350829
14 Sep 2023 04:36:12.000,317.530,0.912,2508.690440
14 Sep 2023 04:36:17.000,317.614,1.229,2475.035546
14 Sep 2023 04:36:22.000,317.700,1.550,2441.387353
14 Sep 2023 04:36:27.000,317.788,1.876,2407.747129
14 Sep 2023 04:36:32.000,317.878,2.207,2374.116193
14 Sep 2023 04:36:37.000,317.970,2.543,2340.495928
14 Sep 2023 04:36:42.000,318.064,2.885,2306.887783
14 Sep 2023 04:36:47.000,318.161,3.232,2273.293277
14 Sep 2023 04:36:52.000,318.260,3.585,2239.714012
14 Sep 2023 04:36:57.000,318.361,3.944,2206.151664
14 Sep 2023 04:37:02.000,318.466,4.309,2172.608002
14 Sep 2023 04:37:07.000,318.573,4.681,2139.084889
14 Sep 2023 04:37:12.000,318.683,5.060,2105.584287
14 Sep 2023 04:37:17.000,318.797,5.446,2072.108278
14 Sep 2023 04:37:22.000,318.913,5.840,2038.659054
14 Sep 2023 04:37:27.000,319.034,6.242,2005.238939
14 Sep 2023 04:37:32.000,319.158,6.653,1971.850397
14 Sep 2023 04:37:37.000,319.286,7.072,1938.496044
14 Sep 2023 04:37:42.000,319.418,7.501,1905.178656
14 Sep 2023 04:37:47.000,319.554,7.939,1871.901194
14 Sep 2023 04:37:52.000,319.695,8.388,1838.666808
14 Sep 2023 04:37:57.000,319.841,8.847,1805.478858
14 Sep 2023 04:38:02.000,319.992,9.318,1772.340934
14 Sep 2023 04:38:07.000,320.149,9.801,1739.256879
14 Sep 2023 04:38:12.000,320.312,10.297,1706.230805
14 Sep 2023 04:38:17.000,320.480,10.806,1673.267127
14 Sep 2023 04:38:22.000,320.656,11.329,1640.370584
14 Sep 2023 04:38:27.000,320.839,11.868,1607.546278
14 Sep 2023 04:38:32.000,321.030,12.422,1574.799702
14 Sep 2023 04:38:37.000,321.228,12.993,1542.136785
14 Sep 2023 04:38:42.000,321.436,13.582,1509.563930
14 Sep 2023 04:38:47.000,321.653,14.190,1477.088073
14 Sep 2023 04:38:52.000,321.881,14.819,1444.716721
14 Sep 2023 04:38:57.000,322.119,15.469,1412.458032
14 Sep 2023 04:39:02.000,322.370,16.142,1380.320874
14 Sep 2023 04:39:07.000,322.633,16.839,1348.314901
14 Sep 2023 04:39:12.000,322.910,17.562,1316.450647
14 Sep 2023 04:39:17.000,323.203,18.313,1284.739614
14 Sep 2023 04:39:22.000,323.512,19.094,1253.194395
14 Sep 2023 04:39:27.000,323.840,19.906,1221.828781
14 Sep 2023 04:39:32.000,324.187,20.753,1190.657923
14 Sep 2023 04:39:37.000,324.557,21.636,1159.698466
14 Sep 2023 04:39:42.000,324.950,22.558,1128.968748
14 Sep 2023 04:39:47.000,325.370,23.521,1098.488984
14 Sep 2023 04:39:52.000,325.820,24.530,1068.281501
14 Sep 2023 04:39:57.000,326.302,25.586,1038.370985
14 Sep 2023 04:40:02.000,326.822,26.694,1008.784771
14 Sep 2023 04:40:07.000,327.382,27.857,979.553154
14 Sep 2023 04:40:12.000,327.989,29.079,950.709746
14 Sep 2023 04:40:17.000,328.648,30.364,922.291862
14 Sep 2023 04:40:22.000,329.367,31.717,894.340944
14 Sep 2023 04:40:27.000,330.153,33.142,866.903036
14 Sep 2023 04:40:32.000,331.018,34.643,840.029262
14 Sep 2023 04:40:37.000,331.972,36.225,813.776355
14 Sep 2023 04:40:42.000,333.031,37.892,788.207182
14 Sep 2023 04:40:47.000,334.213,39.648,763.391253
14 Sep 2023 04:40:52.000,335.538,41.496,739.405202
14 Sep 2023 04:40:57.000,337.034,43.437,716.333161
14 Sep 2023 04:41:02.000,338.733,45.471,694.266997
14 Sep 2023 04:41:07.000,340.679,47.595,673.306323
14 Sep 2023 04:41:12.000,342.922,49.802,653.558193
14 Sep 2023 04:41:17.000,345.530,52.080,635.136362
14 Sep 2023 04:41:22.000,348.586,54.409,618.160025
14 Sep 2023 04:41:27.000,352.195,56.761,602.751894
14 Sep 2023 04:41:32.000,356.485,59.094,589.035565
14 Sep 2023 04:41:37.000,1.607,61.348,577.132146
14 Sep 2023 04:41:42.000,7.720,63.447,567.156213
14 Sep 2023 04:41:47.000,14.959,65.291,559.211294
14 Sep 2023 04:41:52.000,23.373,66.763,553.385176
14 Sep 2023 04:41:57.000,32.825,67.743,549.745450
14 Sep 2023 04:42:02.000,42.935,68.133,548.335904
14 Sep 2023 04:42:07.000,53.120,67.889,549.173783
14 Sep 2023 04:42:12.000,62.771,67.039,552.248910
14 Sep 2023 04:42:17.000,71.450,65.670,557.524258
14 Sep 2023 04:42:22.000,78.967,63.900,564.938121
14 Sep 2023 04:42:27.000,85.335,61.849,574.407572
14 Sep 2023 04:42:32.000,90.675,59.620,585.832745
14 Sep 2023 04:42:37.000,95.147,57.297,599.101522
14 Sep 2023 04:42:42.000,98.903,54.942,614.094112
14 Sep 2023 04:42:47.000,102.078,52.601,630.687252
14 Sep 2023 04:42:52.000,104.783,50.305,648.757751
14 Sep 2023 04:42:57.000,107.105,48.076,668.185330
14 Sep 2023 04:43:02.000,109.114,45.929,688.854710
14 Sep 2023 04:43:07.000,110.867,43.870,710.657045
14 Sep 2023 04:43:12.000,112.406,41.904,733.490777
14 Sep 2023 04:43:17.000,113.768,40.032,757.262047
14 Sep 2023 04:43:22.000,114.979,38.252,781.884757
14 Sep 2023 04:43:27.000,116.064,36.561,807.280385
14 Sep 2023 04:43:32.000,117.040,34.957,833.377638
14 Sep 2023 04:43:37.000,117.923,33.435,860.111988
14 Sep 2023 04:43:42.000,118.725,31.991,887.425476
14 Sep 2023 04:43:47.000,119.457,30.619,915.265001
14 Sep 2023 04:43:52.000,120.128,29.317,943.583551
14 Sep 2023 04:43:57.000,120.745,28.078,972.338551
14 Sep 2023 04:44:02.000,121.313,26.900,1001.491661
14 Sep 2023 04:44:07.000,121.840,25.778,1031.008360
14 Sep 2023 04:44:12.000,122.328,24.709,1060.857536
14 Sep 2023 04:44:17.000,122.783,23.688,1091.011120
14 Sep 2023 04:44:22.000,123.208,22.713,1121.443770
14 Sep 2023 04:44:27.000,123.605,21.781,1152.132584
14 Sep 2023 04:44:32.000,123.977,20.888,1183.056820
14 Sep 2023 04:44:37.000,124.327,20.032,1214.197680
14 Sep 2023 04:44:42.000,124.656,19.211,1245.538094
14 Sep 2023 04:44:47.000,124.966,18.422,1277.062549
14 Sep 2023 04:44:52.000,125.260,17.663,1308.756910
14 Sep 2023 04:44:57.000,125.538,16.933,1340.608294
14 Sep 2023 04:45:02.000,125.801,16.229,1372.604919
14 Sep 2023 04:45:07.000,126.051,15.550,1404.736014
14 Sep 2023 04:45:12.000,126.289,14.894,1436.991707
14 Sep 2023 04:45:17.000,126.516,14.260,1469.362936
14 Sep 2023 04:45:22.000,126.732,13.646,1501.841361
14 Sep 2023 04:45:27.000,126.938,13.052,1534.419311
14 Sep 2023 04:45:32.000,127.135,12.476,1567.089709
14 Sep 2023 04:45:37.000,127.324,11.917,1599.846018
14 Sep 2023 04:45:42.000,127.505,11.375,1632.682188
14 Sep 2023 04:45:47.000,127.678,10.848,1665.592615
14 Sep 2023 04:45:52.000,127.845,10.335,1698.572100
14 Sep 2023 04:45:57.000,128.005,9.835,1731.615810
14 Sep 2023 04:46:02.000,128.158,9.349,1764.719248
14 Sep 2023 04:46:07.000,128.307,8.875,1797.878223
14 Sep 2023 04:46:12.000,128.449,8.412,1831.088824
14 Sep 2023 04:46:17.000,128.587,7.961,1864.347395
14 Sep 2023 04:46:22.000,128.720,7.519,1897.650515
14 Sep 2023 04:46:27.000,128.848,7.088,1930.994979
14 Sep 2023 04:46:32.000,128.972,6.666,1964.377778
14 Sep 2023 04:46:37.000,129.092,6.253,1997.796088
14 Sep 2023 04:46:42.000,129.209,5.849,2031.247245
14 Sep 2023 04:46:47.000,129.321,5.453,2064.728751
14 Sep 2023 04:46:52.000,129.430,5.064,2098.238243
14 Sep 2023 04:46:57.000,129.536,4.683,2131.773488
14 Sep 2023 04:47:02.000,129.639,4.309,2165.332379
14 Sep 2023 04:47:07.000,129.738,3.942,2198.912920
14 Sep 2023 04:47:12.000,129.835,3.581,2232.513215
14 Sep 2023 04:47:17.000,129.929,3.226,2266.131478
14 Sep 2023 04:47:22.000,130.021,2.877,2299.765999
14 Sep 2023 04:47:27.000,130.110,2.534,2333.415158
14 Sep 2023 04:47:32.000,130.197,2.196,2367.077409
14 Sep 2023 04:47:37.000,130.281,1.864,2400.751288
14 Sep 2023 04:47:42.000,130.363,1.536,2434.435388
14 Sep 2023 04:47:47.000,130.444,1.213,2468.128369
14 Sep 2023 04:47:52.000,130.522,0.895,2501.828951
14 Sep 2023 04:47:57.000,130.598,0.581,2535.535904
14 Sep 2023 04:48:02.000,130.673,0.272,2569.248061
14 Sep 2023 04:48:06.435,130.737,0.000,2599.153962
14 Sep 2023 06:15:14.167,290.095,0.000,2608.329396
14 Sep 2023 06:15:19.000,289.611,0.231,2582.657025
14 Sep 2023 06:15:24.000,289.100,0.471,2556.277580
14 Sep 2023 06:15:29.000,288.579,0.712,2530.086823
14 Sep 2023 06:15:34.000,288.046,0.953,2504.091397
14 Sep 2023 06:15:39.000,287.501,1.196,2478.298160
14 Sep 2023 06:15:44.000,286.945,1.438,2452.714190
14 Sep 2023 06:15:49.000,286.377,1.682,2427.346805
14 Sep 2023 06:15:54.000,285.796,1.926,2402.203559
14 Sep 2023 06:15:59.000,285.202,2.171,2377.292244
14 Sep 2023 06:16:04.000,284.596,2.416,2352.620900
14 Sep 2023 06:16:09.000,283.976,2.661,2328.197832
14 Sep 2023 06:16:14.000,283.343,2.907,2304.031591
14 Sep 2023 06:16:19.000,282.695,3.152,2280.130996
14 Sep 2023 06:16:24.000,282.034,3.398,2256.505131
14 Sep 2023 06:16:29.000,281.358,3.644,2233.163351
14 Sep 2023 06:16:34.000,280.667,3.890,2210.115287
14 Sep 2023 06:16:39.000,279.961,4.135,2187.370833
14 Sep 2023 06:16:44.000,279.239,4.381,2164.940168
14 Sep 2023 06:16:49.000,278.502,4.625,2142.833747
14 Sep 2023 06:16:54.000,277.749,4.869,2121.062293
14 Sep 2023 06:16:59.000,276.979,5.112,2099.636801
14 Sep 2023 06:17:04.000,276.193,5.354,2078.568532
14 Sep 2023 06:17:09.000,275.390,5.595,2057.869019
14 Sep 2023 06:17:14.000,274.570,5.834,2037.550045
14 Sep 2023 06:17:19.000,273.732,6.072,2017.623628
14 Sep 2023 06:17:24.000,272.877,6.308,1998.102038
14 Sep 2023 06:17:29.000,272.004,6.541,1978.997762
14 Sep 2023 06:17:34.000,271.113,6.772,1960.323493
14 Sep 2023 06:17:39.000,270.205,7.001,1942.092109
14 Sep 2023 06:17:44.000,269.278,7.226,1924.316673
14 Sep 2023 06:17:49.000,268.333,7.449,1907.010386
14 Sep 2023 06:17:54.000,267.369,7.667,1890.186565
14 Sep 2023 06:17:59.000,266.388,7.882,1873.858630
14 Sep 2023 06:18:04.000,265.388,8.092,1858.040067
14 Sep 2023 06:18:09.000,264.370,8.298,1842.744381
14 Sep 2023 06:18:14.000,263.334,8.499,1827.985072
14 Sep 2023 06:18:19.000,262.280,8.694,1813.775595
14 Sep 2023 06:18:24.000,261.209,8.884,1800.129312
14 Sep 2023 06:18:29.000,260.120,9.067,1787.059454
14 Sep 2023 06:18:34.000,259.014,9.244,1774.579061
14 Sep 2023 06:18:39.000,257.892,9.414,1762.700944
14 Sep 2023 06:18:44.000,256.754,9.577,1751.437628
14 Sep 2023 06:18:49.000,255.600,9.732,1740.801300
14 Sep 2023 06:18:54.000,254.431,9.878,1730.803758
14 Sep 2023 06:18:59.000,253.248,10.016,1721.456337
14 Sep 2023 06:19:04.000,252.052,10.146,1712.769884
14 Sep 2023 06:19:09.000,250.842,10.266,1704.754681
14 Sep 2023 06:19:14.000,249.621,10.376,1697.420383
14 Sep 2023 06:19:19.000,248.388,10.476,1690.775994
14 Sep 2023 06:19:24.000,247.146,10.567,1684.829788
14 Sep 2023 06:19:29.000,245.894,10.646,1679.589276
14 Sep 2023 06:19:34.000,244.635,10.715,1675.061153
14 Sep 2023 06:19:39.000,243.369,10.773,1671.251266
14 Sep 2023 06:19:44.000,242.097,10.820,1668.164561
14 Sep 2023 06:19:49.000,240.820,10.855,1665.805079
14 Sep 2023 06:19:54.000,239.540,10.879,1664.175892
14 Sep 2023 06:19:59.000,238.258,10.892,1663.279120
14 Sep 2023 06:20:04.000,236.975,10.893,1663.115889
14 Sep 2023 06:20:09.000,235.693,10.882,1663.686346
14 Sep 2023 06:20:14.000,234.412,10.860,1664.989641
14 Sep 2023 06:20:19.000,233.134,10.826,1667.023934
14 Sep 2023 06:20:24.000,231.860,10.781,1669.786419
14 Sep 2023 06:20:29.000,230.591,10.724,1673.273354
14 Sep 2023 06:20:34.000,229.328,10.657,1677.480001
14 Sep 2023 06:20:39.000,228.073,10.579,1682.400782
14 Sep 2023 06:20:44.000,226.827,10.490,1688.029227
14 Sep 2023 06:20:49.000,225.590,10.391,1694.358046
14 Sep 2023 06:20:54.000,224.364,10.281,1701.379162
14 Sep 2023 06:20:59.000,223.149,10.163,1709.083765
14 Sep 2023 06:21:04.000,221.947,10.034,1717.462360
14 Sep 2023 06:21:09.000,220.758,9.897,1726.504816
14 Sep 2023 06:21:14.000,219.583,9.751,1736.200424
14 Sep 2023 06:21:19.000,218.422,9.597,1746.537954
14 Sep 2023 06:21:24.000,217.277,9.436,1757.505708
14 Sep 2023 06:21:29.000,216.148,9.266,1769.091574
14 Sep 2023 06:21:34.000,215.035,9.090,1781.283085
14 Sep 2023 06:21:39.000,213.938,8.907,1794.067471
14 Sep 2023 06:21:44.000,212.859,8.718,1807.431713
14 Sep 2023 06:21:49.000,211.797,8.523,1821.362594
14 Sep 2023 06:21:54.000,210.753,8.322,1835.846742
14 Sep 2023 06:21:59.000,209.726,8.116,1850.870680
14 Sep 2023 06:22:04.000,208.718,7.906,1866.420879
14 Sep 2023 06:22:09.000,207.727,7.691,1882.483778
14 Sep 2023 06:22:14.000,206.755,7.473,1899.045839
14 Sep 2023 06:22:19.000,205.801,7.250,1916.093579
14 Sep 2023 06:22:24.000,204.865,7.024,1933.613594
14 Sep 2023 06:22:29.000,203.947,6.796,1951.592599
14 Sep 2023 06:22:34.000,203.047,6.564,1970.017445
14 Sep 2023 06:22:39.000,202.165,6.330,1988.875151
14 Sep 2023 06:22:44.000,201.301,6.094,2008.152917
14 Sep 2023 06:22:49.000,200.454,5.856,2027.838151
14 Sep 2023 06:22:54.000,199.624,5.616,2047.918473
14 Sep 2023 06:22:59.000,198.812,5.375,2068.381743
14 Sep 2023 06:23:04.000,198.016,5.133,2089.216060
14 Sep 2023 06:23:09.000,197.237,4.889,2110.409779
14 Sep 2023 06:23:14.000,196.474,4.645,2131.951515
14 Sep 2023 06:23:19.000,195.728,4.399,2153.830150
14 Sep 2023 06:23:24.000,194.997,4.154,2176.034840
14 Sep 2023 06:23:29.000,194.281,3.908,2198.555010
14 Sep 2023 06:23:34.000,193.581,3.661,2221.380366
14 Sep 2023 06:23:39.000,192.895,3.415,2244.500887
14 Sep 2023 06:23:44.000,192.224,3.168,2267.906830
14 Sep 2023 06:23:49.000,191.567,2.922,2291.588723
14 Sep 2023 06:23:54.000,190.924,2.676,2315.537368
14 Sep 2023 06:23:59.000,190.295,2.430,2339.743836
14 Sep 2023 06:24:04.000,189.679,2.185,2364.199462
14 Sep 2023 06:24:09.000,189.076,1.939,2388.895841
14 Sep 2023 06:24:14.000,188.486,1.695,2413.824826
14 Sep 2023 06:24:19.000,187.908,1.451,2438.978520
14 Sep 2023 06:24:24.000,187.342,1.208,2464.349272
14 Sep 2023 06:24:29.000,186.788,0.965,2489.929672
14 Sep 2023 06:24:34.000,186.245,0.723,2515.712542
14 Sep 2023 06:24:39.000,185.714,0.482,2541.690935
14 Sep 2023 06:24:44.000,185.193,0.242,2567.858126
14 Sep 2023 06:24:49.000,184.684,0.002,2594.207604
14 Sep 2023 06:24:49.043,184.679,-0.000,2594.436077
14 Sep 2023 19:57:13.138,202.468,0.000,2552.980133
14 Sep 2023 19:57:18.000,202.244,0.289,2521.215924
14 Sep 2023 19:57:23.000,202.007,0.590,2488.587758
14 Sep 2023 19:57:28.000,201.764,0.895,2456.001463
14 Sep 2023 19:57:33.000,201.515,1.204,2423.459699
14 Sep 2023 19:57:38.000,201.258,1.516,2390.965256
14 Sep 2023 19:57:43.000,200.994,1.833,2358.521057
14 Sep 2023 19:57:48.000,200.722,2.154,2326.130174
14 Sep 2023 19:57:53.000,200.443,2.479,2293.795834
14 Sep 2023 19:57:58.000,200.155,2.809,2261.521428
14 Sep 2023 19:58:03.000,199.859,3.144,2229.310523
14 Sep 2023 19:58:08.000,199.553,3.484,2197.166873
14 Sep 2023 19:58:13.000,199.238,3.829,2165.094435
14 Sep 2023 19:58:18.000,198.913,4.180,2133.097381
14 Sep 2023 19:58:23.000,198.578,4.536,2101.180113
14 Sep 2023 19:58:28.000,198.232,4.897,2069.347275
14 Sep 2023 19:58:33.000,197.874,5.265,2037.603779
14 Sep 2023 19:58:38.000,197.504,5.639,2005.954815
14 Sep 2023 19:58:43.000,197.122,6.019,1974.405878
14 Sep 2023 19:58:48.000,196.727,6.406,1942.962788
14 Sep 2023 19:58:53.000,196.318,6.800,1911.631706
14 Sep 2023 19:58:58.000,195.894,7.202,1880.419174
14 Sep 2023 19:59:03.000,195.455,7.610,1849.332130
14 Sep 2023 19:59:08.000,195.000,8.027,1818.377940
14 Sep 2023 19:59:13.000,194.528,8.451,1787.564439
14 Sep 2023 19:59:18.000,194.038,8.884,1756.899952
14 Sep 2023 19:59:23.000,193.529,9.326,1726.393341
14 Sep 2023 19:59:28.000,193.001,9.776,1696.054042
14 Sep 2023 19:59:33.000,192.451,10.236,1665.892110
14 Sep 2023 19:59:38.000,191.879,10.706,1635.918261
14 Sep 2023 19:59:43.000,191.284,11.185,1606.143927
14 Sep 2023 19:59:48.000,190.664,11.675,1576.581309
14 Sep 2023 19:59:53.000,190.018,12.175,1547.243434
14 Sep 2023 19:59:58.000,189.344,12.686,1518.144212
14 Sep 2023 20:00:03.000,188.640,13.209,1489.298511
14 Sep 2023 20:00:08.000,187.905,13.743,1460.722222
14 Sep 2023 20:00:13.000,187.138,14.288,1432.432328
14 Sep 2023 20:00:18.000,186.335,14.846,1404.446992
14 Sep 2023 20:00:23.000,185.495,15.416,1376.785630
14 Sep 2023 20:00:28.000,184.615,15.998,1349.469001
14 Sep 2023 20:00:33.000,183.694,16.592,1322.519291
14 Sep 2023 20:00:38.000,182.728,17.199,1295.960207
14 Sep 2023 20:00:43.000,181.715,17.818,1269.817062
14 Sep 2023 20:00:48.000,180.652,18.449,1244.116869
14 Sep 2023 20:00:53.000,179.536,19.093,1218.888426
14 Sep 2023 20:00:58.000,178.363,19.747,1194.162396
14 Sep 2023 20:01:03.000,177.131,20.412,1169.971382
14 Sep 2023 20:01:08.000,175.836,21.087,1146.349990
14 Sep 2023 20:01:13.000,174.474,21.770,1123.334871
14 Sep 2023 20:01:18.000,173.042,22.461,1100.964744
14 Sep 2023 20:01:23.000,171.536,23.157,1079.280396
14 Sep 2023 20:01:28.000,169.952,23.857,1058.324640
14 Sep 2023 20:01:33.000,168.288,24.558,1038.142234
14 Sep 2023 20:01:38.000,166.538,25.256,1018.779755
14 Sep 2023 20:01:43.000,164.701,25.950,1000.285406
14 Sep 2023 20:01:48.000,162.774,26.634,982.708765
14 Sep 2023 20:01:53.000,160.754,27.305,966.100456
14 Sep 2023 20:01:58.000,158.641,27.958,950.511748
14 Sep 2023 20:02:03.000,156.432,28.587,935.994059
14 Sep 2023 20:02:08.000,154.130,29.187,922.598395
14 Sep 2023 20:02:13.000,151.735,29.752,910.374695
14 Sep 2023 20:02:18.000,149.252,30.276,899.371123
14 Sep 2023 20:02:23.000,146.684,30.753,889.633290
14 Sep 2023 20:02:28.000,144.038,31.176,881.203461
14 Sep 2023 20:02:33.000,141.323,31.540,874.119742
14 Sep 2023 20:02:38.000,138.547,31.839,868.415294
14 Sep 2023 20:02:43.000,135.723,32.070,864.117618
14 Sep 2023 20:02:48.000,132.863,32.228,861.247900
14 Sep 2023 20:02:53.000,129.982,32.311,859.820572
14 Sep 2023 20:02:58.000,127.092,32.318,859.842853
14 Sep 2023 20:03:03.000,124.210,32.248,861.314638
14 Sep 2023 20:03:08.000,121.349,32.103,864.228501
14 Sep 2023 20:03:13.000,118.524,31.886,868.569851
14 Sep 2023 20:03:18.000,115.746,31.599,874.317324
14 Sep 2023 20:03:23.000,113.028,31.248,881.443256
14 Sep 2023 20:03:28.000,110.380,30.836,889.914345
14 Sep 2023 20:03:33.000,107.809,30.372,899.692372
14 Sep 2023 20:03:38.000,105.322,29.859,910.734975
14 Sep 2023 20:03:43.000,102.925,29.304,922.996464
14 Sep 2023 20:03:48.000,100.619,28.714,936.428627
14 Sep 2023 20:03:53.000,98.408,28.095,950.981495
14 Sep 2023 20:03:58.000,96.291,27.451,966.604046
14 Sep 2023 20:04:03.000,94.268,26.789,983.244862
14 Sep 2023 20:04:08.000,92.338,26.113,1000.852703
14 Sep 2023 20:04:13.000,90.499,25.427,1019.376966
14 Sep 2023 20:04:18.000,88.747,24.736,1038.768113
14 Sep 2023 20:04:23.000,87.081,24.042,1058.977996
14 Sep 2023 20:04:28.000,85.495,23.349,1079.960085
14 Sep 2023 20:04:33.000,83.988,22.659,1101.669683
14 Sep 2023 20:04:38.000,82.554,21.973,1124.064033
14 Sep 2023 20:04:43.000,81.192,21.295,1147.102420
14 Sep 2023 20:04:48.000,79.896,20.625,1170.746176
14 Sep 2023 20:04:53.000,78.663,19.965,1194.958716
14 Sep 2023 20:04:58.000,77.490,19.315,1219.705497
14 Sep 2023 20:05:03.000,76.374,18.676,1244.953970
14 Sep 2023 20:05:08.000,75.311,18.048,1270.673535
14 Sep 2023 20:05:13.000,74.299,17.433,1296.835441
14 Sep 2023 20:05:18.000,73.334,16.829,1323.412733
14 Sep 2023 20:05:23.000,72.413,16.238,1350.380145
14 Sep 2023 20:05:28.000,71.535,15.659,1377.714018
14 Sep 2023 20:05:33.000,70.696,15.092,1405.392509
14 Sep 2023 20:05:38.000,69.895,14.537,1433.394306
14 Sep 2023 20:05:43.000,69.129,13.994,1461.700328
14 Sep 2023 20:05:48.000,68.397,13.462,1490.292446
14 Sep 2023 20:05:53.000,67.695,12.942,1519.153713
14 Sep 2023 20:05:58.000,67.023,12.433,1548.268277
14 Sep 2023 20:06:03.000,66.380,11.935,1577.621293
14 Sep 2023 20:06:08.000,65.762,11.447,1607.198882
14 Sep 2023 20:06:13.000,65.170,10.969,1636.988044
14 Sep 2023 20:06:18.000,64.601,10.501,1666.976604
14 Sep 2023 20:06:23.000,64.054,10.043,1697.153153
14 Sep 2023 20:06:28.000,63.529,9.594,1727.506997
14 Sep 2023 20:06:33.000,63.024,9.154,1758.028103
14 Sep 2023 20:06:38.000,62.537,8.722,1788.707055
14 Sep 2023 20:06:43.000,62.069,8.299,1819.535009
14 Sep 2023 20:06:48.000,61.618,7.884,1850.503652
14 Sep 2023 20:06:53.000,61.183,7.476,1881.605176
14 Sep 2023 20:06:58.000,60.763,7.076,1912.832226
14 Sep 2023 20:07:03.000,60.358,6.683,1944.177873
14 Sep 2023 20:07:08.000,59.968,6.297,1975.635600
14 Sep 2023 20:07:13.000,59.590,5.917,2007.199248
14 Sep 2023 20:07:18.000,59.225,5.544,2038.863019
14 Sep 2023 20:07:23.000,58.872,5.177,2070.621425
14 Sep 2023 20:07:28.000,58.531,4.816,2102.469288
14 Sep 2023 20:07:33.000,58.201,4.461,2134.401713
14 Sep 2023 20:07:38.000,57.881,4.112,2166.414057
14 Sep 2023 20:07:43.000,57.571,3.767,2198.501933
14 Sep 2023 20:07:48.000,57.271,3.428,2230.661183
14 Sep 2023 20:07:53.000,56.980,3.094,2262.887852
14 Sep 2023 20:07:58.000,56.698,2.764,2295.178198
14 Sep 2023 20:08:03.000,56.424,2.439,2327.528663
14 Sep 2023 20:08:08.000,56.159,2.119,2359.935866
14 Sep 2023 20:08:13.000,55.901,1.803,2392.396585
14 Sep 2023 20:08:18.000,55.650,1.491,2424.907760
14 Sep 2023 20:08:23.000,55.407,1.183,2457.466472
14 Sep 2023 20:08:28.000,55.170,0.878,2490.069940
14 Sep 2023 20:08:33.000,54.940,0.578,2522.715511
14 Sep 2023 20:08:38.000,54.717,0.281,2555.400652
14 Sep 2023 20:08:42.784,54.508,0.000,2586.710207
14 Sep 2023 21:35:45.122,252.515,0.000,2565.421080
14 Sep 2023 21:35:50.000,252.818,0.279,2534.724727
14 Sep 2023 21:35:55.000,253.136,0.569,2503.321810
14 Sep 2023 21:36:00.000,253.461,0.861,2471.985380
14 Sep 2023 21:36:05.000,253.795,1.157,2440.718847
14 Sep 2023 21:36:10.000,254.137,1.456,2409.525795
14 Sep 2023 21:36:15.000,254.488,1.759,2378.409958
14 Sep 2023 21:36:20.000,254.848,2.065,2347.375263
14 Sep 2023 21:36:25.000,255.218,2.375,2316.425814
14 Sep 2023 21:36:30.000,255.598,2.689,2285.565912
14 Sep 2023 21:36:35.000,255.988,3.007,2254.800082
14 Sep 2023 21:36:40.000,256.388,3.328,2224.133060
14 Sep 2023 21:36:45.000,256.800,3.654,2193.569822
14 Sep 2023 21:36:50.000,257.223,3.984,2163.115592
14 Sep 2023 21:36:55.000,257.659,4.318,2132.775873
14 Sep 2023 21:37:00.000,258.107,4.657,2102.556439
14 Sep 2023 21:37:05.000,258.568,5.001,2072.463368
14 Sep 2023 21:37:10.000,259.043,5.349,2042.503057
14 Sep 2023 21:37:15.000,259.533,5.702,2012.682243
14 Sep 2023 21:37:20.000,260.037,6.061,1983.008023
14 Sep 2023 21:37:25.000,260.557,6.424,1953.487872
14 Sep 2023 21:37:30.000,261.094,6.793,1924.129677
14 Sep 2023 21:37:35.000,261.647,7.167,1894.941753
14 Sep 2023 21:37:40.000,262.218,7.546,1865.932864
14 Sep 2023 21:37:45.000,262.808,7.932,1837.112271
14 Sep 2023 21:37:50.000,263.417,8.323,1808.489748
14 Sep 2023 21:37:55.000,264.047,8.720,1780.075602
14 Sep 2023 21:38:00.000,264.698,9.123,1751.880735
14 Sep 2023 21:38:05.000,265.372,9.532,1723.916644
14 Sep 2023 21:38:10.000,266.069,9.947,1696.195492
14 Sep 2023 21:38:15.000,266.790,10.368,1668.730111
14 Sep 2023 21:38:20.000,267.537,10.796,1641.534063
14 Sep 2023 21:38:25.000,268.311,11.230,1614.621670
14 Sep 2023 21:38:30.000,269.113,11.670,1588.008058
14 Sep 2023 21:38:35.000,269.944,12.116,1561.709196
14 Sep 2023 21:38:40.000,270.806,12.568,1535.741937
14 Sep 2023 21:38:45.000,271.701,13.027,1510.124062
14 Sep 2023 21:38:50.000,272.629,13.491,1484.874310
14 Sep 2023 21:38:55.000,273.592,13.961,1460.012436
14 Sep 2023 21:39:00.000,274.591,14.436,1435.559224
14 Sep 2023 21:39:05.000,275.629,14.916,1411.536535
14 Sep 2023 21:39:10.000,276.707,15.401,1387.967334
14 Sep 2023 21:39:15.000,277.827,15.889,1364.875707
14 Sep 2023 21:39:20.000,278.990,16.381,1342.286880
14 Sep 2023 21:39:25.000,280.198,16.875,1320.227228
14 Sep 2023 21:39:30.000,281.452,17.372,1298.724258
14 Sep 2023 21:39:35.000,282.755,17.868,1277.806596
14 Sep 2023 21:39:40.000,284.107,18.365,1257.503972
14 Sep 2023 21:39:45.000,285.511,18.860,1237.847127
14 Sep 2023 21:39:50.000,286.967,19.351,1218.867777
14 Sep 2023 21:39:55.000,288.477,19.838,1200.598504
14 Sep 2023 21:40:00.000,290.042,20.318,1183.072624
14 Sep 2023 21:40:05.000,291.662,20.790,1166.324056
14 Sep 2023 21:40:10.000,293.338,21.251,1150.387122
14 Sep 2023 21:40:15.000,295.070,21.699,1135.296361
14 Sep 2023 21:40:20.000,296.858,22.132,1121.086269
14 Sep 2023 21:40:25.000,298.701,22.547,1107.791036
14 Sep 2023 21:40:30.000,300.597,22.941,1095.444246
14 Sep 2023 21:40:35.000,302.546,23.313,1084.078547
14 Sep 2023 21:40:40.000,304.545,23.658,1073.725312
14 Sep 2023 21:40:45.000,306.591,23.975,1064.414260
14 Sep 2023 21:40:50.000,308.680,24.261,1056.173116
14 Sep 2023 21:40:55.000,310.809,24.513,1049.027214
14 Sep 2023 21:41:00.000,312.972,24.730,1042.999153
14 Sep 2023 21:41:05.000,315.165,24.908,1038.108462
14 Sep 2023 21:41:10.000,317.381,25.047,1034.371298
14 Sep 2023 21:41:15.000,319.616,25.145,1031.800188
14 Sep 2023 21:41:20.000,321.861,25.201,1030.403799
14 Sep 2023 21:41:25.000,324.112,25.214,1030.186877
14 Sep 2023 21:41:30.000,326.360,25.185,1031.150033
14 Sep 2023 21:41:35.000,328.600,25.113,1033.289819
14 Sep 2023 21:41:40.000,330.825,25.000,1036.598777
14 Sep 2023 21:41:45.000,333.029,24.847,1041.065551
14 Sep 2023 21:41:50.000,335.206,24.655,1046.675081
14 Sep 2023 21:41:55.000,337.350,24.426,1053.408840
14 Sep 2023 21:42:00.000,339.456,24.162,1061.245129
14 Sep 2023 21:42:05.000,341.521,23.866,1070.159400
14 Sep 2023 21:42:10.000,343.540,23.541,1080.124605
14 Sep 2023 21:42:15.000,345.511,23.188,1091.111566
14 Sep 2023 21:42:20.000,347.430,22.811,1103.089339
14 Sep 2023 21:42:25.000,349.297,22.411,1116.025586
14 Sep 2023 21:42:30.000,351.108,21.993,1129.886922
14 Sep 2023 21:42:35.000,352.865,21.558,1144.639255
14 Sep 2023 21:42:40.000,354.565,21.110,1160.248089
14 Sep 2023 21:42:45.000,356.210,20.649,1176.678808
14 Sep 2023 21:42:50.000,357.798,20.179,1193.896927
14 Sep 2023 21:42:55.000,359.332,19.701,1211.868313
14 Sep 2023 21:43:00.000,0.812,19.217,1230.559374
14 Sep 2023 21:43:05.000,2.239,18.730,1249.937216
14 Sep 2023 21:43:10.000,3.614,18.240,1269.969775
14 Sep 2023 21:43:15.000,4.939,17.749,1290.625923
14 Sep 2023 21:43:20.000,6.214,17.258,1311.875547
14 Sep 2023 21:43:25.000,7.443,16.767,1333.689608
14 Sep 2023 21:43:30.000,8.626,16.280,1356.040181
14 Sep 2023 21:43:35.000,9.766,15.794,1378.900478
14 Sep 2023 21:43:40.000,10.863,15.313,1402.244858
14 Sep 2023 21:43:45.000,11.919,14.835,1426.048826
14 Sep 2023 21:43:50.000,12.937,14.362,1450.289018
14 Sep 2023 21:43:55.000,13.917,13.894,1474.943183
14 Sep 2023 21:44:00.000,14.862,13.432,1499.990154
14 Sep 2023 21:44:05.000,15.772,12.975,1525.409817
14 Sep 2023 21:44:10.000,16.650,12.523,1551.183079
14 Sep 2023 21:44:15.000,17.496,12.078,1577.291824
14 Sep 2023 21:44:20.000,18.313,11.639,1603.718881
14 Sep 2023 21:44:25.000,19.101,11.206,1630.447974
14 Sep 2023 21:44:30.000,19.862,10.779,1657.463687
14 Sep 2023 21:44:35.000,20.596,10.358,1684.751424
14 Sep 2023 21:44:40.000,21.306,9.943,1712.297363
14 Sep 2023 21:44:45.000,21.992,9.534,1740.088418
14 Sep 2023 21:44:50.000,22.656,9.132,1768.112207
14 Sep 2023 21:44:55.000,23.297,8.735,1796.357003
14 Sep 2023 21:45:00.000,23.918,8.344,1824.811704
14 Sep 2023 21:45:05.000,24.520,7.959,1853.465802
14 Sep 2023 21:45:10.000,25.102,7.579,1882.309343
14 Sep 2023 21:45:15.000,25.666,7.205,1911.333199
14 Sep 2023 21:45:20.000,26.213,6.837,1940.527840
14 Sep 2023 21:45:25.000,26.743,6.473,1969.885096
14 Sep 2023 21:45:30.000,27.258,6.115,1999.396943
14 Sep 2023 21:45:35.000,27.757,5.762,2029.055768
14 Sep 2023 21:45:40.000,28.242,5.414,2058.854350
14 Sep 2023 21:45:45.000,28.712,5.070,2088.785836
14 Sep 2023 21:45:50.000,29.170,4.731,2118.843718
14 Sep 2023 21:45:55.000,29.615,4.397,2149.021814
14 Sep 2023 21:46:00.000,30.047,4.067,2179.314250
14 Sep 2023 21:46:05.000,30.468,3.741,2209.715439
14 Sep 2023 21:46:10.000,30.878,3.420,2240.220069
14 Sep 2023 21:46:15.000,31.276,3.102,2270.823084
14 Sep 2023 21:46:20.000,31.665,2.789,2301.519670
14 Sep 2023 21:46:25.000,32.043,2.479,2332.305238
14 Sep 2023 21:46:30.000,32.412,2.173,2363.175421
14 Sep 2023 21:46:35.000,32.771,1.870,2394.126050
14 Sep 2023 21:46:40.000,33.122,1.571,2425.153146
14 Sep 2023 21:46:45.000,33.464,1.276,2456.252917
14 Sep 2023 21:46:50.000,33.798,0.983,2487.421735
14 Sep 2023 21:46:55.000,34.124,0.694,2518.656134
14 Sep 2023 21:47:00.000,34.442,0.408,2549.952806
14 Sep 2023 21:47:05.000,34.753,0.125,2581.308579
14 Sep 2023 21:47:07.222,34.889,-0.000,2595.259135
14 Sep 2023 23:17:00.082,300.331,0.000,2584.330337
14 Sep 2023 23:17:05.000,300.957,0.190,2563.519423
14 Sep 2023 23:17:10.000,301.604,0.381,2542.622587
14 Sep 2023 23:17:15.000,302.261,0.572,2521.996735
14 Sep 2023 23:17:20.000,302.929,0.762,2501.649099
14 Sep 2023 23:17:25.000,303.607,0.951,2481.587042
14 Sep 2023 23:17:30.000,304.296,1.139,2461.818051
14 Sep 2023 23:17:35.000,304.996,1.325,2442.349747
14 Sep 2023 23:17:40.000,305.707,1.510,2423.189873
14 Sep 2023 23:17:45.000,306.429,1.694,2404.346283
14 Sep 2023 23:17:50.000,307.163,1.876,2385.826943
14 Sep 2023 23:17:55.000,307.907,2.057,2367.639931
14 Sep 2023 23:18:00.000,308.663,2.235,2349.793418
14 Sep 2023 23:18:05.000,309.430,2.412,2332.295665
14 Sep 2023 23:18:10.000,310.209,2.586,2315.155018
14 Sep 2023 23:18:15.000,310.999,2.758,2298.379885
14 Sep 2023 23:18:20.000,311.801,2.928,2281.978745
14 Sep 2023 23:18:25.000,312.614,3.095,2265.960125
14 Sep 2023 23:18:30.000,313.439,3.260,2250.332584
14 Sep 2023 23:18:35.000,314.275,3.421,2235.104706
14 Sep 2023 23:18:40.000,315.122,3.580,2220.285084
14 Sep 2023 23:18:45.000,315.981,3.735,2205.882304
14 Sep 2023 23:18:50.000,316.851,3.888,2191.904930
14 Sep 2023 23:18:55.000,317.732,4.036,2178.361484
14 Sep 2023 23:19:00.000,318.624,4.181,2165.260434
14 Sep 2023 23:19:05.000,319.527,4.322,2152.610163
14 Sep 2023 23:19:10.000,320.440,4.459,2140.418957
14 Sep 2023 23:19:15.000,321.364,4.591,2128.694991
14 Sep 2023 23:19:20.000,322.298,4.719,2117.446297
14 Sep 2023 23:19:25.000,323.242,4.843,2106.680739
14 Sep 2023 23:19:30.000,324.196,4.961,2096.406006
14 Sep 2023 23:19:35.000,325.158,5.075,2086.629579
14 Sep 2023 23:19:40.000,326.130,5.184,2077.358706
14 Sep 2023 23:19:45.000,327.111,5.287,2068.600386
14 Sep 2023 23:19:50.000,328.100,5.385,2060.361340
14 Sep 2023 23:19:55.000,329.096,5.477,2052.647994
14 Sep 2023 23:20:00.000,330.100,5.563,2045.466453
14 Sep 2023 23:20:05.000,331.111,5.643,2038.822478
14 Sep 2023 23:20:10.000,332.129,5.717,2032.721467
14 Sep 2023 23:20:15.000,333.153,5.785,2027.168435
14 Sep 2023 23:20:20.000,334.182,5.847,2022.167993
14 Sep 2023 23:20:25.000,335.216,5.902,2017.724330
14 Sep 2023 23:20:30.000,336.254,5.951,2013.841202
14 Sep 2023 23:20:35.000,337.296,5.993,2010.521905
14 Sep 2023 23:20:40.000,338.342,6.028,2007.769270
14 Sep 2023 23:20:45.000,339.390,6.056,2005.585651
14 Sep 2023 23:20:50.000,340.440,6.078,2003.972912
14 Sep 2023 23:20:55.000,341.491,6.092,2002.932423
14 Sep 2023 23:21:00.000,342.544,6.100,2002.465045
14 Sep 2023 23:21:05.000,343.596,6.101,2002.571140
14 Sep 2023 23:21:10.000,344.649,6.095,2003.250558
14 Sep 2023 23:21:15.000,345.700,6.082,2004.502642
14 Sep 2023 23:21:20.000,346.749,6.062,2006.326230
14 Sep 2023 23:21:25.000,347.797,6.035,2008.719662
14 Sep 2023 23:21:30.000,348.841,6.001,2011.680785
14 Sep 2023 23:21:35.000,349.882,5.961,2015.206959
14 Sep 2023 23:21:40.000,350.919,5.914,2019.295075
14 Sep 2023 23:21:45.000,351.951,5.860,2023.941562
14 Sep 2023 23:21:50.000,352.978,5.800,2029.142404
14 Sep 2023 23:21:55.000,354.000,5.734,2034.893156
14 Sep 2023 23:22:00.000,355.015,5.661,2041.188960
14 Sep 2023 23:22:05.000,356.024,5.583,2048.024565
14 Sep 2023 23:22:10.000,357.025,5.498,2055.394348
14 Sep 2023 23:22:15.000,358.019,5.408,2063.292330
14 Sep 2023 23:22:20.000,359.005,5.312,2071.712206
14 Sep 2023 23:22:25.000,359.983,5.211,2080.647451
14 Sep 2023 23:22:30.000,0.952,5.104,2090.090982
14 Sep 2023 23:22:35.000,1.911,4.992,2100.035723
14 Sep 2023 23:22:40.000,2.862,4.875,2110.474267
14 Sep 2023 23:22:45.000,3.802,4.754,2121.398992
14 Sep 2023 23:22:50.000,4.733,4.628,2132.802080
14 Sep 2023 23:22:55.000,5.653,4.497,2144.675542
14 Sep 2023 23:23:00.000,6.563,4.362,2157.011242
14 Sep 2023 23:23:05.000,7.462,4.223,2169.800911
14 Sep 2023 23:23:10.000,8.351,4.081,2183.036178
14 Sep 2023 23:23:15.000,9.228,3.934,2196.708580
14 Sep 2023 23:23:20.000,10.094,3.784,2210.809591
14 Sep 2023 23:23:25.000,10.949,3.631,2225.330636
14 Sep 2023 23:23:30.000,11.793,3.474,2240.263106
14 Sep 2023 23:23:35.000,12.626,3.315,2255.598382
14 Sep 2023 23:23:40.000,13.447,3.153,2271.327842
14 Sep 2023 23:23:45.000,14.256,2.988,2287.442887
14 Sep 2023 23:23:50.000,15.054,2.820,2303.934945
14 Sep 2023 23:23:55.000,15.841,2.650,2320.795488
14 Sep 2023 23:24:00.000,16.616,2.478,2338.016046
14 Sep 2023 23:24:05.000,17.380,2.303,2355.588215
14 Sep 2023 23:24:10.000,18.133,2.127,2373.503667
14 Sep 2023 23:24:15.000,18.874,1.949,2391.754163
14 Sep 2023 23:24:20.000,19.604,1.769,2410.331558
14 Sep 2023 23:24:25.000,20.323,1.588,2429.227807
14 Sep 2023 23:24:30.000,21.031,1.405,2448.434980
14 Sep 2023 23:24:35.000,21.728,1.221,2467.945258
14 Sep 2023 23:24:40.000,22.414,1.035,2487.750940
14 Sep 2023 23:24:45.000,23.090,0.848,2507.844457
14 Sep 2023 23:24:50.000,23.755,0.661,2528.218365
14 Sep 2023 23:24:55.000,24.409,0.472,2548.865350
14 Sep 2023 23:25:00.000,25.053,0.283,2569.778236
14 Sep 2023 23:25:05.000,25.687,0.092,2590.949982
14 Sep 2023 23:25:07.411,25.989,0.000,2601.250613
15 Sep 2023 00:58:10.180,331.635,0.000,2598.634268
15 Sep 2023 00:58:15.000,332.309,0.149,2582.236115
15 Sep 2023 00:58:20.000,333.017,0.302,2565.538988
15 Sep 2023 00:58:25.000,333.734,0.452,2549.165834
15 Sep 2023 00:58:30.000,334.460,0.601,2533.123383
15 Sep 2023 00:58:35.000,335.195,0.747,2517.418393
15 Sep 2023 00:58:40.000,335.938,0.891,2502.057651
15 Sep 2023 00:58:45.000,336.691,1.033,2487.047950
15 Sep 2023 00:58:50.000,337.453,1.173,2472.396096
15 Sep 2023 00:58:55.000,338.223,1.309,2458.108885
15 Sep 2023 00:59:00.000,339.002,1.443,2444.193104
15 Sep 2023 00:59:05.000,339.790,1.575,2430.655508
15 Sep 2023 00:59:10.000,340.586,1.703,2417.502823
15 Sep 2023 00:59:15.000,341.391,1.828,2404.741721
15 Sep 2023 00:59:20.000,342.205,1.950,2392.378818
15 Sep 2023 00:59:25.000,343.026,2.069,2380.420655
15 Sep 2023 00:59:30.000,343.856,2.184,2368.873687
15 Sep 2023 00:59:35.000,344.693,2.296,2357.744271
15 Sep 2023 00:59:40.000,345.539,2.404,2347.038652
15 Sep 2023 00:59:45.000,346.391,2.508,2336.762944
15 Sep 2023 00:59:50.000,347.252,2.609,2326.923124
15 Sep 2023 00:59:55.000,348.119,2.705,2317.525014
15 Sep 2023 01:00:00.000,348.993,2.798,2308.574264
15 Sep 2023 01:00:05.000,349.874,2.886,2300.076341
15 Sep 2023 01:00:10.000,350.761,2.969,2292.036515
15 Sep 2023 01:00:15.000,351.655,3.049,2284.459841
15 Sep 2023 01:00:20.000,352.554,3.123,2277.351150
15 Sep 2023 01:00:25.000,353.458,3.194,2270.715031
15 Sep 2023 01:00:30.000,354.368,3.259,2264.555821
15 Sep 2023 01:00:35.000,355.282,3.319,2258.877590
15 Sep 2023 01:00:40.000,356.201,3.375,2253.684128
15 Sep 2023 01:00:45.000,357.124,3.426,2248.978938
15 Sep 2023 01:00:50.000,358.050,3.471,2244.765218
15 Sep 2023 01:00:55.000,358.980,3.512,2241.045858
15 Sep 2023 01:01:00.000,359.913,3.547,2237.823426
15 Sep 2023 01:01:05.000,0.848,3.577,2235.100160
15 Sep 2023 01:01:10.000,1.786,3.601,2232.877963
15 Sep 2023 01:01:15.000,2.725,3.621,2231.158395
15 Sep 2023 01:01:20.000,3.665,3.635,2229.942668
15 Sep 2023 01:01:25.000,4.606,3.644,2229.231640
15 Sep 2023 01:01:30.000,5.548,3.647,2229.025819
15 Sep 2023 01:01:35.000,6.489,3.645,2229.325351
15 Sep 2023 01:01:40.000,7.430,3.637,2230.130028
15 Sep 2023 01:01:45.000,8.370,3.624,2231.439286
15 Sep 2023 01:01:50.000,9.309,3.606,2233.252203
15 Sep 2023 01:01:55.000,10.246,3.583,2235.567510
15 Sep 2023 01:02:00.000,11.181,3.554,2238.383588
15 Sep 2023 01:02:05.000,12.113,3.520,2241.698478
15 Sep 2023 01:02:10.000,13.043,3.481,2245.509883
15 Sep 2023 01:02:15.000,13.969,3.436,2249.815183
15 Sep 2023 01:02:20.000,14.891,3.387,2254.611435
15 Sep 2023 01:02:25.000,15.809,3.333,2259.895387
15 Sep 2023 01:02:30.000,16.723,3.273,2265.663489
15 Sep 2023 01:02:35.000,17.632,3.209,2271.911902
15 Sep 2023 01:02:40.000,18.535,3.140,2278.636511
15 Sep 2023 01:02:45.000,19.433,3.067,2285.832936
15 Sep 2023 01:02:50.000,20.325,2.988,2293.496545
15 Sep 2023 01:02:55.000,21.211,2.906,2301.622471
15 Sep 2023 01:03:00.000,22.091,2.819,2310.205623
15 Sep 2023 01:03:05.000,22.964,2.728,2319.240694
15 Sep 2023 01:03:10.000,23.830,2.632,2328.722188
15 Sep 2023 01:03:15.000,24.689,2.533,2338.644424
15 Sep 2023 01:03:20.000,25.541,2.430,2349.001557
15 Sep 2023 01:03:25.000,26.385,2.323,2359.787586
15 Sep 2023 01:03:30.000,27.221,2.212,2370.996372
15 Sep 2023 01:03:35.000,28.049,2.098,2382.621652
15 Sep 2023 01:03:40.000,28.869,1.981,2394.657055
15 Sep 2023 01:03:45.000,29.681,1.860,2407.096110
15 Sep 2023 01:03:50.000,30.484,1.735,2419.932405
15 Sep 2023 01:03:55.000,31.279,1.608,2433.159037
15 Sep 2023 01:04:00.000,32.065,1.478,2446.769463
15 Sep 2023 01:04:05.000,32.843,1.345,2460.756953
15 Sep 2023 01:04:10.000,33.611,1.210,2475.114747
15 Sep 2023 01:04:15.000,34.371,1.071,2489.836055
15 Sep 2023 01:04:20.000,35.122,0.931,2504.914082
15 Sep 2023 01:04:25.000,35.864,0.787,2520.342026
15 Sep 2023 01:04:30.000,36.597,0.642,2536.113094
15 Sep 2023 01:04:35.000,37.322,0.494,2552.220505
15 Sep 2023 01:04:40.000,38.037,0.345,2568.657511
15 Sep 2023 01:04:45.000,38.743,0.193,2585.417385
15 Sep 2023 01:04:50.000,39.440,0.040,2602.493451
15 Sep 2023 01:04:51.279,39.617,0.000,2606.912898
15 Sep 2023 02:36:40.574,331.126,0.000,2604.321942
15 Sep 2023 02:36:45.000,331.570,0.212,2580.869137
15 Sep 2023 02:36:50.000,332.082,0.453,2554.524671
15 Sep 2023 02:36:55.000,332.604,0.695,2528.347418
15 Sep 2023 02:37:00.000,333.136,0.937,2502.343387
15 Sep 2023 02:37:05.000,333.680,1.181,2476.518789
15 Sep 2023 02:37:10.000,334.234,1.425,2450.880050
15 Sep 2023 02:37:15.000,334.800,1.671,2425.433813
15 Sep 2023 02:37:20.000,335.378,1.917,2400.186941
15 Sep 2023 02:37:25.000,335.968,2.164,2375.146532
15 Sep 2023 02:37:30.000,336.570,2.412,2350.319917
15 Sep 2023 02:37:35.000,337.184,2.661,2325.714666
15 Sep 2023 02:37:40.000,337.812,2.910,2301.338605
15 Sep 2023 02:37:45.000,338.453,3.159,2277.199807
15 Sep 2023 02:37:50.000,339.107,3.410,2253.306607
15 Sep 2023 02:37:55.000,339.776,3.660,2229.667604
15 Sep 2023 02:38:00.000,340.458,3.911,2206.291664
15 Sep 2023 02:38:05.000,341.156,4.163,2183.187928
15 Sep 2023 02:38:10.000,341.868,4.414,2160.365809
15 Sep 2023 02:38:15.000,342.595,4.665,2137.835003
15 Sep 2023 02:38:20.000,343.338,4.916,2115.605485
15 Sep 2023 02:38:25.000,344.097,5.167,2093.687509
15 Sep 2023 02:38:30.000,344.872,5.418,2072.091613
15 Sep 2023 02:38:35.000,345.663,5.668,2050.828616
15 Sep 2023 02:38:40.000,346.471,5.917,2029.909611
15 Sep 2023 02:38:45.000,347.297,6.165,2009.345969
15 Sep 2023 02:38:50.000,348.139,6.412,1989.149324
15 Sep 2023 02:38:55.000,348.999,6.657,1969.331574
15 Sep 2023 02:39:00.000,349.877,6.901,1949.904867
15 Sep 2023 02:39:05.000,350.773,7.143,1930.881591
15 Sep 2023 02:39:10.000,351.688,7.383,1912.274360
15 Sep 2023 02:39:15.000,352.620,7.620,1894.095998
15 Sep 2023 02:39:20.000,353.572,7.854,1876.359523
15 Sep 2023 02:39:25.000,354.541,8.086,1859.078120
15 Sep 2023 02:39:30.000,355.530,8.314,1842.265124
15 Sep 2023 02:39:35.000,356.538,8.539,1825.933988
15 Sep 2023 02:39:40.000,357.564,8.759,1810.098257
15 Sep 2023 02:39:45.000,358.609,8.975,1794.771532
15 Sep 2023 02:39:50.000,359.673,9.186,1779.967437
15 Sep 2023 02:39:55.000,0.755,9.392,1765.699577
15 Sep 2023 02:40:00.000,1.855,9.592,1751.981500
15 Sep 2023 02:40:05.000,2.974,9.786,1738.826647
15 Sep 2023 02:40:10.000,4.110,9.974,1726.248312
15 Sep 2023 02:40:15.000,5.264,10.154,1714.259584
15 Sep 2023 02:40:20.000,6.434,10.328,1702.873301
15 Sep 2023 02:40:25.000,7.621,10.493,1692.101990
15 Sep 2023 02:40:30.000,8.824,10.651,1681.957819
15 Sep 2023 02:40:35.000,10.041,10.800,1672.452531
15 Sep 2023 02:40:40.000,11.274,10.940,1663.597394
15 Sep 2023 02:40:45.000,12.519,11.070,1655.403140
15 Sep 2023 02:40:50.000,13.778,11.191,1647.879907
15 Sep 2023 02:40:55.000,15.049,11.301,1641.037187
15 Sep 2023 02:41:00.000,16.330,11.401,1634.883766
15 Sep 2023 02:41:05.000,17.622,11.490,1629.427679
15 Sep 2023 02:41:10.000,18.922,11.568,1624.676156
15 Sep 2023 02:41:15.000,20.230,11.635,1620.635579
15 Sep 2023 02:41:20.000,21.544,11.690,1617.311445
15 Sep 2023 02:41:25.000,22.863,11.734,1614.708323
15 Sep 2023 02:41:30.000,24.187,11.765,1612.829834
15 Sep 2023 02:41:35.000,25.513,11.784,1611.678616
15 Sep 2023 02:41:40.000,26.840,11.792,1611.256316
15 Sep 2023 02:41:45.000,28.168,11.787,1611.563573
15 Sep 2023 02:41:50.000,29.495,11.770,1612.600019
15 Sep 2023 02:41:55.000,30.819,11.741,1614.364274
15 Sep 2023 02:42:00.000,32.139,11.700,1616.853966
15 Sep 2023 02:42:05.000,33.454,11.648,1620.065735
15 Sep 2023 02:42:10.000,34.763,11.583,1623.995316
15 Sep 2023 02:42:15.000,36.065,11.508,1628.637366
15 Sep 2023 02:42:20.000,37.357,11.421,1633.985783
15 Sep 2023 02:42:25.000,38.641,11.323,1640.033565
15 Sep 2023 02:42:30.000,39.913,11.214,1646.772898
15 Sep 2023 02:42:35.000,41.174,11.096,1654.195199
15 Sep 2023 02:42:40.000,42.422,10.967,1662.291169
15 Sep 2023 02:42:45.000,43.656,10.829,1671.050851
15 Sep 2023 02:42:50.000,44.877,10.682,1680.463682
15 Sep 2023 02:42:55.000,46.082,10.527,1690.518547
15 Sep 2023 02:43:00.000,47.271,10.363,1701.203842
15 Sep 2023 02:43:05.000,48.444,10.191,1712.507524
15 Sep 2023 02:43:10.000,49.600,10.011,1724.417181
15 Sep 2023 02:43:15.000,50.739,9.825,1736.920074
15 Sep 2023 02:43:20.000,51.861,9.632,1750.003200
15 Sep 2023 02:43:25.000,52.964,9.433,1763.653339
15 Sep 2023 02:43:30.000,54.049,9.228,1777.857115
15 Sep 2023 02:43:35.000,55.115,9.018,1792.601027
15 Sep 2023 02:43:40.000,56.163,8.803,1807.871512
15 Sep 2023 02:43:45.000,57.191,8.583,1823.654977
15 Sep 2023 02:43:50.000,58.202,8.360,1839.937837
15 Sep 2023 02:43:55.000,59.193,8.132,1856.706566
15 Sep 2023 02:44:00.000,60.165,7.901,1873.947708
15 Sep 2023 02:44:05.000,61.119,7.667,1891.647929
15 Sep 2023 02:44:10.000,62.054,7.430,1909.794030
15 Sep 2023 02:44:15.000,62.970,7.190,1928.372980
15 Sep 2023 02:44:20.000,63.868,6.949,1947.371931
15 Sep 2023 02:44:25.000,64.748,6.705,1966.778243
15 Sep 2023 02:44:30.000,65.610,6.460,1986.579492
15 Sep 2023 02:44:35.000,66.455,6.213,2006.763500
15 Sep 2023 02:44:40.000,67.281,5.965,2027.318334
15 Sep 2023 02:44:45.000,68.091,5.716,2048.232310
15 Sep 2023 02:44:50.000,68.884,5.466,2069.494020
15 Sep 2023 02:44:55.000,69.660,5.215,2091.092319
15 Sep 2023 02:45:00.000,70.420,4.964,2113.016351
15 Sep 2023 02:45:05.000,71.164,4.712,2135.255525
15 Sep 2023 02:45:10.000,71.892,4.461,2157.799533
15 Sep 2023 02:45:15.000,72.605,4.209,2180.638358
15 Sep 2023 02:45:20.000,73.303,3.958,2203.762249
15 Sep 2023 02:45:25.000,73.986,3.706,2227.161741
15 Sep 2023 02:45:30.000,74.655,3.455,2250.827647
15 Sep 2023 02:45:35.000,75.309,3.204,2274.751051
15 Sep 2023 02:45:40.000,75.950,2.954,2298.923298
15 Sep 2023 02:45:45.000,76.578,2.704,2323.336005
15 Sep 2023 02:45:50.000,77.193,2.455,2347.981053
15 Sep 2023 02:45:55.000,77.794,2.207,2372.850570
15 Sep 2023 02:46:00.000,78.384,1.959,2397.936933
15 Sep 2023 02:46:05.000,78.961,1.712,2423.232762
15 Sep 2023 02:46:10.000,79.526,1.466,2448.730921
15 Sep 2023 02:46:15.000,80.080,1.221,2474.424494
15 Sep 2023 02:46:20.000,80.622,0.977,2500.306801
15 Sep 2023 02:46:25.000,81.154,0.733,2526.371368
15 Sep 2023 02:46:30.000,81.675,0.491,2552.611943
15 Sep 2023 02:46:35.000,82.185,0.250,2579.022475
15 Sep 2023 02:46:40.000,82.686,0.009,2605.597117
15 Sep 2023 02:46:40.191,82.704,0.000,2606.617975
15 Sep 2023 04:14:39.877,317.173,0.000,2607.162355
15 Sep 2023 04:14:44.000,317.235,0.251,2579.384006
15 Sep 2023 04:14:49.000,317.312,0.559,2545.702091
15 Sep 2023 04:14:54.000,317.391,0.871,2512.024106
15 Sep 2023 04:14:59.000,317.471,1.188,2478.351193
15 Sep 2023 04:15:04.000,317.553,1.509,2444.684541
15 Sep 2023 04:15:09.000,317.637,1.835,2411.025399
15 Sep 2023 04:15:14.000,317.723,2.165,2377.375067
15 Sep 2023 04:15:19.000,317.811,2.501,2343.734906
15 Sep 2023 04:15:24.000,317.900,2.842,2310.106344
15 Sep 2023 04:15:29.000,317.993,3.189,2276.490876
15 Sep 2023 04:15:34.000,318.087,3.541,2242.890079
15 Sep 2023 04:15:39.000,318.184,3.900,2209.305604
15 Sep 2023 04:15:44.000,318.283,4.264,2175.739190
15 Sep 2023 04:15:49.000,318.386,4.636,2142.192671
15 Sep 2023 04:15:54.000,318.491,5.014,2108.667976
15 Sep 2023 04:15:59.000,318.598,5.400,2075.167154
15 Sep 2023 04:16:04.000,318.710,5.794,2041.692360
15 Sep 2023 04:16:09.000,318.824,6.195,2008.245880
15 Sep 2023 04:16:14.000,318.942,6.605,1974.830136
15 Sep 2023 04:16:19.000,319.063,7.024,1941.447700
15 Sep 2023 04:16:24.000,319.189,7.451,1908.101301
15 Sep 2023 04:16:29.000,319.319,7.889,1874.793849
15 Sep 2023 04:16:34.000,319.453,8.337,1841.528438
15 Sep 2023 04:16:39.000,319.591,8.796,1808.308371
15 Sep 2023 04:16:44.000,319.735,9.266,1775.137176
15 Sep 2023 04:16:49.000,319.884,9.748,1742.018627
15 Sep 2023 04:16:54.000,320.038,10.243,1708.956763
15 Sep 2023 04:16:59.000,320.198,10.751,1675.955922
15 Sep 2023 04:17:04.000,320.365,11.274,1643.020758
15 Sep 2023 04:17:09.000,320.538,11.811,1610.156281
15 Sep 2023 04:17:14.000,320.719,12.365,1577.367887
15 Sep 2023 04:17:19.000,320.908,12.935,1544.661396
15 Sep 2023 04:17:24.000,321.104,13.523,1512.043099
15 Sep 2023 04:17:29.000,321.310,14.130,1479.519802
15 Sep 2023 04:17:34.000,321.526,14.758,1447.098885
15 Sep 2023 04:17:39.000,321.752,15.407,1414.788352
15 Sep 2023 04:17:44.000,321.989,16.079,1382.596911
15 Sep 2023 04:17:49.000,322.238,16.775,1350.534046
15 Sep 2023 04:17:54.000,322.501,17.497,1318.610101
15 Sep 2023 04:17:59.000,322.778,18.247,1286.836371
15 Sep 2023 04:18:04.000,323.070,19.027,1255.225225
15 Sep 2023 04:18:09.000,323.380,19.838,1223.790217
15 Sep 2023 04:18:14.000,323.709,20.684,1192.546224
15 Sep 2023 04:18:19.000,324.058,21.566,1161.509610
15 Sep 2023 04:18:24.000,324.430,22.487,1130.698394
15 Sep 2023 04:18:29.000,324.827,23.450,1100.132448
15 Sep 2023 04:18:34.000,325.253,24.458,1069.833732
15 Sep 2023 04:18:39.000,325.709,25.514,1039.826529
15 Sep 2023 04:18:44.000,326.200,26.622,1010.137737
15 Sep 2023 04:18:49.000,326.729,27.786,980.797184
15 Sep 2023 04:18:54.000,327.303,29.009,951.837977
15 Sep 2023 04:18:59.000,327.926,30.295,923.296890
15 Sep 2023 04:19:04.000,328.605,31.651,895.214802
15 Sep 2023 04:19:09.000,329.349,33.079,867.637150
15 Sep 2023 04:19:14.000,330.167,34.585,840.614443
15 Sep 2023 04:19:19.000,331.070,36.173,814.202780
15 Sep 2023 04:19:24.000,332.072,37.848,788.464396
15 Sep 2023 04:19:29.000,333.190,39.615,763.468196
15 Sep 2023 04:19:34.000,334.446,41.476,739.290258
15 Sep 2023 04:19:39.000,335.864,43.434,716.014242
15 Sep 2023 04:19:44.000,337.478,45.490,693.731680
15 Sep 2023 04:19:49.000,339.328,47.642,672.542039
15 Sep 2023 04:19:54.000,341.466,49.883,652.552476
15 Sep 2023 04:19:59.000,343.957,52.205,633.877186
15 Sep 2023 04:20:04.000,346.888,54.588,616.636200
15 Sep 2023 04:20:09.000,350.364,57.007,600.953550
15 Sep 2023 04:20:14.000,354.523,59.421,586.954682
15 Sep 2023 04:20:19.000,359.530,61.774,574.763116
15 Sep 2023 04:20:24.000,5.569,63.988,564.496384
15 Sep 2023 04:20:29.000,12.816,65.961,556.261443
15 Sep 2023 04:20:34.000,21.371,67.569,550.149847
15 Sep 2023 04:20:39.000,31.139,68.676,546.233098
15 Sep 2023 04:20:44.000,41.736,69.168,544.558815
15 Sep 2023 04:20:49.000,52.504,68.985,545.147732
15 Sep 2023 04:20:54.000,62.723,68.148,547.992610
15 Sep 2023 04:20:59.000,71.867,66.754,553.058632
15 Sep 2023 04:21:04.000,79.716,64.931,560.285481
15 Sep 2023 04:21:09.000,86.295,62.812,569.590784
15 Sep 2023 04:21:14.000,91.755,60.509,580.874478
15 Sep 2023 04:21:19.000,96.284,58.113,594.023588
15 Sep 2023 04:21:24.000,100.057,55.687,608.916983
15 Sep 2023 04:21:29.000,103.225,53.280,625.429725
15 Sep 2023 04:21:34.000,105.907,50.924,643.436759
15 Sep 2023 04:21:39.000,108.198,48.641,662.815881
15 Sep 2023 04:21:44.000,110.173,46.443,683.449912
15 Sep 2023 04:21:49.000,111.890,44.340,705.228207
15 Sep 2023 04:21:54.000,113.393,42.334,728.047551
15 Sep 2023 04:21:59.000,114.719,40.425,751.812583
15 Sep 2023 04:22:04.000,115.897,38.613,776.435881
15 Sep 2023 04:22:09.000,116.949,36.894,801.837758
15 Sep 2023 04:22:14.000,117.894,35.263,827.945918
15 Sep 2023 04:22:19.000,118.748,33.718,854.695258
15 Sep 2023 04:22:24.000,119.523,32.253,882.026225
15 Sep 2023 04:22:29.000,120.229,30.862,909.885963
15 Sep 2023 04:22:34.000,120.876,29.543,938.226651
15 Sep 2023 04:22:39.000,121.469,28.289,967.005278
15 Sep 2023 04:22:44.000,122.017,27.097,996.183142
15 Sep 2023 04:22:49.000,122.523,25.963,1025.725418
15 Sep 2023 04:22:54.000,122.992,24.882,1055.600743
15 Sep 2023 04:22:59.000,123.429,23.851,1085.780849
15 Sep 2023 04:23:04.000,123.837,22.866,1116.240224
15 Sep 2023 04:23:09.000,124.218,21.925,1146.955823
15 Sep 2023 04:23:14.000,124.575,21.025,1177.906796
15 Sep 2023 04:23:19.000,124.910,20.161,1209.074248
15 Sep 2023 04:23:24.000,125.225,19.334,1240.441048
15 Sep 2023 04:23:29.000,125.523,18.539,1271.991614
15 Sep 2023 04:23:34.000,125.804,17.774,1303.711776
15 Sep 2023 04:23:39.000,126.070,17.039,1335.588603
15 Sep 2023 04:23:44.000,126.322,16.330,1367.610301
15 Sep 2023 04:23:49.000,126.562,15.646,1399.766071
15 Sep 2023 04:23:54.000,126.790,14.986,1432.046027
15 Sep 2023 04:23:59.000,127.006,14.349,1464.441096
15 Sep 2023 04:24:04.000,127.213,13.732,1496.942945
15 Sep 2023 04:24:09.000,127.410,13.134,1529.543890
15 Sep 2023 04:24:14.000,127.599,12.555,1562.236858
15 Sep 2023 04:24:19.000,127.779,11.994,1595.015314
15 Sep 2023 04:24:24.000,127.952,11.448,1627.873214
15 Sep 2023 04:24:29.000,128.118,10.919,1660.804961
15 Sep 2023 04:24:34.000,128.277,10.403,1693.805362
15 Sep 2023 04:24:39.000,128.430,9.902,1726.869591
15 Sep 2023 04:24:44.000,128.577,9.413,1759.993160
15 Sep 2023 04:24:49.000,128.719,8.937,1793.171888
15 Sep 2023 04:24:54.000,128.856,8.473,1826.401871
15 Sep 2023 04:24:59.000,128.987,8.020,1859.679465
15 Sep 2023 04:25:04.000,129.114,7.577,1893.001257
15 Sep 2023 04:25:09.000,129.237,7.144,1926.364052
15 Sep 2023 04:25:14.000,129.356,6.721,1959.764848
15 Sep 2023 04:25:19.000,129.470,6.307,1993.200836
15 Sep 2023 04:25:24.000,129.581,5.901,2026.669361
15 Sep 2023 04:25:29.000,129.689,5.503,2060.167930
15 Sep 2023 04:25:34.000,129.793,5.114,2093.694189
15 Sep 2023 04:25:39.000,129.894,4.732,2127.245916
15 Sep 2023 04:25:44.000,129.992,4.357,2160.821010
15 Sep 2023 04:25:49.000,130.088,3.988,2194.417488
15 Sep 2023 04:25:54.000,130.180,3.626,2228.033463
15 Sep 2023 04:25:59.000,130.270,3.271,2261.667150
15 Sep 2023 04:26:04.000,130.358,2.921,2295.316848
15 Sep 2023 04:26:09.000,130.443,2.577,2328.980949
15 Sep 2023 04:26:14.000,130.526,2.239,2362.657916
15 Sep 2023 04:26:19.000,130.607,1.905,2396.346285
15 Sep 2023 04:26:24.000,130.685,1.577,2430.044658
15 Sep 2023 04:26:29.000,130.762,1.253,2463.751701
15 Sep 2023 04:26:34.000,130.837,0.935,2497.466143
15 Sep 2023 04:26:39.000,130.910,0.620,2531.186763
15 Sep 2023 04:26:44.000,130.981,0.310,2564.912392
15 Sep 2023 04:26:49.000,131.051,0.004,2598.641907
15 Sep 2023 04:26:49.055,131.052,0.000,2599.013947
15 Sep 2023 05:53:57.787,289.814,0.000,2607.608589
15 Sep 2023 05:54:02.000,289.389,0.200,2585.335366
15 Sep 2023 05:54:07.000,288.876,0.439,2559.071207
15 Sep 2023 05:54:12.000,288.351,0.679,2532.997951
15 Sep 2023 05:54:17.000,287.815,0.919,2507.122269
15 Sep 2023 05:54:22.000,287.268,1.159,2481.451053
15 Sep 2023 05:54:27.000,286.708,1.401,2455.991406
15 Sep 2023 05:54:32.000,286.137,1.643,2430.750676
15 Sep 2023 05:54:37.000,285.553,1.885,2405.736432
15 Sep 2023 05:54:42.000,284.957,2.128,2380.956499
15 Sep 2023 05:54:47.000,284.348,2.371,2356.418936
15 Sep 2023 05:54:52.000,283.725,2.615,2332.132057
15 Sep 2023 05:54:57.000,283.089,2.858,2308.104430
15 Sep 2023 05:55:02.000,282.439,3.102,2284.344883
15 Sep 2023 05:55:07.000,281.775,3.346,2260.862507
15 Sep 2023 05:55:12.000,281.097,3.590,2237.666658
15 Sep 2023 05:55:17.000,280.403,3.833,2214.766958
15 Sep 2023 05:55:22.000,279.695,4.077,2192.173305
15 Sep 2023 05:55:27.000,278.971,4.319,2169.895851
15 Sep 2023 05:55:32.000,278.232,4.562,2147.945036
15 Sep 2023 05:55:37.000,277.476,4.803,2126.331547
15 Sep 2023 05:55:42.000,276.705,5.043,2105.066356
15 Sep 2023 05:55:47.000,275.917,5.283,2084.160677
15 Sep 2023 05:55:52.000,275.112,5.521,2063.625988
15 Sep 2023 05:55:57.000,274.290,5.757,2043.474011
15 Sep 2023 05:56:02.000,273.451,5.992,2023.716698
15 Sep 2023 05:56:07.000,272.595,6.225,2004.366237
15 Sep 2023 05:56:12.000,271.721,6.455,1985.435026
15 Sep 2023 05:56:17.000,270.830,6.683,1966.935654
15 Sep 2023 05:56:22.000,269.921,6.909,1948.880892
15 Sep 2023 05:56:27.000,268.994,7.131,1931.283670
15 Sep 2023 05:56:32.000,268.049,7.350,1914.157051
15 Sep 2023 05:56:37.000,267.086,7.565,1897.514209
15 Sep 2023 05:56:42.000,266.105,7.776,1881.368404
15 Sep 2023 05:56:47.000,265.106,7.983,1865.732935
15 Sep 2023 05:56:52.000,264.089,8.185,1850.621120
15 Sep 2023 05:56:57.000,263.055,8.382,1836.046265
15 Sep 2023 05:57:02.000,262.003,8.574,1822.021607
15 Sep 2023 05:57:07.000,260.934,8.759,1808.560277
15 Sep 2023 05:57:12.000,259.848,8.939,1795.675267
15 Sep 2023 05:57:17.000,258.745,9.112,1783.379365
15 Sep 2023 05:57:22.000,257.627,9.278,1771.685126
15 Sep 2023 05:57:27.000,256.492,9.437,1760.604804
15 Sep 2023 05:57:32.000,255.343,9.588,1750.150299
15 Sep 2023 05:57:37.000,254.179,9.731,1740.333124
15 Sep 2023 05:57:42.000,253.001,9.865,1731.164327
15 Sep 2023 05:57:47.000,251.810,9.991,1722.654448
15 Sep 2023 05:57:52.000,250.606,10.107,1714.813469
15 Sep 2023 05:57:57.000,249.391,10.214,1707.650752
15 Sep 2023 05:58:02.000,248.166,10.311,1701.174997
15 Sep 2023 05:58:07.000,246.930,10.398,1695.394182
15 Sep 2023 05:58:12.000,245.686,10.475,1690.315525
15 Sep 2023 05:58:17.000,244.435,10.541,1685.945442
15 Sep 2023 05:58:22.000,243.177,10.596,1682.289496
15 Sep 2023 05:58:27.000,241.913,10.640,1679.352383
15 Sep 2023 05:58:32.000,240.646,10.673,1677.137881
15 Sep 2023 05:58:37.000,239.375,10.694,1675.648843
15 Sep 2023 05:58:42.000,238.102,10.705,1674.887159
15 Sep 2023 05:58:47.000,236.829,10.703,1674.853770
15 Sep 2023 05:58:52.000,235.557,10.691,1675.548636
15 Sep 2023 05:58:57.000,234.286,10.667,1676.970756
15 Sep 2023 05:59:02.000,233.018,10.632,1679.118154
15 Sep 2023 05:59:07.000,231.754,10.586,1681.987917
15 Sep 2023 05:59:12.000,230.496,10.529,1685.576212
15 Sep 2023 05:59:17.000,229.244,10.461,1689.878242
15 Sep 2023 05:59:22.000,227.999,10.382,1694.888379
15 Sep 2023 05:59:27.000,226.763,10.293,1700.600147
15 Sep 2023 05:59:32.000,225.537,10.194,1707.006256
15 Sep 2023 05:59:37.000,224.321,10.085,1714.098660
15 Sep 2023 05:59:42.000,223.117,9.966,1721.868597
15 Sep 2023 05:59:47.000,221.925,9.839,1730.306634
15 Sep 2023 05:59:52.000,220.746,9.702,1739.402733
15 Sep 2023 05:59:57.000,219.580,9.558,1749.146287
15 Sep 2023 06:00:02.000,218.429,9.405,1759.526187
15 Sep 2023 06:00:07.000,217.294,9.244,1770.530861
15 Sep 2023 06:00:12.000,216.173,9.076,1782.148350
15 Sep 2023 06:00:17.000,215.069,8.901,1794.366339
15 Sep 2023 06:00:22.000,213.982,8.720,1807.172226
15 Sep 2023 06:00:27.000,212.911,8.533,1820.553165
15 Sep 2023 06:00:32.000,211.857,8.339,1834.496113
15 Sep 2023 06:00:37.000,210.821,8.141,1848.987887
15 Sep 2023 06:00:42.000,209.802,7.937,1864.015198
15 Sep 2023 06:00:47.000,208.801,7.729,1879.564700
15 Sep 2023 06:00:52.000,207.817,7.517,1895.623026
15 Sep 2023 06:00:57.000,206.852,7.300,1912.176830
15 Sep 2023 06:01:02.000,205.904,7.080,1929.212812
15 Sep 2023 06:01:07.000,204.975,6.857,1946.717759
15 Sep 2023 06:01:12.000,204.063,6.630,1964.678566
15 Sep 2023 06:01:17.000,203.169,6.401,1983.082267
15 Sep 2023 06:01:22.000,202.292,6.170,2001.916053
15 Sep 2023 06:01:27.000,201.433,5.936,2021.167301
15 Sep 2023 06:01:32.000,200.591,5.700,2040.823576
15 Sep 2023 06:01:37.000,199.766,5.463,2060.872667
15 Sep 2023 06:01:42.000,198.958,5.224,2081.302582
15 Sep 2023 06:01:47.000,198.166,4.984,2102.101574
15 Sep 2023 06:01:52.000,197.391,4.743,2123.258139
15 Sep 2023 06:01:57.000,196.632,4.501,2144.761028
15 Sep 2023 06:02:02.000,195.888,4.258,2166.599256
15 Sep 2023 06:02:07.000,195.161,4.014,2188.762099
15 Sep 2023 06:02:12.000,194.448,3.771,2211.239106
15 Sep 2023 06:02:17.000,193.750,3.526,2234.020092
15 Sep 2023 06:02:22.000,193.068,3.282,2257.095145
15 Sep 2023 06:02:27.000,192.399,3.038,2280.454619
15 Sep 2023 06:02:32.000,191.744,2.794,2304.089142
15 Sep 2023 06:02:37.000,191.104,2.549,2327.989604
15 Sep 2023 06:02:42.000,190.476,2.306,2352.147161
15 Sep 2023 06:02:47.000,189.862,2.062,2376.553226
15 Sep 2023 06:02:52.000,189.261,1.819,2401.199471
15 Sep 2023 06:02:57.000,188.672,1.576,2426.077818
15 Sep 2023 06:03:02.000,188.096,1.334,2451.180436
15 Sep 2023 06:03:07.000,187.531,1.093,2476.499736
15 Sep 2023 06:03:12.000,186.978,0.852,2502.028364
15 Sep 2023 06:03:17.000,186.437,0.612,2527.759198
15 Sep 2023 06:03:22.000,185.906,0.372,2553.685338
15 Sep 2023 06:03:27.000,185.387,0.134,2579.800106
15 Sep 2023 06:03:29.802,185.100,0.000,2594.513523
15 Sep 2023 19:35:54.681,202.802,0.000,2552.008830
15 Sep 2023 19:35:59.000,202.606,0.257,2523.746839
15 Sep 2023 19:36:04.000,202.374,0.558,2491.064268
15 Sep 2023 19:36:09.000,202.136,0.863,2458.422059
15 Sep 2023 19:36:14.000,201.891,1.172,2425.822816
15 Sep 2023 19:36:19.000,201.639,1.484,2393.269267
15 Sep 2023 19:36:24.000,201.380,1.801,2360.764273
15 Sep 2023 19:36:29.000,201.113,2.122,2328.310841
15 Sep 2023 19:36:34.000,200.839,2.448,2295.912122
15 Sep 2023 19:36:39.000,200.557,2.778,2263.571435
15 Sep 2023 19:36:44.000,200.266,3.113,2231.292270
15 Sep 2023 19:36:49.000,199.966,3.453,2199.078301
15 Sep 2023 19:36:54.000,199.657,3.798,2166.933399
15 Sep 2023 19:36:59.000,199.338,4.149,2134.861644
15 Sep 2023 19:37:04.000,199.008,4.505,2102.867342
15 Sep 2023 19:37:09.000,198.669,4.867,2070.955041
15 Sep 2023 19:37:14.000,198.318,5.235,2039.129545
15 Sep 2023 19:37:19.000,197.955,5.609,2007.395937
15 Sep 2023 19:37:24.000,197.580,5.990,1975.759595
15 Sep 2023 19:37:29.000,197.191,6.378,1944.226213
15 Sep 2023 19:37:34.000,196.790,6.772,1912.801831
15 Sep 2023 19:37:39.000,196.374,7.174,1881.492850
15 Sep 2023 19:37:44.000,195.942,7.584,1850.306070
15 Sep 2023 19:37:49.000,195.495,8.001,1819.248709
15 Sep 2023 19:37:54.000,195.032,8.426,1788.328443
15 Sep 2023 19:37:59.000,194.550,8.860,1757.553436
15 Sep 2023 19:38:04.000,194.050,9.303,1726.932379
15 Sep 2023 19:38:09.000,193.531,9.755,1696.474528
15 Sep 2023 19:38:14.000,192.990,10.216,1666.189748
15 Sep 2023 19:38:19.000,192.428,10.687,1636.088562
15 Sep 2023 19:38:24.000,191.843,11.168,1606.182198
15 Sep 2023 19:38:29.000,191.233,11.660,1576.482644
15 Sep 2023 19:38:34.000,190.597,12.162,1547.002706
15 Sep 2023 19:38:39.000,189.934,12.675,1517.756067
15 Sep 2023 19:38:44.000,189.242,13.200,1488.757360
15 Sep 2023 19:38:49.000,188.519,13.737,1460.022233
15 Sep 2023 19:38:54.000,187.763,14.286,1431.567424
15 Sep 2023 19:38:59.000,186.972,14.847,1403.410843
15 Sep 2023 19:39:04.000,186.145,15.420,1375.571655
15 Sep 2023 19:39:09.000,185.278,16.007,1348.070363
15 Sep 2023 19:39:14.000,184.370,16.606,1320.928904
15 Sep 2023 19:39:19.000,183.417,17.218,1294.170738
15 Sep 2023 19:39:24.000,182.417,17.843,1267.820944
15 Sep 2023 19:39:29.000,181.368,18.481,1241.906313
15 Sep 2023 19:39:34.000,180.265,19.131,1216.455442
15 Sep 2023 19:39:39.000,179.106,19.794,1191.498819
15 Sep 2023 19:39:44.000,177.888,20.468,1167.068909
15 Sep 2023 19:39:49.000,176.606,21.152,1143.200221
15 Sep 2023 19:39:54.000,175.257,21.846,1119.929361
15 Sep 2023 19:39:59.000,173.838,22.548,1097.295072
15 Sep 2023 19:40:04.000,172.344,23.257,1075.338239
15 Sep 2023 19:40:09.000,170.772,23.971,1054.101863
15 Sep 2023 19:40:14.000,169.117,24.687,1033.630996
15 Sep 2023 19:40:19.000,167.377,25.402,1013.972626
15 Sep 2023 19:40:24.000,165.547,26.112,995.175500
15 Sep 2023 19:40:29.000,163.625,26.816,977.289888
15 Sep 2023 19:40:34.000,161.608,27.506,960.367261
15 Sep 2023 19:40:39.000,159.495,28.180,944.459903
15 Sep 2023 19:40:44.000,157.284,28.831,929.620415
15 Sep 2023 19:40:49.000,154.976,29.454,915.901159
15 Sep 2023 19:40:54.000,152.571,30.043,903.353594
15 Sep 2023 19:40:59.000,150.073,30.591,892.027549
15 Sep 2023 19:41:04.000,147.487,31.091,881.970434
15 Sep 2023 19:41:09.000,144.817,31.538,873.226402
15 Sep 2023 19:41:14.000,142.074,31.925,865.835507
15 Sep 2023 19:41:19.000,139.266,32.246,859.832877
15 Sep 2023 19:41:24.000,136.405,32.497,855.247929
