xian_to_starlink-1041_Access_AER.csv

"Time (UTCG)","Azimuth (deg)","Elevation (deg)","Range (km)"
14 Sep 2023 15:28:32.852,134.371,0.000,2711.867030
14 Sep 2023 15:29:32.000,125.302,0.749,2631.606269
14 Sep 2023 15:30:32.000,115.740,0.952,2611.523854
14 Sep 2023 15:31:32.000,106.263,0.567,2654.828481
14 Sep 2023 15:32:12.449,100.144,0.000,2718.449120
14 Sep 2023 17:02:56.494,205.945,0.000,2709.224868
14 Sep 2023 17:03:56.000,203.481,3.780,2322.787219
14 Sep 2023 17:04:56.000,199.944,8.340,1940.747282
14 Sep 2023 17:05:56.000,194.526,14.091,1574.028533
14 Sep 2023 17:06:56.000,185.397,21.696,1238.491420
14 Sep 2023 17:07:56.000,168.271,31.412,969.176589
14 Sep 2023 17:08:56.000,136.670,38.969,834.502492
14 Sep 2023 17:09:56.000,100.467,35.144,897.893895
14 Sep 2023 17:10:56.000,78.421,25.297,1126.236930
14 Sep 2023 17:11:56.000,66.981,16.849,1442.636017
14 Sep 2023 17:12:56.000,60.499,10.491,1800.381410
14 Sep 2023 17:13:56.000,56.438,5.548,2178.145884
14 Sep 2023 17:14:56.000,53.693,1.495,2565.938642
14 Sep 2023 17:15:20.797,52.807,0.000,2727.824565
14 Sep 2023 18:42:52.054,254.153,0.000,2717.159819
14 Sep 2023 18:43:52.000,258.259,3.555,2351.520750
14 Sep 2023 18:44:52.000,263.847,7.643,2000.591144
14 Sep 2023 18:45:52.000,271.814,12.411,1675.894214
14 Sep 2023 18:46:52.000,283.664,17.826,1397.430271
14 Sep 2023 18:47:52.000,301.312,23.004,1199.159379
14 Sep 2023 18:48:52.000,324.634,25.401,1125.095365
14 Sep 2023 18:49:52.000,347.977,23.069,1198.638063
14 Sep 2023 18:50:52.000,5.669,17.933,1396.304372
14 Sep 2023 18:51:52.000,17.566,12.542,1674.004985
14 Sep 2023 18:52:52.000,25.584,7.790,1997.732390
14 Sep 2023 18:53:52.000,31.228,3.714,2347.466112
14 Sep 2023 18:54:52.000,35.400,0.166,2712.009922
14 Sep 2023 18:54:54.996,35.580,0.000,2730.474662
14 Sep 2023 20:25:21.473,299.752,0.000,2726.426028
14 Sep 2023 20:26:21.000,307.329,2.297,2483.437538
14 Sep 2023 20:27:21.000,316.454,4.399,2282.130956
14 Sep 2023 20:28:21.000,327.087,6.051,2137.777113
14 Sep 2023 20:29:21.000,338.896,6.968,2062.896982
14 Sep 2023 20:30:21.000,351.139,6.945,2065.288648
14 Sep 2023 20:31:21.000,2.894,5.989,2144.623079
14 Sep 2023 20:32:21.000,13.443,4.316,2292.591931
14 Sep 2023 20:33:21.000,22.481,2.208,2496.469074
14 Sep 2023 20:34:18.374,29.738,0.000,2731.569692
14 Sep 2023 22:07:31.348,327.941,0.000,2730.934187
14 Sep 2023 22:08:31.000,335.986,1.990,2518.524781
14 Sep 2023 22:09:31.000,345.373,3.675,2352.670666
14 Sep 2023 22:10:31.000,355.915,4.833,2246.079945
14 Sep 2023 22:11:31.000,7.167,5.265,2207.805059
14 Sep 2023 22:12:31.000,18.443,4.883,2241.522069
14 Sep 2023 22:13:31.000,29.046,3.765,2344.033230
14 Sep 2023 22:14:31.000,38.513,2.104,2506.583816
14 Sep 2023 22:15:31.000,46.680,0.114,2717.898075
14 Sep 2023 22:15:34.246,47.086,0.000,2730.499324
14 Sep 2023 23:47:17.466,327.916,0.000,2731.534634
14 Sep 2023 23:48:17.000,333.575,3.099,2407.950220
14 Sep 2023 23:49:17.000,340.956,6.438,2107.563337
14 Sep 2023 23:50:17.000,350.662,9.876,1847.143041
14 Sep 2023 23:51:17.000,3.310,13.030,1647.091132
14 Sep 2023 23:52:17.000,18.890,15.122,1532.254583
14 Sep 2023 23:53:17.000,35.938,15.299,1522.627912
14 Sep 2023 23:54:17.000,51.925,13.469,1620.233036
14 Sep 2023 23:55:17.000,65.110,10.414,1807.551797
14 Sep 2023 23:56:17.000,75.275,6.970,2059.735856
14 Sep 2023 23:57:17.000,82.984,3.585,2355.314311
14 Sep 2023 23:58:17.000,88.896,0.409,2679.080908
14 Sep 2023 23:58:25.059,89.583,0.000,2724.121843
15 Sep 2023 01:26:36.538,314.527,0.000,2730.555545
15 Sep 2023 01:27:36.000,314.650,3.874,2332.524214
15 Sep 2023 01:28:36.000,314.744,8.653,1932.961352
15 Sep 2023 01:29:36.000,314.788,14.966,1539.330867
15 Sep 2023 01:30:36.000,314.724,24.296,1160.099721
15 Sep 2023 01:31:36.000,314.346,40.364,818.173122
15 Sep 2023 01:32:36.000,311.483,71.356,585.726324
15 Sep 2023 01:33:36.000,139.119,65.573,606.832640
15 Sep 2023 01:34:36.000,137.216,37.254,863.091131
15 Sep 2023 01:35:36.000,136.887,22.537,1213.137979
15 Sep 2023 01:36:36.000,136.806,13.786,1595.540622
15 Sep 2023 01:37:36.000,136.806,7.753,1990.688052
15 Sep 2023 01:38:36.000,136.839,3.127,2391.099285
15 Sep 2023 01:39:24.435,136.877,0.000,2715.712541
15 Sep 2023 03:07:27.569,285.913,0.000,2726.731621
15 Sep 2023 03:08:27.000,278.856,2.547,2456.657035
15 Sep 2023 03:09:27.000,270.050,4.976,2226.381519
15 Sep 2023 03:10:27.000,259.400,7.001,2053.963438
15 Sep 2023 03:11:27.000,247.151,8.253,1955.409179
15 Sep 2023 03:12:27.000,234.134,8.409,1942.274914
15 Sep 2023 03:13:27.000,221.545,7.422,2016.147987
15 Sep 2023 03:14:27.000,210.364,5.560,2167.750559
15 Sep 2023 03:15:27.000,200.995,3.203,2381.627964
15 Sep 2023 03:16:27.000,193.368,0.648,2641.844251
15 Sep 2023 03:16:42.021,191.699,0.000,2712.606544
15 Sep 2023 15:22:31.594,154.778,0.000,2708.553766
15 Sep 2023 15:23:31.000,146.523,1.877,2509.451385
15 Sep 2023 15:24:31.000,136.923,3.380,2362.027157
15 Sep 2023 15:25:31.000,126.311,4.275,2279.781891
15 Sep 2023 15:26:31.000,115.247,4.397,2270.307508
15 Sep 2023 15:27:31.000,104.456,3.722,2334.673090
15 Sep 2023 15:28:31.000,94.565,2.381,2466.994982
15 Sep 2023 15:29:31.000,85.919,0.582,2656.773257
15 Sep 2023 15:29:48.502,83.646,0.000,2721.238479
15 Sep 2023 16:58:44.623,214.747,0.000,2709.585977
15 Sep 2023 16:59:44.000,213.574,3.873,2314.310065
15 Sep 2023 17:00:44.000,211.846,8.644,1918.457496
15 Sep 2023 17:01:44.000,209.100,14.900,1531.175184
15 Sep 2023 17:02:44.000,204.118,23.938,1163.389727
15 Sep 2023 17:03:44.000,192.778,38.323,843.449778
15 Sep 2023 17:04:44.000,155.728,57.381,648.747378
15 Sep 2023 17:05:44.000,88.990,51.268,695.009113
15 Sep 2023 17:06:44.000,65.374,32.587,947.441363
15 Sep 2023 17:07:44.000,57.185,20.464,1289.577513
15 Sep 2023 17:08:44.000,53.258,12.626,1666.141774
15 Sep 2023 17:09:44.000,51.007,6.997,2057.231088
15 Sep 2023 17:10:44.000,49.576,2.582,2454.717922
15 Sep 2023 17:11:24.980,48.877,0.000,2727.773205
15 Sep 2023 18:39:13.287,262.427,0.000,2718.222786
15 Sep 2023 18:40:13.000,267.384,3.344,2372.689560
15 Sep 2023 18:41:13.000,274.009,7.072,2046.352086
15 Sep 2023 18:42:13.000,283.090,11.159,1754.133820
15 Sep 2023 18:43:13.000,295.679,15.314,1517.218081
15 Sep 2023 18:44:13.000,312.466,18.591,1365.701469
15 Sep 2023 18:45:13.000,332.137,19.483,1329.629488
15 Sep 2023 18:46:13.000,350.936,17.438,1417.851246
15 Sep 2023 18:47:13.000,5.941,13.647,1609.659227
15 Sep 2023 18:48:13.000,16.922,9.477,1872.803556
15 Sep 2023 18:49:13.000,24.869,5.550,2180.720182
15 Sep 2023 18:50:13.000,30.753,2.000,2515.993082
15 Sep 2023 18:50:49.753,33.643,0.000,2730.079324
15 Sep 2023 20:21:56.327,306.786,0.000,2726.983886
15 Sep 2023 20:22:56.000,314.665,2.125,2501.350200
15 Sep 2023 20:23:56.000,323.971,3.983,2320.839627
15 Sep 2023 20:24:56.000,334.579,5.339,2198.976811
15 Sep 2023 20:25:56.000,346.078,5.959,2146.217437
15 Sep 2023 20:26:56.000,357.750,5.711,2167.766571
15 Sep 2023 20:27:56.000,8.806,4.652,2261.376926
15 Sep 2023 20:28:56.000,18.693,2.986,2418.327208
15 Sep 2023 20:29:56.000,27.197,0.954,2626.719608
15 Sep 2023 20:30:22.236,30.489,0.000,2730.918015
15 Sep 2023 22:03:39.601,329.547,0.000,2730.489558
15 Sep 2023 22:04:39.000,337.364,2.115,2505.240815
15 Sep 2023 22:05:39.000,346.638,3.979,2323.477428
15 Sep 2023 22:06:39.000,357.222,5.347,2199.895114
15 Sep 2023 22:07:39.000,8.713,5.984,2145.116669
15 Sep 2023 22:08:39.000,20.399,5.752,2164.627177
15 Sep 2023 22:09:39.000,31.488,4.704,2256.473483
15 Sep 2023 22:10:39.000,41.414,3.041,2412.128310
15 Sep 2023 22:11:39.000,49.954,1.005,2619.753997
15 Sep 2023 22:12:06.540,53.416,0.000,2729.130850
15 Sep 2023 23:43:11.608,326.310,0.000,2730.758453
15 Sep 2023 23:44:11.000,331.207,3.303,2387.388632
15 Sep 2023 23:45:11.000,337.749,7.006,2060.383896
15 Sep 2023 23:46:11.000,346.684,11.077,1766.158657
15 Sep 2023 23:47:11.000,359.070,15.248,1525.371186
15 Sep 2023 23:48:11.000,15.669,18.614,1367.823095
15 Sep 2023 23:49:11.000,35.333,19.655,1324.383253
15 Sep 2023 23:50:11.000,54.347,17.709,1405.957112
15 Sep 2023 23:51:11.000,69.616,13.919,1593.294855
15 Sep 2023 23:52:11.000,80.788,9.700,1854.117716
15 Sep 2023 23:53:11.000,88.841,5.718,2161.254467
15 Sep 2023 23:54:11.000,94.770,2.121,2496.775380
15 Sep 2023 23:54:49.546,97.795,0.000,2721.976194
16 Sep 2023 01:22:36.369,311.045,0.000,2729.553390
16 Sep 2023 01:23:36.000,309.937,3.860,2332.811523
16 Sep 2023 01:24:36.000,308.267,8.581,1937.112933
16 Sep 2023 01:25:36.000,305.574,14.745,1549.796516
16 Sep 2023 01:26:36.000,300.674,23.592,1181.453581
16 Sep 2023 01:27:36.000,289.644,37.567,859.273489
16 Sep 2023 01:28:36.000,254.567,56.382,657.325745
16 Sep 2023 01:29:36.000,188.104,51.769,691.561248
16 Sep 2023 01:30:36.000,163.029,33.109,936.333190
16 Sep 2023 01:31:36.000,154.358,20.770,1275.094487
16 Sep 2023 01:32:36.000,150.199,12.802,1650.052041
16 Sep 2023 01:33:36.000,147.792,7.099,2040.271884
16 Sep 2023 01:34:36.000,146.231,2.638,2437.243293
16 Sep 2023 01:35:17.567,145.437,0.000,2713.972794
16 Sep 2023 03:04:13.635,276.190,0.000,2724.452995
16 Sep 2023 03:05:13.000,268.019,1.864,2523.448077
16 Sep 2023 03:06:13.000,258.493,3.352,2373.969340
16 Sep 2023 03:07:13.000,247.945,4.234,2289.509421
16 Sep 2023 03:08:13.000,236.928,4.348,2277.521160
16 Sep 2023 03:09:13.000,226.156,3.670,2339.021922
16 Sep 2023 03:10:13.000,216.253,2.330,2468.150333
16 Sep 2023 03:11:13.000,207.564,0.536,2654.447863
16 Sep 2023 03:11:29.194,205.441,0.000,2712.980940
16 Sep 2023 15:17:17.333,168.440,0.000,2706.908314
16 Sep 2023 15:18:17.000,161.245,2.567,2438.005547
16 Sep 2023 15:19:17.000,152.322,5.008,2210.196229
16 Sep 2023 15:20:17.000,141.555,7.043,2040.627071
16 Sep 2023 15:21:17.000,129.203,8.294,1945.494692
16 Sep 2023 15:22:17.000,116.124,8.439,1936.347292
16 Sep 2023 15:23:17.000,103.532,7.435,2014.527360
16 Sep 2023 15:24:17.000,92.402,5.558,2170.451232
16 Sep 2023 15:25:17.000,83.119,3.192,2388.495117
16 Sep 2023 15:26:17.000,75.600,0.632,2652.718962
16 Sep 2023 15:26:31.623,74.003,0.000,2722.541686
16 Sep 2023 16:54:35.230,223.290,0.000,2710.145877
16 Sep 2023 16:55:35.000,223.360,3.930,2309.464635
16 Sep 2023 16:56:35.000,223.423,8.772,1909.513227
16 Sep 2023 16:57:35.000,223.466,15.204,1515.848584
16 Sep 2023 16:58:35.000,223.455,24.789,1137.375503
16 Sep 2023 16:59:35.000,223.257,41.480,798.534648
16 Sep 2023 17:00:35.000,221.306,73.715,576.570879
16 Sep 2023 17:01:35.000,45.977,63.367,615.694639
16 Sep 2023 17:02:35.000,45.098,36.121,881.653735
16 Sep 2023 17:03:35.000,45.006,21.949,1235.083768
16 Sep 2023 17:04:35.000,45.056,13.445,1618.741762
16 Sep 2023 17:05:35.000,45.160,7.538,2014.322410
16 Sep 2023 17:06:35.000,45.292,2.985,2414.762516
16 Sep 2023 17:07:21.708,45.409,0.000,2727.649742
16 Sep 2023 18:35:34.519,270.635,0.000,2719.251181
16 Sep 2023 18:36:34.000,276.327,3.114,2395.819494
16 Sep 2023 18:37:34.000,283.786,6.467,2096.241782
16 Sep 2023 18:38:34.000,293.609,9.907,1837.901356
16 Sep 2023 18:39:34.000,306.396,13.035,1641.496927
16 Sep 2023 18:40:34.000,322.072,15.057,1531.804494
16 Sep 2023 18:41:34.000,339.091,15.147,1527.944485
16 Sep 2023 18:42:34.000,354.935,13.268,1630.571850
16 Sep 2023 18:43:34.000,7.953,10.214,1821.332680
16 Sep 2023 18:44:34.000,17.989,6.800,2075.369169
16 Sep 2023 18:45:34.000,25.622,3.453,2371.554793
16 Sep 2023 18:46:34.000,31.502,0.312,2695.018789
16 Sep 2023 18:46:40.208,32.032,0.000,2729.617800
16 Sep 2023 20:18:24.595,313.109,0.000,2727.320834
16 Sep 2023 20:19:24.000,321.140,1.981,2516.271236
16 Sep 2023 20:20:24.000,330.544,3.662,2351.127015
16 Sep 2023 20:21:24.000,341.100,4.813,2245.520173
16 Sep 2023 20:22:24.000,352.355,5.236,2208.395207
16 Sep 2023 20:23:24.000,3.623,4.846,2243.263124
16 Sep 2023 20:24:24.000,14.209,3.723,2346.761694
16 Sep 2023 20:25:24.000,23.656,2.063,2510.029689
16 Sep 2023 20:26:24.000,31.805,0.076,2721.756213
16 Sep 2023 20:26:26.179,32.077,0.000,2730.210100
16 Sep 2023 21:59:38.876,330.305,0.000,2729.979768
16 Sep 2023 22:00:38.000,337.806,2.278,2488.140727
16 Sep 2023 22:01:38.000,346.893,4.382,2285.594346
16 Sep 2023 22:02:38.000,357.492,6.044,2139.393577
16 Sep 2023 22:03:38.000,9.283,6.979,2062.220577
16 Sep 2023 22:04:38.000,21.538,6.976,2062.202564
16 Sep 2023 22:05:38.000,33.330,6.035,2139.401185
16 Sep 2023 22:06:38.000,43.928,4.365,2285.791649
16 Sep 2023 22:07:38.000,53.010,2.253,2488.749554
16 Sep 2023 22:08:36.296,60.404,0.000,2727.595726
16 Sep 2023 23:39:01.241,324.388,0.000,2729.970310
16 Sep 2023 23:40:01.000,328.470,3.516,2366.106574
16 Sep 2023 23:41:01.000,333.998,7.568,2015.049103
16 Sep 2023 23:42:01.000,341.834,12.297,1689.104703
16 Sep 2023 23:43:01.000,353.455,17.691,1407.645856
16 Sep 2023 23:44:01.000,10.807,22.936,1203.883672
16 Sep 2023 23:45:01.000,34.011,25.536,1122.092846
16 Sep 2023 23:46:01.000,57.619,23.373,1188.195156
16 Sep 2023 23:47:01.000,75.668,18.235,1381.015597
16 Sep 2023 23:48:01.000,87.796,12.772,1656.396288
16 Sep 2023 23:49:01.000,95.925,7.947,1979.433621
16 Sep 2023 23:50:01.000,101.607,3.815,2329.464360
16 Sep 2023 23:51:01.000,105.772,0.225,2694.947285
16 Sep 2023 23:51:05.024,106.011,0.000,2719.832111
17 Sep 2023 01:18:34.814,307.127,0.000,2728.437374
17 Sep 2023 01:19:34.000,304.770,3.731,2343.747374
17 Sep 2023 01:20:34.000,301.335,8.241,1961.265964
17 Sep 2023 01:21:34.000,296.048,13.906,1593.809563
17 Sep 2023 01:22:34.000,287.149,21.367,1256.714571
17 Sep 2023 01:23:34.000,270.538,30.908,983.697701
17 Sep 2023 01:24:34.000,239.793,38.629,841.188624
17 Sep 2023 01:25:34.000,203.513,35.335,894.486217
17 Sep 2023 01:26:34.000,180.831,25.591,1115.669886
17 Sep 2023 01:27:34.000,168.992,17.061,1428.125582
17 Sep 2023 01:28:34.000,162.272,10.626,1783.606873
17 Sep 2023 01:29:34.000,158.042,5.632,2159.888534
17 Sep 2023 01:30:34.000,155.155,1.545,2546.569393
17 Sep 2023 01:30:59.469,154.189,0.000,2712.445606
17 Sep 2023 03:01:44.095,259.589,0.000,2720.779845
17 Sep 2023 03:02:44.000,250.438,0.738,2638.276045
17 Sep 2023 03:03:44.000,240.901,0.918,2617.350091
17 Sep 2023 03:04:44.000,231.443,0.512,2659.567811
17 Sep 2023 03:05:20.481,225.917,0.000,2714.911319
17 Sep 2023 15:12:19.732,179.794,0.000,2706.005215
17 Sep 2023 15:13:19.000,173.851,3.035,2390.953690
17 Sep 2023 15:14:19.000,166.034,6.246,2102.965562
17 Sep 2023 15:15:19.000,155.828,9.408,1862.101983
17 Sep 2023 15:16:19.000,142.851,12.058,1689.929791
17 Sep 2023 15:17:19.000,127.553,13.455,1609.565082
17 Sep 2023 15:18:19.000,111.662,13.033,1635.064211
17 Sep 2023 15:19:19.000,97.325,10.983,1761.857475
17 Sep 2023 15:20:19.000,85.686,8.036,1970.143392
17 Sep 2023 15:21:19.000,76.713,4.826,2236.655106
17 Sep 2023 15:22:19.000,69.874,1.675,2542.328712
17 Sep 2023 15:22:52.210,66.797,0.000,2723.237862
17 Sep 2023 16:50:27.694,231.663,0.000,2710.862570
17 Sep 2023 16:51:27.000,232.912,3.862,2316.462504
17 Sep 2023 16:52:27.000,234.675,8.625,1920.804928
17 Sep 2023 16:53:27.000,237.365,14.875,1533.260063
17 Sep 2023 16:54:27.000,242.079,23.930,1164.203047
17 Sep 2023 16:55:27.000,252.588,38.528,840.681766
17 Sep 2023 16:56:27.000,288.489,59.097,638.303190
17 Sep 2023 16:57:27.000,1.204,53.495,677.084600
17 Sep 2023 16:58:27.000,25.259,33.625,927.041236
17 Sep 2023 16:59:27.000,33.343,21.032,1268.279615
17 Sep 2023 17:00:27.000,37.319,13.004,1643.973614
17 Sep 2023 17:01:27.000,39.725,7.286,2034.012299
17 Sep 2023 17:02:27.000,41.378,2.825,2430.287765
17 Sep 2023 17:03:11.737,42.329,0.000,2727.416650
17 Sep 2023 18:31:55.080,278.737,0.000,2720.283566
17 Sep 2023 18:32:55.000,285.131,2.909,2416.782147
17 Sep 2023 18:33:55.000,293.259,5.890,2145.264261
17 Sep 2023 18:34:55.000,303.564,8.743,1921.114396
17 Sep 2023 18:35:55.000,316.263,11.049,1763.400854
17 Sep 2023 18:36:55.000,330.859,12.214,1691.378772
17 Sep 2023 18:37:55.000,345.903,11.823,1716.049929
17 Sep 2023 18:38:55.000,359.669,10.030,1833.329505
17 Sep 2023 18:39:55.000,11.173,7.402,2026.722823
17 Sep 2023 18:40:55.000,20.345,4.467,2276.205546
17 Sep 2023 18:41:55.000,27.570,1.522,2564.588864
17 Sep 2023 18:42:26.876,30.776,0.000,2729.105200
17 Sep 2023 20:14:44.614,318.538,0.000,2727.452906
17 Sep 2023 20:15:44.000,326.673,1.897,2524.825572
17 Sep 2023 20:16:44.000,336.130,3.472,2369.104316
17 Sep 2023 20:17:44.000,346.646,4.502,2273.357160
17 Sep 2023 20:18:44.000,357.754,4.812,2245.629222
17 Sep 2023 20:19:44.000,8.787,4.342,2288.482762
17 Sep 2023 20:20:44.000,19.105,3.182,2397.968940
17 Sep 2023 20:21:44.000,28.300,1.522,2565.178762
17 Sep 2023 20:22:31.013,34.630,0.000,2729.416654
17 Sep 2023 21:55:30.223,330.370,0.000,2729.397483
17 Sep 2023 21:56:30.000,337.591,2.504,2464.690913
17 Sep 2023 21:57:30.000,346.422,4.893,2238.594389
17 Sep 2023 21:58:30.000,356.998,6.921,2066.273662
17 Sep 2023 21:59:30.000,9.133,8.248,1962.749274
17 Sep 2023 22:00:30.000,22.111,8.554,1939.560744
17 Sep 2023 22:01:30.000,34.835,7.753,1999.666968
17 Sep 2023 22:02:30.000,46.326,6.058,2135.905673
17 Sep 2023 22:03:30.000,56.113,3.821,2334.589135
17 Sep 2023 22:04:30.000,64.190,1.343,2580.734609
17 Sep 2023 22:05:01.798,67.855,0.000,2725.870074
17 Sep 2023 23:34:46.840,322.171,0.000,2729.140477
17 Sep 2023 23:35:46.000,325.272,3.638,2353.646953
17 Sep 2023 23:36:46.000,329.568,7.987,1981.869553
17 Sep 2023 23:37:46.000,335.851,13.334,1627.461857
17 Sep 2023 23:38:46.000,345.816,20.086,1306.694015
17 Sep 2023 23:39:46.000,2.841,28.070,1052.733641
17 Sep 2023 23:40:46.000,30.646,33.872,923.945153
17 Sep 2023 23:41:46.000,62.126,31.462,972.120829
17 Sep 2023 23:42:46.000,84.028,23.707,1175.671654
17 Sep 2023 23:43:46.000,96.743,16.224,1470.978191
17 Sep 2023 23:44:46.000,104.430,10.246,1812.984544
17 Sep 2023 23:45:46.000,109.472,5.466,2178.858544
17 Sep 2023 23:46:46.000,113.024,1.491,2557.299183
17 Sep 2023 23:47:11.085,114.218,0.000,2717.701407
18 Sep 2023 01:14:32.813,302.670,0.000,2727.205722
18 Sep 2023 01:15:32.000,299.037,3.554,2359.277544
18 Sep 2023 01:16:32.000,293.898,7.710,2000.440716
18 Sep 2023 01:17:32.000,286.373,12.605,1666.869935
18 Sep 2023 01:18:32.000,274.853,18.260,1378.779454
18 Sep 2023 01:19:32.000,257.130,23.802,1171.688271
18 Sep 2023 01:20:32.000,233.066,26.396,1093.553799
18 Sep 2023 01:21:32.000,208.987,23.770,1170.713499
18 Sep 2023 01:22:32.000,191.229,18.200,1376.978735
18 Sep 2023 01:23:32.000,179.662,12.526,1664.336369
18 Sep 2023 01:24:32.000,172.080,7.619,1997.157422
18 Sep 2023 01:25:32.000,166.873,3.457,2355.156673
18 Sep 2023 01:26:29.437,163.253,0.000,2711.151363
18 Sep 2023 15:07:31.200,189.918,0.000,2705.596335
18 Sep 2023 15:08:31.000,185.181,3.421,2353.285653
18 Sep 2023 15:09:31.000,178.736,7.256,2020.591266
18 Sep 2023 15:10:31.000,169.718,11.496,1722.640583
18 Sep 2023 15:11:31.000,156.952,15.834,1482.194894
18 Sep 2023 15:12:31.000,139.665,19.207,1332.088272
18 Sep 2023 15:13:31.000,119.435,19.923,1304.675715
18 Sep 2023 15:14:31.000,100.533,17.509,1407.354398
18 Sep 2023 15:15:31.000,85.915,13.418,1615.244156
18 Sep 2023 15:16:31.000,75.520,9.085,1893.409627
18 Sep 2023 15:17:31.000,68.183,5.081,2214.701691
18 Sep 2023 15:18:31.000,62.879,1.492,2561.955761
18 Sep 2023 15:18:57.981,60.965,0.000,2723.648693
18 Sep 2023 16:46:21.539,239.923,0.000,2711.685215
18 Sep 2023 16:47:21.000,242.283,3.784,2324.560571
18 Sep 2023 16:48:21.000,245.604,8.370,1940.390425
18 Sep 2023 16:49:21.000,250.609,14.202,1569.479734
18 Sep 2023 16:50:21.000,258.999,22.083,1225.962566
18 Sep 2023 16:51:21.000,275.135,32.745,942.258396
18 Sep 2023 16:52:21.000,307.853,42.422,787.444387
18 Sep 2023 16:53:21.000,348.910,38.887,836.934872
18 Sep 2023 16:54:21.000,12.918,27.613,1062.291610
18 Sep 2023 16:55:21.000,24.685,18.264,1379.177775
18 Sep 2023 16:56:21.000,31.239,11.462,1737.279870
18 Sep 2023 16:57:21.000,35.389,6.292,2114.666705
18 Sep 2023 16:58:21.000,38.277,2.113,2501.428320
18 Sep 2023 16:58:55.666,39.590,0.000,2727.088055
18 Sep 2023 18:28:14.161,286.672,0.000,2721.180170
18 Sep 2023 18:29:14.000,293.604,2.676,2440.563327
18 Sep 2023 18:30:14.000,302.219,5.304,2196.478493
18 Sep 2023 18:31:14.000,312.769,7.644,2004.419555
18 Sep 2023 18:32:14.000,325.192,9.316,1881.134695
18 Sep 2023 18:33:14.000,338.803,9.903,1840.907435
18 Sep 2023 18:34:14.000,352.352,9.224,1889.115491
18 Sep 2023 18:35:14.000,4.624,7.491,2019.181126
18 Sep 2023 18:36:14.000,15.001,5.128,2216.225486
18 Sep 2023 18:37:14.000,23.466,2.505,2463.514596
18 Sep 2023 18:38:10.340,29.926,0.000,2728.566941
18 Sep 2023 20:10:55.080,322.937,0.000,2727.377250
18 Sep 2023 20:11:55.000,331.179,1.890,2525.453313
18 Sep 2023 20:12:55.000,340.659,3.431,2372.782406
18 Sep 2023 20:13:55.000,351.172,4.422,2280.260023
18 Sep 2023 20:14:55.000,2.243,4.695,2255.663281
18 Sep 2023 20:15:55.000,13.210,4.197,2301.264074
18 Sep 2023 20:16:55.000,23.449,3.021,2412.923888
18 Sep 2023 20:17:55.000,32.568,1.357,2581.701615
18 Sep 2023 20:18:37.138,38.230,0.000,2728.512109
18 Sep 2023 21:51:14.602,329.878,0.000,2728.758955
18 Sep 2023 21:52:14.000,336.584,2.705,2443.972200
18 Sep 2023 21:53:14.000,345.014,5.421,2191.317189
18 Sep 2023 21:54:14.000,355.432,7.901,1988.484178
18 Sep 2023 21:55:14.000,7.866,9.757,1852.885161
18 Sep 2023 21:56:14.000,21.704,10.523,1800.430341
18 Sep 2023 21:57:14.000,35.660,9.952,1838.542473
18 Sep 2023 21:58:14.000,48.380,8.228,1961.899273
18 Sep 2023 21:59:14.000,59.125,5.805,2155.574810
18 Sep 2023 22:00:14.000,67.840,3.095,2402.051031
18 Sep 2023 22:01:14.000,74.825,0.344,2686.088382
18 Sep 2023 22:01:21.571,75.602,0.000,2723.976657
18 Sep 2023 23:30:28.848,319.664,0.000,2728.261631
18 Sep 2023 23:31:28.000,321.746,3.758,2341.307869
18 Sep 2023 23:32:28.000,324.645,8.346,1953.830878
18 Sep 2023 23:33:28.000,328.976,14.220,1577.281595
18 Sep 2023 23:34:28.000,336.251,22.309,1224.050470
18 Sep 2023 23:35:28.000,350.696,33.878,923.607946
18 Sep 2023 23:36:28.000,23.681,46.219,744.888431
18 Sep 2023 23:37:28.000,71.081,43.293,777.904367
18 Sep 2023 23:38:28.000,97.103,30.049,1001.954349
18 Sep 2023 23:39:28.000,108.679,19.556,1322.810443
18 Sep 2023 23:40:28.000,114.807,12.224,1685.267215
18 Sep 2023 23:41:28.000,118.571,6.786,2066.560493
18 Sep 2023 23:42:28.000,121.133,2.456,2456.821142
18 Sep 2023 23:43:07.418,122.421,0.000,2715.633756
19 Sep 2023 01:10:31.713,297.518,0.000,2725.837874
19 Sep 2023 01:11:31.000,292.603,3.291,2383.063538
19 Sep 2023 01:12:31.000,285.906,6.945,2059.308990
19 Sep 2023 01:13:31.000,276.677,10.871,1773.145439
19 Sep 2023 01:14:31.000,263.963,14.707,1546.937553
19 Sep 2023 01:15:31.000,247.373,17.478,1410.818258
19 Sep 2023 01:16:31.000,228.542,17.875,1391.956469
19 Sep 2023 01:17:31.000,210.985,15.656,1494.762048
19 Sep 2023 01:18:31.000,197.077,11.980,1696.816050
19 Sep 2023 01:19:31.000,186.871,8.006,1967.027109
19 Sep 2023 01:20:31.000,179.462,4.249,2280.345106
19 Sep 2023 01:21:31.000,173.979,0.825,2620.258153
19 Sep 2023 01:21:46.345,172.806,0.000,2710.117714
19 Sep 2023 15:02:48.383,199.283,0.000,2705.473240
19 Sep 2023 15:03:48.000,195.849,3.661,2330.312708
19 Sep 2023 15:04:48.000,191.014,7.970,1965.077780
19 Sep 2023 15:05:48.000,183.848,13.161,1622.603715
19 Sep 2023 15:06:48.000,172.575,19.401,1322.676047
19 Sep 2023 15:07:48.000,154.356,25.924,1102.354744
19 Sep 2023 15:08:48.000,128.189,29.279,1016.038192
19 Sep 2023 15:09:48.000,101.794,26.215,1096.282462
19 Sep 2023 15:10:48.000,83.240,19.771,1312.698151
19 Sep 2023 15:11:48.000,71.770,13.513,1610.716368
19 Sep 2023 15:12:48.000,64.524,8.290,1952.473381
19 Sep 2023 15:13:48.000,59.678,3.956,2317.677113
19 Sep 2023 15:14:48.000,56.258,0.253,2695.674870
19 Sep 2023 15:14:52.413,56.047,0.000,2723.798652
19 Sep 2023 16:42:16.345,248.108,0.000,2712.645924
19 Sep 2023 16:43:16.000,251.500,3.662,2336.920081
19 Sep 2023 16:44:16.000,256.201,7.986,1970.057354
19 Sep 2023 16:45:16.000,263.086,13.239,1623.612573
19 Sep 2023 16:46:16.000,273.888,19.692,1315.605752
19 Sep 2023 16:47:16.000,291.672,26.830,1080.980692
19 Sep 2023 16:48:16.000,318.555,31.215,975.269344
19 Sep 2023 16:49:16.000,347.083,28.511,1038.882639
19 Sep 2023 16:50:16.000,7.257,21.633,1245.832352
19 Sep 2023 16:51:16.000,19.553,14.908,1538.650965
19 Sep 2023 16:52:16.000,27.279,9.378,1876.646735
19 Sep 2023 16:53:16.000,32.485,4.858,2238.372658
19 Sep 2023 16:54:16.000,36.232,1.043,2612.816635
19 Sep 2023 16:54:34.017,37.164,0.000,2726.763634
19 Sep 2023 18:24:30.699,294.344,0.000,2721.992815
19 Sep 2023 18:25:30.000,301.646,2.435,2465.278273
19 Sep 2023 18:26:30.000,310.598,4.743,2246.699545
19 Sep 2023 18:27:30.000,321.235,6.657,2083.419889
19 Sep 2023 18:28:30.000,333.310,7.849,1989.711300
19 Sep 2023 18:29:30.000,346.081,8.040,1975.793916
19 Sep 2023 18:30:30.000,358.498,7.179,2043.277351
19 Sep 2023 18:31:30.000,9.674,5.486,2184.324843
19 Sep 2023 18:32:30.000,19.204,3.294,2385.384195
19 Sep 2023 18:33:30.000,27.104,0.876,2632.017638
19 Sep 2023 18:33:51.280,29.555,0.000,2728.011824
19 Sep 2023 20:06:55.310,326.251,0.000,2727.170004
19 Sep 2023 20:07:55.000,334.411,1.920,2521.978601
19 Sep 2023 20:08:55.000,343.864,3.512,2364.615189
19 Sep 2023 20:09:55.000,354.394,4.561,2267.140815
19 Sep 2023 20:10:55.000,5.535,4.888,2237.796131
19 Sep 2023 20:11:55.000,16.615,4.428,2279.341143
19 Sep 2023 20:12:55.000,26.984,3.270,2387.946329
19 Sep 2023 20:13:55.000,36.225,1.605,2554.713665
19 Sep 2023 20:14:44.295,42.871,0.000,2727.482115
19 Sep 2023 21:46:52.836,328.932,0.000,2728.048977
19 Sep 2023 21:47:52.000,335.050,2.916,2422.502158
19 Sep 2023 21:48:52.000,342.944,5.981,2142.491117
19 Sep 2023 21:49:52.000,353.043,8.982,1907.154634
19 Sep 2023 21:50:52.000,5.679,11.512,1735.931154
19 Sep 2023 21:51:52.000,20.494,12.928,1649.752757
19 Sep 2023 21:52:52.000,36.043,12.705,1662.347933
19 Sep 2023 21:53:52.000,50.405,10.929,1771.664738
19 Sep 2023 21:54:52.000,62.395,8.211,1961.316783
19 Sep 2023 21:55:52.000,71.881,5.151,2210.181267
19 Sep 2023 21:56:52.000,79.276,2.090,2499.903535
19 Sep 2023 21:57:34.437,83.521,0.000,2721.973917
19 Sep 2023 23:26:07.708,316.856,0.000,2727.340617
19 Sep 2023 23:27:07.000,317.848,3.843,2332.348593
19 Sep 2023 23:28:07.000,319.194,8.583,1935.224273
19 Sep 2023 23:29:07.000,321.188,14.810,1544.930273
19 Sep 2023 23:30:07.000,324.611,23.892,1170.711844
19 Sep 2023 23:31:07.000,332.267,38.956,837.001552
19 Sep 2023 23:32:07.000,2.841,63.403,616.161329
19 Sep 2023 23:33:07.000,94.840,58.969,639.733190
19 Sep 2023 23:34:07.000,117.434,35.654,888.498588
19 Sep 2023 23:35:07.000,123.893,21.928,1232.397351
19 Sep 2023 23:36:07.000,126.931,13.476,1610.778103
19 Sep 2023 23:37:07.000,128.727,7.564,2003.166281
19 Sep 2023 23:38:07.000,129.935,2.998,2401.554436
19 Sep 2023 23:38:53.752,130.643,0.000,2713.637371
20 Sep 2023 01:06:33.641,291.401,0.000,2724.310069
20 Sep 2023 01:07:33.000,285.234,2.916,2417.849646
20 Sep 2023 01:08:33.000,277.207,5.924,2141.946919
20 Sep 2023 01:09:33.000,266.907,8.776,1916.033979
20 Sep 2023 01:10:33.000,254.137,11.023,1760.412706
20 Sep 2023 01:11:33.000,239.494,12.043,1695.120359
20 Sep 2023 01:12:33.000,224.567,11.450,1730.549977
20 Sep 2023 01:13:33.000,211.123,9.473,1860.703457
20 Sep 2023 01:14:33.000,200.067,6.723,2067.198477
20 Sep 2023 01:15:33.000,191.373,3.720,2329.013543
20 Sep 2023 01:16:33.000,184.609,0.740,2628.694046
20 Sep 2023 01:16:48.273,183.136,0.000,2709.413394
20 Sep 2023 13:23:11.217,140.747,0.000,2707.086656
20 Sep 2023 13:24:11.000,131.729,1.116,2587.459054
20 Sep 2023 13:25:11.000,122.019,1.699,2528.090435
20 Sep 2023 13:26:11.000,112.099,1.657,2534.193841
20 Sep 2023 13:27:11.000,102.481,0.997,2605.434724
20 Sep 2023 13:28:02.862,94.746,0.000,2715.581017
20 Sep 2023 14:58:09.418,208.153,0.000,2705.675194
20 Sep 2023 14:59:09.000,206.003,3.819,2315.520703
20 Sep 2023 15:00:09.000,202.900,8.451,1929.002970
20 Sep 2023 15:01:09.000,198.095,14.369,1555.810177
20 Sep 2023 15:02:09.000,189.815,22.416,1210.560505
20 Sep 2023 15:03:09.000,173.433,33.350,927.215307
20 Sep 2023 15:04:09.000,139.648,42.942,778.383476
20 Sep 2023 15:05:09.000,98.631,38.538,839.650835
20 Sep 2023 15:06:09.000,75.734,27.002,1075.544197
20 Sep 2023 15:07:09.000,64.765,17.718,1399.807315
20 Sep 2023 15:08:09.000,58.792,10.998,1763.467687
20 Sep 2023 15:09:09.000,55.128,5.883,2145.524647
20 Sep 2023 15:10:09.000,52.685,1.739,2536.503331
20 Sep 2023 15:10:37.498,51.795,0.000,2723.844713
20 Sep 2023 16:38:11.727,256.238,0.000,2713.614439
20 Sep 2023 16:39:11.000,260.526,3.468,2356.324199
20 Sep 2023 16:40:11.000,266.391,7.464,2011.031518
20 Sep 2023 16:41:11.000,274.674,12.057,1693.947084
20 Sep 2023 16:42:11.000,286.776,17.133,1425.550780
20 Sep 2023 16:43:11.000,304.267,21.761,1239.124912
20 Sep 2023 16:44:11.000,326.581,23.681,1175.068952
20 Sep 2023 16:45:11.000,348.595,21.435,1252.414152
20 Sep 2023 16:46:11.000,5.545,16.719,1448.316990
20 Sep 2023 16:47:11.000,17.231,11.694,1722.096386
20 Sep 2023 16:48:11.000,25.265,7.178,2041.758871
20 Sep 2023 16:49:11.000,30.998,3.249,2387.898011
20 Sep 2023 16:50:07.231,35.037,0.000,2726.363560
20 Sep 2023 18:20:43.427,301.627,0.000,2722.627146
20 Sep 2023 18:21:43.000,309.310,2.248,2484.580113
20 Sep 2023 18:22:43.000,318.511,4.278,2289.397262
20 Sep 2023 18:23:43.000,329.165,5.839,2151.888727
20 Sep 2023 18:24:43.000,340.909,6.660,2084.004943
20 Sep 2023 18:25:43.000,352.999,6.560,2092.735276
20 Sep 2023 18:26:43.000,4.551,5.563,2177.068521
20 Sep 2023 18:27:43.000,14.898,3.886,2328.456712
20 Sep 2023 18:28:43.000,23.767,1.797,2534.351766
20 Sep 2023 18:29:30.472,29.760,0.000,2727.384634
20 Sep 2023 20:02:45.387,328.527,0.000,2726.792686
20 Sep 2023 20:03:45.000,336.550,2.012,2512.134588
20 Sep 2023 20:04:45.000,345.938,3.727,2343.675075
20 Sep 2023 20:05:45.000,356.511,4.917,2234.489117
20 Sep 2023 20:06:45.000,7.825,5.377,2193.912133
20 Sep 2023 20:07:45.000,19.184,5.012,2225.886161
20 Sep 2023 20:08:45.000,29.875,3.898,2327.339442
20 Sep 2023 20:09:45.000,39.417,2.231,2489.470080
20 Sep 2023 20:10:45.000,47.639,0.230,2700.852321
20 Sep 2023 20:10:51.508,48.453,0.000,2726.254808
20 Sep 2023 21:42:25.593,327.607,0.000,2727.318797
20 Sep 2023 21:43:25.000,333.096,3.145,2399.331000
20 Sep 2023 21:44:25.000,340.312,6.571,2092.487564
20 Sep 2023 21:45:25.000,349.889,10.156,1824.130580
20 Sep 2023 21:46:25.000,2.548,13.528,1614.950323
20 Sep 2023 21:47:25.000,18.419,15.866,1491.136747
20 Sep 2023 21:48:25.000,36.045,16.185,1474.983113
20 Sep 2023 21:49:25.000,52.645,14.315,1569.988765
20 Sep 2023 21:50:25.000,66.246,11.112,1758.005156
20 Sep 2023 21:51:25.000,76.615,7.515,2012.618774
20 Sep 2023 21:52:25.000,84.395,4.011,2311.193565
20 Sep 2023 21:53:25.000,90.309,0.750,2637.957083
20 Sep 2023 21:53:39.502,91.525,0.000,2719.926675
20 Sep 2023 23:21:43.903,313.724,0.000,2726.380617
20 Sep 2023 23:22:43.000,313.557,3.850,2330.660970
20 Sep 2023 23:23:43.000,313.231,8.625,1931.058336
20 Sep 2023 23:24:43.000,312.618,14.931,1537.562866
20 Sep 2023 23:25:43.000,311.369,24.241,1158.819509
20 Sep 2023 23:26:43.000,308.175,40.201,818.196300
20 Sep 2023 23:27:43.000,290.555,69.918,588.747177
20 Sep 2023 23:28:43.000,155.554,63.832,613.003295
20 Sep 2023 23:29:43.000,143.892,36.690,869.978371
20 Sep 2023 23:30:43.000,141.213,22.248,1220.014006
20 Sep 2023 23:31:43.000,140.076,13.600,1602.376973
20 Sep 2023 23:32:43.000,139.473,7.615,1997.527999
20 Sep 2023 23:33:43.000,139.113,3.016,2397.974627
20 Sep 2023 23:34:29.824,138.925,0.000,2711.825029
21 Sep 2023 01:02:42.510,283.796,0.000,2722.434444
21 Sep 2023 01:03:42.000,276.431,2.405,2466.626040
21 Sep 2023 01:04:42.000,267.384,4.620,2254.037198
21 Sep 2023 01:05:42.000,256.667,6.364,2101.743693
21 Sep 2023 01:06:42.000,244.640,7.309,2023.937504
21 Sep 2023 01:07:42.000,232.149,7.222,2029.387790
21 Sep 2023 01:08:42.000,220.253,6.124,2117.293548
21 Sep 2023 01:09:42.000,209.735,4.279,2277.673346
21 Sep 2023 01:10:42.000,200.886,2.012,2495.902324
21 Sep 2023 01:11:31.525,194.783,0.000,2709.202229
21 Sep 2023 13:17:05.374,158.100,0.000,2704.511672
21 Sep 2023 13:18:05.000,150.028,2.056,2487.039294
21 Sep 2023 13:19:05.000,140.513,3.782,2319.770790
21 Sep 2023 13:20:05.000,129.781,4.926,2216.838717
21 Sep 2023 13:21:05.000,118.363,5.272,2187.932792
21 Sep 2023 13:22:05.000,107.050,4.747,2236.188244
21 Sep 2023 13:23:05.000,96.591,3.462,2356.820748
21 Sep 2023 13:24:05.000,87.436,1.648,2539.213839
21 Sep 2023 13:24:52.177,81.234,0.000,2717.689394
21 Sep 2023 14:53:33.184,216.688,0.000,2706.064278
21 Sep 2023 14:54:33.000,215.789,3.919,2306.539404
21 Sep 2023 14:55:33.000,214.460,8.729,1908.861756
21 Sep 2023 14:56:33.000,212.324,15.077,1518.909239
21 Sep 2023 14:57:33.000,208.380,24.380,1146.949258
21 Sep 2023 14:58:33.000,199.025,39.739,820.335805
21 Sep 2023 14:59:33.000,162.198,62.420,618.079205
21 Sep 2023 15:00:33.000,82.368,54.680,666.222843
21 Sep 2023 15:01:33.000,61.110,33.530,926.374786
21 Sep 2023 15:02:33.000,54.484,20.794,1274.076416
21 Sep 2023 15:03:33.000,51.403,12.771,1654.095655
21 Sep 2023 15:04:33.000,49.669,7.072,2047.422294
21 Sep 2023 15:05:33.000,48.588,2.625,2446.443816
21 Sep 2023 15:06:14.493,48.063,0.000,2723.720484
21 Sep 2023 16:34:07.234,264.314,0.000,2714.646056
21 Sep 2023 16:35:07.000,269.470,3.300,2373.367278
21 Sep 2023 16:36:07.000,276.325,6.944,2053.063417
21 Sep 2023 16:37:07.000,285.639,10.880,1768.768650
21 Sep 2023 16:38:07.000,298.362,14.775,1541.817686
21 Sep 2023 16:39:07.000,314.959,17.701,1401.298788
21 Sep 2023 16:40:07.000,333.981,18.333,1374.451742
21 Sep 2023 16:41:07.000,351.985,16.305,1467.507201
21 Sep 2023 16:42:07.000,6.443,12.709,1660.008707
21 Sep 2023 16:43:07.000,17.164,8.745,1921.604567
21 Sep 2023 16:44:07.000,25.023,4.975,2227.188749
21 Sep 2023 16:45:07.000,30.900,1.535,2560.028441
21 Sep 2023 16:45:35.747,33.209,0.000,2725.921576
21 Sep 2023 18:16:50.846,308.362,0.000,2723.078486
21 Sep 2023 18:17:50.000,316.238,2.068,2503.135439
21 Sep 2023 18:18:50.000,325.584,3.877,2326.808800
21 Sep 2023 18:19:50.000,336.193,5.174,2209.507133
21 Sep 2023 18:20:50.000,347.639,5.735,2161.288327
21 Sep 2023 18:21:50.000,359.208,5.443,2186.866262
21 Sep 2023 18:22:50.000,10.138,4.363,2283.627738
21 Sep 2023 18:23:50.000,19.901,2.696,2442.753297
21 Sep 2023 18:24:50.000,28.304,0.676,2652.469777
21 Sep 2023 18:25:08.809,30.662,0.000,2726.733885
21 Sep 2023 19:58:25.939,329.880,0.000,2726.327135
21 Sep 2023 19:59:25.000,337.617,2.134,2499.126500
21 Sep 2023 20:00:25.000,346.875,4.041,2313.574349
21 Sep 2023 20:01:25.000,357.481,5.459,2186.037113
21 Sep 2023 20:02:25.000,9.045,6.144,2127.539012
21 Sep 2023 20:03:25.000,20.846,5.946,2144.012433
21 Sep 2023 20:04:25.000,32.065,4.911,2233.786500
21 Sep 2023 20:05:25.000,42.108,3.243,2388.341009
21 Sep 2023 20:06:25.000,50.738,1.192,2595.647376
21 Sep 2023 20:06:57.325,54.811,0.000,2724.871811
21 Sep 2023 21:37:53.433,325.956,0.000,2726.554644
21 Sep 2023 21:38:53.000,330.706,3.358,2377.964471
21 Sep 2023 21:39:53.000,337.067,7.141,2045.594477
21 Sep 2023 21:40:53.000,345.833,11.354,1744.557179
21 Sep 2023 21:41:53.000,358.162,15.770,1495.518404
21 Sep 2023 21:42:53.000,15.029,19.463,1329.374157
21 Sep 2023 21:43:53.000,35.409,20.721,1279.702257
21 Sep 2023 21:44:53.000,55.228,18.700,1359.644061
21 Sep 2023 21:45:53.000,70.975,14.672,1549.106786
21 Sep 2023 21:46:53.000,82.316,10.236,1813.590831
21 Sep 2023 21:47:53.000,90.379,6.104,2124.525928
21 Sep 2023 21:48:53.000,96.257,2.410,2463.481396
21 Sep 2023 21:49:36.089,99.556,0.000,2717.786350
21 Sep 2023 23:17:17.999,310.224,0.000,2725.341584
21 Sep 2023 23:18:17.000,308.855,3.803,2334.023782
21 Sep 2023 23:19:17.000,306.799,8.486,1940.199166
21 Sep 2023 23:20:17.000,303.519,14.563,1555.828818
21 Sep 2023 23:21:17.000,297.644,23.164,1192.372788
21 Sep 2023 23:22:17.000,284.895,36.251,878.539253
21 Sep 2023 23:23:17.000,249.739,52.024,688.071237
21 Sep 2023 23:24:17.000,192.972,47.733,726.483172
21 Sep 2023 23:25:17.000,167.613,31.504,966.752513
21 Sep 2023 23:26:17.000,157.829,20.015,1300.876453
21 Sep 2023 23:27:17.000,152.964,12.359,1672.632165
21 Sep 2023 23:28:17.000,150.099,6.797,2060.673048
21 Sep 2023 23:29:17.000,148.220,2.410,2456.097063
21 Sep 2023 23:29:55.274,147.326,0.000,2710.110516
22 Sep 2023 00:59:07.551,273.410,0.000,2720.028680
22 Sep 2023 01:00:07.000,264.984,1.673,2538.707870
22 Sep 2023 01:01:07.000,255.352,2.917,2411.818375
22 Sep 2023 01:02:07.000,244.917,3.533,2350.809213
22 Sep 2023 01:03:07.000,234.246,3.411,2360.896521
22 Sep 2023 01:04:07.000,223.987,2.575,2441.012900
22 Sep 2023 01:05:07.000,214.646,1.165,2584.209531
22 Sep 2023 01:05:47.018,209.059,0.000,2709.703065
22 Sep 2023 13:11:31.833,170.826,0.000,2703.138182
22 Sep 2023 13:12:31.000,163.918,2.654,2425.508920
22 Sep 2023 13:13:31.000,155.181,5.261,2184.110786
22 Sep 2023 13:14:31.000,144.461,7.522,1999.026537
22 Sep 2023 13:15:31.000,131.913,9.029,1887.881032
22 Sep 2023 13:16:31.000,118.368,9.378,1864.563577
22 Sep 2023 13:17:31.000,105.165,8.460,1932.483518
22 Sep 2023 13:18:31.000,93.463,6.555,2082.603258
22 Sep 2023 13:19:31.000,83.750,4.099,2298.448074
22 Sep 2023 13:20:31.000,75.949,1.436,2562.810140
22 Sep 2023 13:21:03.037,72.458,0.000,2718.756325
22 Sep 2023 14:48:58.915,224.996,0.000,2706.635268
22 Sep 2023 14:49:58.000,225.308,3.881,2310.594355
22 Sep 2023 14:50:58.000,225.724,8.709,1910.694797
22 Sep 2023 14:51:58.000,226.323,15.119,1517.092817
22 Sep 2023 14:52:58.000,227.324,24.658,1138.687609
22 Sep 2023 14:53:58.000,229.591,41.225,799.873391
22 Sep 2023 14:54:58.000,242.756,72.771,577.629710
22 Sep 2023 14:55:58.000,33.895,62.990,615.874713
22 Sep 2023 14:56:58.000,40.729,36.016,881.159120
22 Sep 2023 14:57:58.000,42.514,21.888,1234.245879
22 Sep 2023 14:58:58.000,43.414,13.401,1617.697746
22 Sep 2023 14:59:58.000,44.007,7.504,2013.128090
22 Sep 2023 15:00:58.000,44.458,2.957,2413.443156
22 Sep 2023 15:01:44.309,44.755,0.000,2723.562669
22 Sep 2023 16:30:02.363,272.320,0.000,2715.611607
22 Sep 2023 16:31:02.000,278.184,3.077,2395.820832
22 Sep 2023 16:32:02.000,285.817,6.353,2102.091200
22 Sep 2023 16:33:02.000,295.793,9.665,1851.155278
22 Sep 2023 16:34:02.000,308.624,12.599,1663.560393
22 Sep 2023 16:35:02.000,324.112,14.400,1562.999999
22 Sep 2023 16:36:02.000,340.695,14.347,1566.616229
22 Sep 2023 16:37:02.000,356.040,12.470,1673.613108
22 Sep 2023 16:38:02.000,8.683,9.514,1865.835798
22 Sep 2023 16:39:02.000,18.502,6.216,2119.520920
22 Sep 2023 16:40:02.000,26.030,2.967,2414.492218
22 Sep 2023 16:41:00.009,31.696,0.000,2725.417104
22 Sep 2023 18:12:51.350,314.375,0.000,2723.335715
22 Sep 2023 18:13:51.000,322.491,1.962,2514.182844
22 Sep 2023 18:14:51.000,331.938,3.606,2352.418751
22 Sep 2023 18:15:51.000,342.507,4.712,2250.564549
22 Sep 2023 18:16:51.000,353.736,5.089,2217.265939
22 Sep 2023 18:17:51.000,4.940,4.663,2255.658078
22 Sep 2023 18:18:51.000,15.440,3.519,2362.083136
22 Sep 2023 18:19:51.000,24.799,1.851,2527.569168
22 Sep 2023 18:20:47.160,32.392,0.000,2725.994131
22 Sep 2023 19:53:57.893,330.457,0.000,2725.801872
22 Sep 2023 19:54:57.000,337.911,2.311,2480.596771
22 Sep 2023 19:55:57.000,346.977,4.462,2274.113112
22 Sep 2023 19:56:57.000,357.598,6.181,2123.746697
22 Sep 2023 19:57:57.000,9.472,7.174,2042.615083
22 Sep 2023 19:58:57.000,21.862,7.211,2039.380955
22 Sep 2023 19:59:57.000,33.810,6.283,2114.476237
22 Sep 2023 20:00:57.000,44.548,4.604,2259.900858
22 Sep 2023 20:01:57.000,53.736,2.470,2462.788565
22 Sep 2023 20:02:57.000,61.396,0.124,2709.635560
22 Sep 2023 20:03:00.093,61.753,0.000,2723.323769
22 Sep 2023 21:33:16.835,324.010,0.000,2725.756785
22 Sep 2023 21:34:16.000,327.881,3.514,2362.171202
22 Sep 2023 21:35:16.000,333.188,7.625,2006.614298
22 Sep 2023 21:36:16.000,340.764,12.476,1674.640072
22 Sep 2023 21:37:16.000,352.152,18.124,1385.177850
22 Sep 2023 21:38:16.000,9.578,23.823,1171.830192
22 Sep 2023 21:39:16.000,33.618,26.867,1081.796239
22 Sep 2023 21:40:16.000,58.423,24.645,1145.043012
22 Sep 2023 21:41:16.000,77.117,19.131,1339.950303
22 Sep 2023 21:42:16.000,89.397,13.354,1619.170135
22 Sep 2023 21:43:16.000,97.485,8.339,1945.996016
22 Sep 2023 21:44:16.000,103.074,4.095,2299.288187
22 Sep 2023 21:45:16.000,107.139,0.438,2667.499744
22 Sep 2023 21:45:23.734,107.584,0.000,2715.671978
22 Sep 2023 23:12:50.695,306.290,0.000,2724.211281
22 Sep 2023 23:13:50.000,303.672,3.713,2341.277646
22 Sep 2023 23:14:50.000,299.882,8.172,1962.504544
22 Sep 2023 23:15:50.000,294.094,13.717,1600.611870
22 Sep 2023 23:16:50.000,284.503,20.862,1272.119291
22 Sep 2023 23:17:50.000,267.264,29.550,1011.985411
22 Sep 2023 23:18:50.000,237.711,35.829,884.154953
22 Sep 2023 23:19:50.000,204.632,32.566,944.459339
22 Sep 2023 23:20:50.000,183.102,23.904,1163.775974
22 Sep 2023 23:21:50.000,171.235,16.063,1472.021737
22 Sep 2023 23:22:50.000,164.280,9.973,1823.732925
22 Sep 2023 23:23:50.000,159.821,5.159,2197.043875
22 Sep 2023 23:24:50.000,156.742,1.176,2581.399775
22 Sep 2023 23:25:09.644,155.931,0.000,2708.618291
23 Sep 2023 00:56:40.918,252.527,0.000,2715.623911
23 Sep 2023 00:57:40.000,243.404,0.286,2682.388129
23 Sep 2023 00:58:40.000,234.118,0.025,2709.665840
23 Sep 2023 00:58:42.756,233.697,0.000,2712.378641
23 Sep 2023 13:06:11.861,181.643,0.000,2702.378488
23 Sep 2023 13:07:11.000,175.921,3.099,2381.062821
23 Sep 2023 13:08:11.000,168.317,6.429,2084.128199
23 Sep 2023 13:09:11.000,158.257,9.785,1832.270108
23 Sep 2023 13:10:11.000,145.222,12.708,1647.653981
23 Sep 2023 13:11:11.000,129.519,14.380,1555.398942
23 Sep 2023 13:12:11.000,112.938,14.091,1572.362893
23 Sep 2023 13:13:11.000,97.924,11.983,1695.321969
23 Sep 2023 13:14:11.000,85.824,8.882,1903.518826
23 Sep 2023 13:15:11.000,76.606,5.517,2171.967659
23 Sep 2023 13:16:11.000,69.663,2.241,2480.362167
23 Sep 2023 13:16:54.260,65.715,0.000,2719.372452
23 Sep 2023 14:44:26.069,233.152,0.000,2707.322165
23 Sep 2023 14:45:26.000,234.625,3.896,2309.788431
23 Sep 2023 14:46:26.000,236.692,8.650,1915.629148
23 Sep 2023 14:47:26.000,239.853,14.870,1530.395188
23 Sep 2023 14:48:26.000,245.382,23.814,1165.193450
23 Sep 2023 14:49:26.000,257.507,37.878,848.578876
23 Sep 2023 14:50:26.000,294.608,55.915,657.037842
23 Sep 2023 14:51:26.000,358.372,50.220,702.480445
23 Sep 2023 14:52:26.000,22.740,32.285,951.311779
23 Sep 2023 14:53:26.000,31.668,20.372,1290.119592
23 Sep 2023 14:54:26.000,36.165,12.603,1663.879061
23 Sep 2023 14:55:26.000,38.907,7.006,2052.474597
23 Sep 2023 14:56:26.000,40.793,2.609,2447.637866
23 Sep 2023 14:57:07.603,41.806,0.000,2723.297492
23 Sep 2023 16:25:56.460,280.214,0.000,2716.547351
23 Sep 2023 16:26:56.000,286.685,2.848,2419.006117
23 Sep 2023 16:27:56.000,294.922,5.762,2152.474863
23 Sep 2023 16:28:56.000,305.300,8.513,1934.348475
23 Sep 2023 16:29:56.000,317.976,10.688,1783.357850
23 Sep 2023 16:30:56.000,332.401,11.724,1717.834600
23 Sep 2023 16:31:56.000,347.152,11.263,1747.573204
23 Sep 2023 16:32:56.000,0.612,9.478,1867.828579
23 Sep 2023 16:33:56.000,11.882,6.906,2062.337697
23 Sep 2023 16:34:56.000,20.907,4.037,2311.723565
23 Sep 2023 16:35:56.000,28.051,1.153,2599.366906
23 Sep 2023 16:36:20.515,30.531,0.000,2724.923473
23 Sep 2023 18:08:43.430,319.500,0.000,2723.400413
23 Sep 2023 18:09:43.000,327.695,1.888,2521.661812
23 Sep 2023 18:10:43.000,337.183,3.442,2367.871627
23 Sep 2023 18:11:43.000,347.716,4.447,2274.328537
23 Sep 2023 18:12:43.000,358.818,4.730,2248.917579
23 Sep 2023 18:13:43.000,9.823,4.237,2293.986652
23 Sep 2023 18:14:43.000,20.098,3.063,2405.404471
23 Sep 2023 18:15:43.000,29.247,1.396,2574.174837
23 Sep 2023 18:16:26.237,35.065,0.000,2725.181935
23 Sep 2023 19:49:22.234,330.401,0.000,2725.173685
23 Sep 2023 19:50:22.000,337.567,2.538,2457.109888
23 Sep 2023 19:51:22.000,346.365,4.976,2227.067625
23 Sep 2023 19:52:22.000,356.953,7.067,2050.456556
23 Sep 2023 19:53:22.000,9.168,8.462,1942.733823
23 Sep 2023 19:54:22.000,22.296,8.820,1916.067324
23 Sep 2023 19:55:22.000,35.203,8.037,1973.922893
23 Sep 2023 19:56:22.000,46.862,6.328,2109.224688
23 Sep 2023 19:57:22.000,56.771,4.061,2308.000269
23 Sep 2023 19:58:22.000,64.925,1.550,2554.878264
23 Sep 2023 19:58:58.241,69.100,0.000,2721.579602
23 Sep 2023 21:28:36.230,321.786,0.000,2724.901507
23 Sep 2023 21:29:36.000,324.762,3.704,2343.191415
23 Sep 2023 21:30:36.000,328.860,8.111,1968.408678
23 Sep 2023 21:31:36.000,334.893,13.577,1609.979088
23 Sep 2023 21:32:36.000,344.587,20.596,1283.774966
23 Sep 2023 21:33:36.000,1.598,29.152,1023.116097
23 Sep 2023 21:34:36.000,30.569,35.634,889.239089
23 Sep 2023 21:35:36.000,63.865,32.949,938.778258
23 Sep 2023 21:36:36.000,86.238,24.487,1148.197490
23 Sep 2023 21:37:36.000,98.773,16.606,1449.289289
23 Sep 2023 21:38:36.000,106.208,10.447,1795.747162
23 Sep 2023 21:39:36.000,111.038,5.580,2164.937145
23 Sep 2023 21:40:36.000,114.423,1.561,2545.901601
23 Sep 2023 21:41:02.080,115.601,0.000,2713.606830
23 Sep 2023 23:08:22.928,301.820,0.000,2722.952437
23 Sep 2023 23:09:22.000,297.966,3.509,2359.381435
23 Sep 2023 23:10:22.000,292.534,7.591,2005.663701
23 Sep 2023 23:11:22.000,284.651,12.333,1679.325375
23 Sep 2023 23:12:22.000,272.789,17.668,1401.316631
23 Sep 2023 23:13:22.000,255.091,22.637,1206.899735
23 Sep 2023 23:14:22.000,231.989,24.678,1140.494534
23 Sep 2023 23:15:22.000,209.308,22.101,1223.299353
23 Sep 2023 23:16:22.000,192.342,16.957,1429.260215
23 Sep 2023 23:17:22.000,181.012,11.651,1713.838544
23 Sep 2023 23:18:22.000,173.433,6.982,2043.515723
23 Sep 2023 23:19:22.000,168.154,2.965,2398.675074
23 Sep 2023 23:20:12.217,164.860,0.000,2707.367504
24 Sep 2023 13:00:59.552,191.386,0.000,2702.023381
24 Sep 2023 13:01:59.000,186.868,3.445,2347.392798
24 Sep 2023 13:02:59.000,180.653,7.361,2008.788750
24 Sep 2023 13:03:59.000,171.870,11.757,1703.031218
24 Sep 2023 13:04:59.000,159.223,16.377,1452.725463
24 Sep 2023 13:05:59.000,141.665,20.142,1291.905712
24 Sep 2023 13:06:59.000,120.616,21.119,1256.272359
24 Sep 2023 13:07:59.000,100.806,18.617,1355.970874
24 Sep 2023 13:08:59.000,85.661,14.264,1565.100663
24 Sep 2023 13:09:59.000,75.075,9.700,1846.251391
24 Sep 2023 13:10:59.000,67.713,5.538,2170.787894
24 Sep 2023 13:11:59.000,62.450,1.848,2521.013766
24 Sep 2023 13:12:31.850,60.182,0.000,2719.689364
24 Sep 2023 14:39:54.201,241.206,0.000,2708.166738
24 Sep 2023 14:40:54.000,243.753,3.791,2320.442096
24 Sep 2023 14:41:54.000,247.318,8.348,1938.565060
24 Sep 2023 14:42:54.000,252.678,14.114,1571.066321
24 Sep 2023 14:43:54.000,261.595,21.806,1232.879327
24 Sep 2023 14:44:54.000,278.356,31.887,957.489491
24 Sep 2023 14:45:54.000,310.397,40.356,812.885077
24 Sep 2023 14:46:54.000,348.730,36.795,867.610664
24 Sep 2023 14:47:54.000,11.940,26.415,1091.819545
24 Sep 2023 14:48:54.000,23.816,17.581,1405.968531
24 Sep 2023 14:49:54.000,30.578,11.023,1761.649378
24 Sep 2023 14:50:54.000,34.906,5.977,2137.130335
24 Sep 2023 14:51:54.000,37.935,1.869,2522.388490
24 Sep 2023 14:52:24.924,39.177,0.000,2722.981687
24 Sep 2023 16:21:48.714,287.933,0.000,2717.408597
24 Sep 2023 16:22:48.000,294.886,2.614,2442.837706
24 Sep 2023 16:23:48.000,303.571,5.188,2202.846854
24 Sep 2023 16:24:48.000,314.154,7.453,2015.559513
24 Sep 2023 16:25:48.000,326.538,9.037,1897.370058
24 Sep 2023 16:26:48.000,340.018,9.546,1861.877403
24 Sep 2023 16:27:48.000,353.375,8.829,1913.736726
24 Sep 2023 16:28:48.000,5.453,7.101,2046.052968
24 Sep 2023 16:29:48.000,15.677,4.770,2244.120388
24 Sep 2023 16:30:48.000,24.040,2.185,2491.590610
24 Sep 2023 16:31:37.808,29.762,0.000,2724.374761
24 Sep 2023 18:04:25.958,323.623,0.000,2723.286875
24 Sep 2023 18:05:25.000,331.755,1.860,2524.388834
24 Sep 2023 18:06:25.000,341.240,3.401,2371.497844
24 Sep 2023 18:07:25.000,351.759,4.393,2278.804978
24 Sep 2023 18:08:25.000,2.838,4.667,2254.115863
24 Sep 2023 18:09:25.000,13.814,4.168,2299.717478
24 Sep 2023 18:10:25.000,24.061,2.993,2411.465761
24 Sep 2023 18:11:25.000,33.186,1.329,2580.398725
24 Sep 2023 18:12:06.313,38.745,0.000,2724.276043
24 Sep 2023 19:44:39.822,329.832,0.000,2724.536482
24 Sep 2023 19:45:39.000,336.453,2.726,2437.704472
24 Sep 2023 19:46:39.000,344.833,5.489,2181.264326
24 Sep 2023 19:47:39.000,355.239,8.036,1974.144377
24 Sep 2023 19:48:39.000,7.735,9.972,1834.133278
24 Sep 2023 19:49:39.000,21.727,10.807,1777.835817
24 Sep 2023 19:50:39.000,35.894,10.265,1813.375913
24 Sep 2023 19:51:39.000,48.813,8.526,1935.661084
24 Sep 2023 19:52:39.000,59.703,6.065,2129.464085
24 Sep 2023 19:53:39.000,68.505,3.313,2376.786938
24 Sep 2023 19:54:39.000,75.533,0.525,2662.009224
24 Sep 2023 19:54:50.457,76.706,0.000,2719.740580
24 Sep 2023 21:23:52.019,319.285,0.000,2724.024508
24 Sep 2023 21:24:52.000,321.248,3.832,2330.182971
24 Sep 2023 21:25:52.000,323.951,8.466,1940.860592
24 Sep 2023 21:26:52.000,328.004,14.439,1561.844905
24 Sep 2023 21:27:52.000,334.885,22.769,1205.193848
24 Sep 2023 21:28:52.000,348.919,35.001,900.262425
24 Sep 2023 21:29:52.000,23.210,48.622,718.377240
24 Sep 2023 21:30:52.000,74.172,45.019,755.422227
24 Sep 2023 21:31:52.000,99.989,30.588,987.049332
24 Sep 2023 21:32:52.000,110.911,19.706,1313.575490
24 Sep 2023 21:33:52.000,116.602,12.254,1679.735906
24 Sep 2023 21:34:52.000,120.080,6.775,2063.538552
24 Sep 2023 21:35:52.000,122.442,2.428,2455.599818
24 Sep 2023 21:36:30.845,123.614,0.000,2711.564339
24 Sep 2023 23:03:56.037,296.653,0.000,2721.608934
24 Sep 2023 23:04:56.000,291.472,3.281,2379.760445
24 Sep 2023 23:05:56.000,284.517,6.853,2062.662465
24 Sep 2023 23:06:56.000,275.024,10.625,1785.416096
24 Sep 2023 23:07:56.000,262.155,14.196,1570.565754
24 Sep 2023 23:08:56.000,245.744,16.616,1447.092927
24 Sep 2023 23:09:56.000,227.540,16.761,1439.129707
24 Sep 2023 23:10:56.000,210.749,14.544,1548.378905
24 Sep 2023 23:11:56.000,197.390,11.032,1752.583135
24 Sep 2023 23:12:56.000,187.475,7.240,2022.424731
24 Sep 2023 23:13:56.000,180.191,3.629,2334.293217
24 Sep 2023 23:14:56.000,174.746,0.308,2672.416457
24 Sep 2023 23:15:01.843,174.291,0.000,2706.340532
25 Sep 2023 12:55:52.097,200.452,0.000,2701.950002
25 Sep 2023 12:56:52.000,197.159,3.707,2322.468206
25 Sep 2023 12:57:52.000,192.523,8.072,1953.874763
25 Sep 2023 12:58:52.000,185.599,13.383,1606.790205
25 Sep 2023 12:59:52.000,174.551,19.883,1300.576673
25 Sep 2023 13:00:52.000,156.231,26.905,1072.653894
25 Sep 2023 13:01:52.000,129.034,30.717,980.509549
25 Sep 2023 13:02:52.000,101.356,27.435,1060.599905
25 Sep 2023 13:03:52.000,82.353,20.515,1280.821712
25 Sep 2023 13:04:52.000,70.906,13.948,1583.147560
25 Sep 2023 13:05:52.000,63.794,8.562,1928.486944
25 Sep 2023 13:06:52.000,59.087,4.141,2296.485239
25 Sep 2023 13:07:52.000,55.786,0.389,2676.666004
25 Sep 2023 13:07:58.733,55.478,0.000,2719.805939
25 Sep 2023 14:35:22.941,249.192,0.000,2709.064748
25 Sep 2023 14:36:22.000,252.679,3.604,2338.876162
25 Sep 2023 14:37:22.000,257.544,7.882,1974.434481
25 Sep 2023 14:38:22.000,264.638,13.045,1631.390945
25 Sep 2023 14:39:22.000,275.668,19.305,1328.190083
25 Sep 2023 14:40:22.000,293.494,26.053,1099.820558
25 Sep 2023 14:41:22.000,319.716,30.000,999.940724
25 Sep 2023 14:42:22.000,347.178,27.366,1065.574564
25 Sep 2023 14:43:22.000,6.879,20.862,1271.012819
25 Sep 2023 14:44:22.000,19.129,14.413,1561.331379
25 Sep 2023 14:45:22.000,26.928,9.039,1897.035713
25 Sep 2023 14:46:22.000,32.227,4.607,2256.890643
25 Sep 2023 14:47:22.000,36.057,0.846,2629.828114
25 Sep 2023 14:47:36.725,36.843,0.000,2722.592737
25 Sep 2023 16:17:38.128,295.385,0.000,2718.111147
25 Sep 2023 16:18:38.000,302.834,2.427,2462.115976
25 Sep 2023 16:19:38.000,311.864,4.689,2247.675017
25 Sep 2023 16:20:38.000,322.546,6.539,2089.252997
25 Sep 2023 16:21:38.000,334.607,7.656,2000.791394
25 Sep 2023 16:22:38.000,347.290,7.778,1991.909349
25 Sep 2023 16:23:38.000,359.566,6.876,2063.596688
25 Sep 2023 16:24:38.000,10.590,5.173,2207.701241
25 Sep 2023 16:25:38.000,19.988,2.990,2410.724710
25 Sep 2023 16:26:38.000,27.788,0.593,2658.476516
25 Sep 2023 16:26:52.534,29.460,0.000,2723.795538
25 Sep 2023 17:59:58.429,326.710,0.000,2723.006748
25 Sep 2023 18:00:58.000,334.863,1.920,2517.841593
25 Sep 2023 18:01:58.000,344.332,3.515,2360.125447
25 Sep 2023 18:02:58.000,354.884,4.567,2262.437222
25 Sep 2023 18:03:58.000,6.050,4.894,2233.073180
25 Sep 2023 18:04:58.000,17.154,4.431,2274.810105
25 Sep 2023 18:05:58.000,27.541,3.270,2383.785011
25 Sep 2023 18:06:58.000,36.794,1.600,2551.036112
25 Sep 2023 18:07:47.025,43.410,0.000,2723.217110
25 Sep 2023 19:39:51.410,328.845,0.000,2723.836134
25 Sep 2023 19:40:51.000,334.954,2.963,2413.602866
25 Sep 2023 19:41:51.000,342.811,6.072,2130.739544
25 Sep 2023 19:42:51.000,352.908,9.135,1892.182938
25 Sep 2023 19:43:51.000,5.614,11.743,1717.688798
25 Sep 2023 19:44:51.000,20.597,13.226,1628.844927
25 Sep 2023 19:45:51.000,36.376,13.021,1640.092409
25 Sep 2023 19:46:51.000,50.943,11.212,1749.561533
25 Sep 2023 19:47:51.000,63.061,8.437,1940.420448
25 Sep 2023 19:48:51.000,72.604,5.323,2190.960790
25 Sep 2023 19:49:51.000,80.013,2.220,2482.440952
25 Sep 2023 19:50:35.668,84.457,0.000,2717.746395
25 Sep 2023 21:19:04.621,316.496,0.000,2723.109276
25 Sep 2023 21:20:04.000,317.352,3.857,2326.847073
25 Sep 2023 21:21:04.000,318.503,8.614,1928.873162
25 Sep 2023 21:22:04.000,320.196,14.883,1537.473008
25 Sep 2023 21:23:04.000,323.100,24.080,1161.718442
25 Sep 2023 21:24:04.000,329.661,39.553,825.861222
25 Sep 2023 21:25:04.000,358.416,65.820,603.329549
25 Sep 2023 21:26:04.000,100.741,60.324,629.993072
25 Sep 2023 21:27:04.000,120.579,35.796,883.585615
25 Sep 2023 21:28:04.000,125.995,21.894,1230.491846
25 Sep 2023 21:29:04.000,128.536,13.414,1610.666600
25 Sep 2023 21:30:04.000,130.042,7.500,2004.229508
25 Sep 2023 21:31:04.000,131.060,2.937,2403.454471
25 Sep 2023 21:31:49.797,131.648,0.000,2709.654859
25 Sep 2023 22:59:32.192,290.512,0.000,2720.022848
25 Sep 2023 23:00:32.000,284.125,2.882,2416.935067
25 Sep 2023 23:01:32.000,275.915,5.798,2148.487547
25 Sep 2023 23:02:32.000,265.481,8.507,1931.812825
25 Sep 2023 23:03:32.000,252.717,10.561,1786.740410
25 Sep 2023 23:04:32.000,238.304,11.390,1731.868197
25 Sep 2023 23:05:32.000,223.793,10.689,1775.670380
25 Sep 2023 23:06:32.000,210.789,8.716,1911.088047
25 Sep 2023 23:07:32.000,200.073,6.036,2120.048878
25 Sep 2023 23:08:32.000,191.599,3.119,2382.462773
25 Sep 2023 23:09:32.000,184.961,0.218,2681.698309
25 Sep 2023 23:09:36.581,184.516,0.000,2705.686066
26 Sep 2023 11:15:39.213,142.943,0.000,2703.155859
26 Sep 2023 11:16:39.000,133.989,1.239,2570.474093
26 Sep 2023 11:17:39.000,124.241,1.958,2497.477230
26 Sep 2023 11:18:39.000,114.170,2.043,2490.500363
26 Sep 2023 11:19:39.000,104.314,1.480,2550.264741
26 Sep 2023 11:20:39.000,95.148,0.357,2672.206817
26 Sep 2023 11:20:54.218,92.973,0.000,2712.077687
26 Sep 2023 12:50:47.890,209.067,0.000,2702.144789
26 Sep 2023 12:51:47.000,207.065,3.800,2313.797079
26 Sep 2023 12:52:47.000,204.150,8.453,1925.465223
26 Sep 2023 12:53:47.000,199.618,14.425,1549.638543
26 Sep 2023 12:54:47.000,191.739,22.634,1200.376942
26 Sep 2023 12:55:47.000,175.804,34.079,911.014842
26 Sep 2023 12:56:47.000,141.156,44.684,755.674577
26 Sep 2023 12:57:47.000,97.729,40.028,815.662002
26 Sep 2023 12:58:47.000,74.508,27.692,1054.708549
26 Sep 2023 12:59:47.000,63.792,18.044,1382.246542
26 Sep 2023 13:00:47.000,58.055,11.176,1748.344572
26 Sep 2023 13:01:47.000,54.569,5.995,2132.166691
26 Sep 2023 13:02:47.000,52.258,1.817,2524.461450
26 Sep 2023 13:03:16.627,51.388,0.000,2719.768111
26 Sep 2023 14:30:51.908,257.124,0.000,2710.005565
26 Sep 2023 14:31:51.000,261.500,3.437,2355.619724
26 Sep 2023 14:32:51.000,267.490,7.396,2012.794834
26 Sep 2023 14:33:51.000,275.920,11.917,1699.105218
26 Sep 2023 14:34:51.000,288.149,16.854,1435.288770
26 Sep 2023 14:35:51.000,305.608,21.255,1254.414477
26 Sep 2023 14:36:51.000,327.552,22.970,1195.427435
26 Sep 2023 14:37:51.000,349.038,20.729,1275.446175
26 Sep 2023 14:38:51.000,5.654,16.162,1471.595352
26 Sep 2023 14:39:51.000,17.213,11.281,1744.443467
26 Sep 2023 14:40:51.000,25.223,6.866,2062.874423
26 Sep 2023 14:41:51.000,30.972,3.002,2407.821266
26 Sep 2023 14:42:43.431,34.793,0.000,2722.176719
26 Sep 2023 16:13:23.465,302.446,0.000,2718.692507
26 Sep 2023 16:14:23.000,310.175,2.224,2483.092522
26 Sep 2023 16:15:23.000,319.419,4.221,2290.692400
26 Sep 2023 16:16:23.000,330.092,5.740,2156.365728
26 Sep 2023 16:17:23.000,341.817,6.516,2091.820251
26 Sep 2023 16:18:23.000,353.849,6.379,2103.680301
26 Sep 2023 16:19:23.000,5.316,5.361,2190.606027
26 Sep 2023 16:20:23.000,15.575,3.678,2343.905762
26 Sep 2023 16:21:23.000,24.368,1.596,2551.076757
26 Sep 2023 16:22:05.439,29.721,0.000,2723.173595
26 Sep 2023 17:55:20.988,328.814,0.000,2722.632470
26 Sep 2023 17:56:20.000,336.754,2.000,2509.186133
26 Sep 2023 17:57:20.000,346.144,3.727,2339.483047
26 Sep 2023 17:58:20.000,356.731,4.931,2229.072867
26 Sep 2023 17:59:20.000,8.075,5.404,2187.427724
26 Sep 2023 18:00:20.000,19.474,5.047,2218.616038
26 Sep 2023 18:01:20.000,30.206,3.935,2319.622630
26 Sep 2023 18:02:20.000,39.783,2.267,2481.617651
26 Sep 2023 18:03:20.000,48.032,0.261,2693.098661
26 Sep 2023 18:03:27.386,48.957,0.000,2721.982247
26 Sep 2023 19:34:57.608,327.506,0.000,2723.071329
26 Sep 2023 19:35:57.000,332.939,3.165,2393.180321
26 Sep 2023 19:36:57.000,340.101,6.626,2083.881497
26 Sep 2023 19:37:57.000,349.645,10.268,1812.590973
26 Sep 2023 19:38:57.000,2.333,13.726,1600.169520
26 Sep 2023 19:39:57.000,18.350,16.156,1473.398699
26 Sep 2023 19:40:57.000,36.229,16.518,1455.486249
26 Sep 2023 19:41:57.000,53.075,14.613,1550.390147
26 Sep 2023 19:42:57.000,66.824,11.341,1739.525587
26 Sep 2023 19:43:57.000,77.252,7.680,1995.764207
26 Sep 2023 19:44:57.000,85.040,4.130,2296.015049
26 Sep 2023 19:45:57.000,90.939,0.838,2624.323202
26 Sep 2023 19:46:13.093,92.278,0.000,2715.730809
26 Sep 2023 21:14:14.492,313.395,0.000,2722.125151
26 Sep 2023 21:15:14.000,313.108,3.880,2323.608701
26 Sep 2023 21:16:14.000,312.609,8.665,1924.072333
26 Sep 2023 21:17:14.000,311.724,14.991,1530.847739
26 Sep 2023 21:18:14.000,309.981,24.336,1152.819550
26 Sep 2023 21:19:14.000,305.597,40.330,814.055651
26 Sep 2023 21:20:14.000,282.305,69.249,589.335835
26 Sep 2023 21:21:14.000,160.718,62.085,619.855704
26 Sep 2023 21:22:14.000,146.396,35.987,879.389358
26 Sep 2023 21:23:14.000,142.883,21.871,1230.092874
26 Sep 2023 21:24:14.000,141.353,13.353,1612.670383
26 Sep 2023 21:25:14.000,140.519,7.432,2007.916884
26 Sep 2023 21:26:14.000,140.008,2.868,2408.418548
26 Sep 2023 21:26:58.669,139.744,0.000,2707.846378
26 Sep 2023 22:55:15.360,282.862,0.000,2718.169045
26 Sep 2023 22:56:15.000,275.345,2.347,2468.144560
26 Sep 2023 22:57:15.000,266.192,4.471,2263.417022
26 Sep 2023 22:58:15.000,255.443,6.095,2120.053095
26 Sep 2023 22:59:15.000,243.502,6.913,2051.447653
26 Sep 2023 23:00:15.000,231.221,6.725,2065.206553
26 Sep 2023 23:01:15.000,219.599,5.579,2159.564627
26 Sep 2023 23:02:15.000,209.349,3.735,2324.247252
26 Sep 2023 23:03:15.000,200.714,1.497,2544.928607
26 Sep 2023 23:03:52.613,196.091,0.000,2705.458004
27 Sep 2023 11:09:14.444,159.192,0.000,2700.865743
27 Sep 2023 11:10:14.000,151.198,2.110,2477.930254
27 Sep 2023 11:11:14.000,141.710,3.909,2304.148845
27 Sep 2023 11:12:14.000,130.935,5.137,2194.417330
27 Sep 2023 11:13:14.000,119.391,5.561,2159.145907
27 Sep 2023 11:14:14.000,107.890,5.086,2202.204938
27 Sep 2023 11:15:14.000,97.228,3.818,2319.206368
27 Sep 2023 11:16:14.000,87.894,1.995,2499.479737
27 Sep 2023 11:17:10.147,80.478,0.000,2713.918839
27 Sep 2023 12:45:45.925,217.373,0.000,2702.555426
27 Sep 2023 12:46:45.000,216.585,3.871,2307.497394
27 Sep 2023 12:47:45.000,215.404,8.678,1909.132713
27 Sep 2023 12:48:45.000,213.497,15.031,1518.161025
27 Sep 2023 12:49:45.000,209.959,24.371,1144.553501
27 Sep 2023 12:50:45.000,201.477,39.962,815.072051
27 Sep 2023 12:51:45.000,165.781,64.026,608.607194
27 Sep 2023 12:52:45.000,79.909,55.980,655.239129
27 Sep 2023 12:53:45.000,59.605,33.896,916.996567
27 Sep 2023 12:54:45.000,53.540,20.923,1266.229974
27 Sep 2023 12:55:45.000,50.756,12.826,1647.297186
27 Sep 2023 12:56:45.000,49.204,7.099,2041.351968
27 Sep 2023 12:57:45.000,48.245,2.640,2440.907646
27 Sep 2023 12:58:26.669,47.782,0.000,2719.655408
27 Sep 2023 14:26:20.692,265.004,0.000,2710.930176
27 Sep 2023 14:27:20.000,270.191,3.256,2373.834855
27 Sep 2023 14:28:20.000,277.122,6.868,2055.544147
27 Sep 2023 14:29:20.000,286.512,10.747,1773.898360
27 Sep 2023 14:30:20.000,299.272,14.551,1550.268967
27 Sep 2023 14:31:20.000,315.800,17.360,1413.392733
