xian_to_starlink-1172_Access_AER.csv

"Time (UTCG)","Azimuth (deg)","Elevation (deg)","Range (km)"
14 Sep 2023 04:00:00.000,329.140,15.498,1517.981423
14 Sep 2023 04:01:00.000,336.801,24.199,1168.223802
14 Sep 2023 04:02:00.000,352.710,36.758,877.407226
14 Sep 2023 04:03:00.000,30.324,48.843,722.592342
14 Sep 2023 04:04:00.000,78.019,42.748,789.206592
14 Sep 2023 04:05:00.000,100.938,28.880,1035.274918
14 Sep 2023 04:06:00.000,111.056,18.657,1366.534339
14 Sep 2023 04:07:00.000,116.495,11.555,1734.000900
14 Sep 2023 04:08:00.000,119.883,6.259,2117.899409
14 Sep 2023 04:09:00.000,122.211,2.016,2509.569854
14 Sep 2023 04:09:32.595,123.201,0.000,2723.963639
14 Sep 2023 05:36:59.759,297.075,0.000,2734.708260
14 Sep 2023 05:37:59.000,292.079,3.257,2395.048107
14 Sep 2023 05:38:59.000,285.298,6.856,2074.854755
14 Sep 2023 05:39:59.000,276.018,10.690,1793.004006
14 Sep 2023 05:40:59.000,263.359,14.383,1571.588229
14 Sep 2023 05:41:59.000,247.032,16.999,1439.724413
14 Sep 2023 05:42:59.000,228.650,17.337,1422.990647
14 Sep 2023 05:43:59.000,211.501,15.197,1525.136891
14 Sep 2023 05:44:59.000,197.806,11.651,1724.722072
14 Sep 2023 05:45:59.000,187.661,7.784,1991.931756
14 Sep 2023 05:46:59.000,180.239,4.100,2302.396791
14 Sep 2023 05:47:59.000,174.713,0.721,2639.811352
14 Sep 2023 05:48:12.525,173.664,0.000,2718.452258
14 Sep 2023 19:29:52.433,200.555,0.000,2715.684746
14 Sep 2023 19:30:52.000,197.322,3.681,2338.517187
14 Sep 2023 19:31:52.000,192.759,8.034,1969.842623
14 Sep 2023 19:32:52.000,185.965,13.325,1622.179036
14 Sep 2023 19:33:52.000,175.156,19.809,1314.325529
14 Sep 2023 19:34:52.000,157.230,26.887,1082.621767
14 Sep 2023 19:35:52.000,130.344,30.973,983.735226
14 Sep 2023 19:36:52.000,102.427,27.969,1056.143590
14 Sep 2023 19:37:52.000,83.019,21.068,1270.726306
14 Sep 2023 19:38:52.000,71.314,14.419,1569.644715
14 Sep 2023 19:39:52.000,64.060,8.954,1912.921017
14 Sep 2023 19:40:52.000,59.271,4.474,2279.582564
14 Sep 2023 19:41:52.000,55.922,0.680,2658.833843
14 Sep 2023 19:42:03.707,55.385,0.000,2733.746706
14 Sep 2023 21:09:30.105,249.164,0.000,2722.900794
14 Sep 2023 21:10:30.000,252.680,3.654,2347.900983
14 Sep 2023 21:11:30.000,257.517,7.931,1983.888088
14 Sep 2023 21:12:30.000,264.558,13.090,1641.119521
14 Sep 2023 21:13:30.000,275.478,19.339,1337.776014
14 Sep 2023 21:14:30.000,293.096,26.098,1108.240899
14 Sep 2023 21:15:30.000,319.083,30.154,1005.410732
14 Sep 2023 21:16:30.000,346.559,27.676,1066.847244
14 Sep 2023 21:17:30.000,6.436,21.214,1268.595464
14 Sep 2023 21:18:30.000,18.829,14.731,1556.343946
14 Sep 2023 21:19:30.000,26.718,9.314,1890.310709
14 Sep 2023 21:20:30.000,32.073,4.846,2248.934413
14 Sep 2023 21:21:30.000,35.940,1.057,2620.947772
14 Sep 2023 21:21:48.351,36.921,0.000,2736.368459
14 Sep 2023 22:51:51.840,295.204,0.000,2732.009644
14 Sep 2023 22:52:51.000,302.490,2.407,2477.936506
14 Sep 2023 22:53:51.000,311.418,4.688,2261.401614
14 Sep 2023 22:54:51.000,321.995,6.571,2099.960520
14 Sep 2023 22:55:51.000,333.971,7.738,2007.552477
14 Sep 2023 22:56:51.000,346.619,7.921,1994.090832
14 Sep 2023 22:57:51.000,358.920,7.071,2061.102726
14 Sep 2023 22:58:51.000,10.013,5.402,2200.949234
14 Sep 2023 22:59:51.000,19.495,3.235,2400.402424
14 Sep 2023 23:00:51.000,27.377,0.840,2645.300656
14 Sep 2023 23:01:11.558,29.746,0.000,2737.385017
15 Sep 2023 00:34:18.347,326.379,0.000,2736.694260
15 Sep 2023 00:35:18.000,334.467,1.942,2529.143312
15 Sep 2023 00:36:18.000,343.861,3.567,2368.628434
15 Sep 2023 00:37:18.000,354.352,4.659,2267.449412
15 Sep 2023 00:38:18.000,5.492,5.031,2234.101724
15 Sep 2023 00:39:18.000,16.610,4.611,2271.720039
15 Sep 2023 00:40:18.000,27.045,3.480,2376.821806
15 Sep 2023 00:41:18.000,36.363,1.828,2540.701164
15 Sep 2023 00:42:13.850,43.899,0.000,2736.396600
15 Sep 2023 02:14:18.539,328.617,0.000,2737.301041
15 Sep 2023 02:15:18.000,334.635,2.966,2426.645096
15 Sep 2023 02:16:18.000,342.388,6.092,2141.985996
15 Sep 2023 02:17:18.000,352.360,9.190,1900.697775
15 Sep 2023 02:18:18.000,4.944,11.860,1722.314451
15 Sep 2023 02:19:18.000,19.864,13.434,1628.527042
15 Sep 2023 02:20:18.000,35.686,13.320,1634.448868
15 Sep 2023 02:21:18.000,50.384,11.562,1739.142550
15 Sep 2023 02:22:18.000,62.654,8.794,1926.309222
15 Sep 2023 02:23:18.000,72.325,5.661,2174.227313
15 Sep 2023 02:24:18.000,79.828,2.531,2463.901092
15 Sep 2023 02:25:08.612,84.865,0.000,2730.347901
15 Sep 2023 03:53:38.896,316.371,0.000,2736.326684
15 Sep 2023 03:54:38.000,317.177,3.832,2342.213517
15 Sep 2023 03:55:38.000,318.257,8.570,1944.472754
15 Sep 2023 03:56:38.000,319.835,14.796,1553.132315
15 Sep 2023 03:57:38.000,322.514,23.893,1176.986650
15 Sep 2023 03:58:38.000,328.482,39.126,839.313447
15 Sep 2023 03:59:38.000,354.077,65.449,610.352890
15 Sep 2023 04:00:38.000,100.519,62.217,625.320388
15 Sep 2023 04:01:38.000,121.103,36.930,871.788449
15 Sep 2023 04:02:38.000,126.439,22.588,1215.800896
15 Sep 2023 04:03:38.000,128.906,13.897,1594.603859
15 Sep 2023 04:04:38.000,130.359,7.871,1987.375254
15 Sep 2023 04:05:38.000,131.339,3.241,2386.076772
15 Sep 2023 04:06:28.253,131.953,0.000,2721.766604
15 Sep 2023 05:34:13.948,290.424,0.000,2732.842284
15 Sep 2023 05:35:13.000,284.140,2.832,2434.554641
15 Sep 2023 05:36:13.000,275.992,5.730,2166.675192
15 Sep 2023 05:37:13.000,265.659,8.422,1950.038155
15 Sep 2023 05:38:13.000,253.038,10.473,1804.090864
15 Sep 2023 05:39:13.000,238.779,11.327,1747.153328
15 Sep 2023 05:40:13.000,224.376,10.676,1787.851865
15 Sep 2023 05:41:13.000,211.408,8.756,1919.712838
15 Sep 2023 05:42:13.000,200.672,6.115,2125.258716
15 Sep 2023 05:43:13.000,192.151,3.220,2384.706025
15 Sep 2023 05:44:13.000,185.460,0.329,2681.479538
15 Sep 2023 05:44:19.949,184.783,0.000,2717.667162
15 Sep 2023 17:50:55.969,145.257,0.000,2716.423039
15 Sep 2023 17:51:55.000,136.567,1.356,2571.382652
15 Sep 2023 17:52:55.000,126.878,2.237,2482.314805
15 Sep 2023 17:53:55.000,116.729,2.487,2458.953588
15 Sep 2023 17:54:55.000,106.669,2.063,2503.385404
15 Sep 2023 17:55:55.000,97.218,1.036,2612.123385
15 Sep 2023 17:56:38.294,90.983,0.000,2726.224092
15 Sep 2023 19:26:22.579,209.910,0.000,2715.769751
15 Sep 2023 19:27:22.000,208.034,3.826,2324.856674
15 Sep 2023 19:28:22.000,205.315,8.491,1935.563878
15 Sep 2023 19:29:22.000,201.085,14.491,1557.977544
15 Sep 2023 19:30:22.000,193.714,22.787,1205.405721
15 Sep 2023 19:31:22.000,178.622,34.597,909.683502
15 Sep 2023 19:32:22.000,144.114,46.388,743.930582
15 Sep 2023 19:33:22.000,98.041,42.115,794.913782
15 Sep 2023 19:34:22.000,73.919,29.010,1030.837137
15 Sep 2023 19:35:22.000,63.195,18.873,1357.921363
15 Sep 2023 19:36:22.000,57.567,11.758,1724.166219
15 Sep 2023 19:37:22.000,54.185,6.442,2108.200603
15 Sep 2023 19:38:22.000,51.960,2.183,2500.666607
15 Sep 2023 19:38:57.311,50.983,0.000,2733.597336
15 Sep 2023 21:06:36.232,257.797,0.000,2723.803449
15 Sep 2023 21:07:36.000,262.269,3.458,2367.273810
15 Sep 2023 21:08:36.000,268.311,7.387,2026.807455
15 Sep 2023 21:09:36.000,276.771,11.847,1715.879233
15 Sep 2023 21:10:36.000,288.950,16.678,1455.028632
15 Sep 2023 21:11:36.000,306.170,20.943,1276.504624
15 Sep 2023 21:12:36.000,327.658,22.611,1217.738850
15 Sep 2023 21:13:36.000,348.757,20.488,1295.229754
15 Sep 2023 21:14:36.000,5.245,16.073,1487.468196
15 Sep 2023 21:15:36.000,16.834,11.288,1756.496306
15 Sep 2023 21:16:36.000,24.919,6.920,2071.718787
15 Sep 2023 21:17:36.000,30.746,3.077,2414.067607
15 Sep 2023 21:18:29.965,34.729,-0.000,2735.826953
15 Sep 2023 22:49:15.404,302.849,0.000,2732.491204
15 Sep 2023 22:50:15.000,310.543,2.221,2497.055379
15 Sep 2023 22:51:15.000,319.726,4.216,2304.697422
15 Sep 2023 22:52:15.000,330.321,5.739,2169.844175
15 Sep 2023 22:53:15.000,341.964,6.528,2104.074455
15 Sep 2023 22:54:15.000,353.927,6.413,2114.043716
15 Sep 2023 22:55:15.000,5.355,5.421,2198.631738
15 Sep 2023 22:56:15.000,15.605,3.761,2349.448149
15 Sep 2023 22:57:15.000,24.411,1.694,2554.233902
15 Sep 2023 22:58:00.216,30.109,0.000,2736.562547
16 Sep 2023 00:31:16.915,328.638,0.000,2736.141682
16 Sep 2023 00:32:16.000,336.496,2.032,2519.274291
16 Sep 2023 00:33:16.000,345.799,3.804,2345.518074
16 Sep 2023 00:34:16.000,356.326,5.065,2230.246593
16 Sep 2023 00:35:16.000,7.659,5.602,2183.240980
16 Sep 2023 00:36:16.000,19.103,5.302,2209.079215
16 Sep 2023 00:37:16.000,29.925,4.230,2305.255789
16 Sep 2023 00:38:16.000,39.609,2.580,2463.245407
16 Sep 2023 00:39:16.000,47.962,0.576,2671.601501
16 Sep 2023 00:39:32.180,49.989,0.000,2734.899043
16 Sep 2023 02:10:59.452,327.164,0.000,2736.363787
16 Sep 2023 02:11:59.000,332.475,3.199,2403.013754
16 Sep 2023 02:12:59.000,339.470,6.706,2090.082009
16 Sep 2023 02:13:59.000,348.825,10.431,1813.727441
16 Sep 2023 02:14:59.000,1.355,14.034,1594.524116
16 Sep 2023 02:15:59.000,17.366,16.669,1459.588684
16 Sep 2023 02:16:59.000,35.496,17.213,1433.611445
16 Sep 2023 02:17:59.000,52.747,15.364,1522.394316
16 Sep 2023 02:18:59.000,66.851,12.031,1707.940105
16 Sep 2023 02:19:59.000,77.507,8.274,1962.493210
16 Sep 2023 02:20:59.000,85.422,4.635,2262.154603
16 Sep 2023 02:21:59.000,91.387,1.272,2590.433158
16 Sep 2023 02:22:23.126,93.377,0.000,2727.963631
16 Sep 2023 03:50:23.873,312.984,0.000,2735.133344
16 Sep 2023 03:51:23.000,312.556,3.844,2339.824227
16 Sep 2023 03:52:23.000,311.855,8.600,1941.048794
16 Sep 2023 03:53:23.000,310.660,14.857,1548.718958
16 Sep 2023 03:54:23.000,308.379,24.025,1171.707777
16 Sep 2023 03:55:23.000,302.852,39.450,833.634660
16 Sep 2023 03:56:23.000,277.286,66.256,606.177276
16 Sep 2023 03:57:23.000,169.040,61.956,625.931422
16 Sep 2023 03:58:23.000,149.951,36.595,876.319365
16 Sep 2023 03:59:23.000,145.161,22.353,1222.470920
16 Sep 2023 04:00:23.000,143.060,13.722,1602.628483
16 Sep 2023 04:01:23.000,141.903,7.729,1996.400205
16 Sep 2023 04:02:23.000,141.182,3.118,2395.904832
16 Sep 2023 04:03:11.386,140.777,0.000,2719.663191
16 Sep 2023 05:31:36.208,281.954,0.000,2730.626963
16 Sep 2023 05:32:36.000,274.338,2.282,2487.056637
16 Sep 2023 05:33:36.000,265.159,4.308,2290.351255
16 Sep 2023 05:34:36.000,254.483,5.818,2155.308076
16 Sep 2023 05:35:36.000,242.738,6.529,2094.336723
16 Sep 2023 05:36:36.000,230.748,6.273,2113.965262
16 Sep 2023 05:37:36.000,219.438,5.113,2211.835518
16 Sep 2023 05:38:36.000,209.451,3.296,2377.814570
16 Sep 2023 05:39:36.000,201.006,1.103,2598.166755
16 Sep 2023 05:40:04.383,197.529,0.000,2717.415301
16 Sep 2023 17:46:04.609,161.904,0.000,2713.970724
16 Sep 2023 17:47:04.000,154.195,2.241,2477.753130
16 Sep 2023 17:48:04.000,144.902,4.232,2287.195133
16 Sep 2023 17:49:04.000,134.163,5.696,2158.754357
16 Sep 2023 17:50:04.000,122.428,6.359,2104.542337
16 Sep 2023 17:51:04.000,110.526,6.067,2130.600923
16 Sep 2023 17:52:04.000,99.360,4.890,2234.158666
16 Sep 2023 17:53:04.000,89.539,3.075,2404.966410
16 Sep 2023 17:54:04.000,81.258,0.896,2629.449155
16 Sep 2023 17:54:27.235,78.449,0.000,2727.919325
16 Sep 2023 19:22:54.803,218.910,0.000,2716.109205
16 Sep 2023 19:23:54.000,218.349,3.879,2320.108128
16 Sep 2023 19:24:54.000,217.502,8.687,1921.320024
16 Sep 2023 19:25:54.000,216.120,15.039,1529.365557
16 Sep 2023 19:26:54.000,213.538,24.396,1153.587894
16 Sep 2023 19:27:54.000,207.274,40.211,819.082937
16 Sep 2023 19:28:54.000,177.643,66.954,601.627644
16 Sep 2023 19:29:54.000,74.569,59.925,636.502210
16 Sep 2023 19:30:54.000,56.346,35.574,894.547339
16 Sep 2023 19:31:54.000,51.500,21.842,1243.202572
16 Sep 2023 19:32:54.000,49.360,13.437,1624.220715
16 Sep 2023 19:33:54.000,48.199,7.557,2018.264397
16 Sep 2023 19:34:54.000,47.503,3.012,2417.772928
16 Sep 2023 19:35:41.176,47.144,0.000,2733.325945
16 Sep 2023 21:03:41.560,266.359,0.000,2724.726779
16 Sep 2023 21:04:41.000,271.647,3.225,2390.526359
16 Sep 2023 21:05:41.000,278.662,6.771,2076.657378
16 Sep 2023 21:06:41.000,288.087,10.541,1800.155756
16 Sep 2023 21:07:41.000,300.748,14.182,1581.966832
16 Sep 2023 21:08:41.000,316.933,16.821,1449.554842
16 Sep 2023 21:09:41.000,335.192,17.316,1427.425474
16 Sep 2023 21:10:41.000,352.454,15.401,1520.366958
16 Sep 2023 21:11:41.000,6.489,12.031,1709.298997
16 Sep 2023 21:12:41.000,17.065,8.266,1966.055329
16 Sep 2023 21:13:41.000,24.924,4.636,2266.825937
16 Sep 2023 21:14:41.000,30.861,1.288,2595.337623
16 Sep 2023 21:15:05.552,32.882,0.000,2735.210415
16 Sep 2023 22:46:31.741,309.832,0.000,2732.756827
16 Sep 2023 22:47:31.000,317.724,2.045,2515.068414
16 Sep 2023 22:48:31.000,327.048,3.821,2341.504331
16 Sep 2023 22:49:31.000,337.598,5.084,2226.751690
16 Sep 2023 22:50:31.000,348.951,5.617,2180.534028
16 Sep 2023 22:51:31.000,0.406,5.313,2207.296904
16 Sep 2023 22:52:31.000,11.228,4.235,2304.364932
16 Sep 2023 22:53:31.000,20.906,2.583,2463.069054
16 Sep 2023 22:54:31.000,29.251,0.580,2671.881767
16 Sep 2023 22:54:47.295,31.291,0.000,2735.712694
17 Sep 2023 00:28:04.090,329.888,0.000,2735.482623
17 Sep 2023 00:29:04.000,337.624,2.219,2499.538656
17 Sep 2023 00:30:04.000,346.802,4.199,2307.758397
17 Sep 2023 00:31:04.000,357.383,5.709,2173.214497
17 Sep 2023 00:32:04.000,9.006,6.488,2107.498913
17 Sep 2023 00:33:04.000,20.950,6.366,2117.337979
17 Sep 2023 00:34:04.000,32.361,5.370,2201.735381
17 Sep 2023 00:35:04.000,42.599,3.707,2352.434617
17 Sep 2023 00:36:04.000,51.395,1.638,2557.276331
17 Sep 2023 00:36:47.668,56.903,0.000,2733.206314
17 Sep 2023 02:07:34.082,325.348,0.000,2735.398898
17 Sep 2023 02:08:34.000,329.868,3.431,2379.577530
17 Sep 2023 02:09:34.000,335.916,7.312,2040.312328
17 Sep 2023 02:10:34.000,344.331,11.710,1729.960088
17 Sep 2023 02:11:34.000,356.383,16.468,1468.657181
17 Sep 2023 02:12:34.000,13.371,20.687,1288.042203
17 Sep 2023 02:13:34.000,34.623,22.406,1225.293572
17 Sep 2023 02:14:34.000,55.665,20.393,1297.993250
17 Sep 2023 02:15:34.000,72.247,16.046,1486.270101
17 Sep 2023 02:16:34.000,83.949,11.277,1752.785987
17 Sep 2023 02:17:34.000,92.112,6.901,2066.761959
17 Sep 2023 02:18:34.000,97.976,3.043,2408.806074
17 Sep 2023 02:19:27.083,101.907,-0.000,2725.547767
17 Sep 2023 03:47:05.803,309.169,0.000,2733.837120
17 Sep 2023 03:48:05.000,307.454,3.788,2343.742427
17 Sep 2023 03:49:05.000,304.917,8.414,1953.468179
17 Sep 2023 03:50:05.000,300.931,14.351,1574.286634
17 Sep 2023 03:51:05.000,293.955,22.557,1218.808938
17 Sep 2023 03:52:05.000,279.630,34.347,917.251357
17 Sep 2023 03:53:05.000,246.075,46.807,740.607136
17 Sep 2023 03:54:05.000,198.466,43.292,779.799650
17 Sep 2023 03:55:05.000,173.246,29.800,1009.871935
17 Sep 2023 03:56:05.000,162.245,19.315,1334.936702
17 Sep 2023 03:57:05.000,156.524,12.015,1700.471270
17 Sep 2023 03:58:05.000,153.084,6.599,2084.213928
17 Sep 2023 03:59:05.000,150.799,2.283,2476.522037
17 Sep 2023 03:59:41.588,149.748,0.000,2717.812704
17 Sep 2023 05:29:20.632,269.675,0.000,2727.594622
17 Sep 2023 05:30:20.000,261.035,1.409,2573.788576
17 Sep 2023 05:31:20.000,251.387,2.340,2476.548982
17 Sep 2023 05:32:20.000,241.212,2.639,2445.038136
17 Sep 2023 05:33:20.000,231.059,2.256,2481.739055
17 Sep 2023 05:34:20.000,221.469,1.256,2583.457447
17 Sep 2023 05:35:11.958,213.912,0.000,2718.163522
17 Sep 2023 17:41:40.020,174.638,0.000,2712.569280
17 Sep 2023 17:42:40.000,168.053,2.858,2414.801541
17 Sep 2023 17:43:40.000,159.685,5.723,2153.364313
17 Sep 2023 17:44:40.000,149.151,8.355,1944.502791
17 Sep 2023 17:45:40.000,136.408,10.310,1807.647421
17 Sep 2023 17:46:40.000,122.178,11.050,1760.413050
17 Sep 2023 17:47:40.000,107.968,10.317,1810.153000
17 Sep 2023 17:48:40.000,95.277,8.372,1949.393779
17 Sep 2023 17:49:40.000,84.814,5.750,2160.515532
17 Sep 2023 17:50:40.000,76.528,2.893,2424.178187
17 Sep 2023 17:51:40.000,70.033,0.039,2724.350298
17 Sep 2023 17:51:40.828,69.954,0.000,2728.689384
17 Sep 2023 19:19:28.250,227.674,0.000,2716.604904
17 Sep 2023 19:20:28.000,228.371,3.915,2317.251261
17 Sep 2023 19:21:28.000,229.334,8.727,1918.788550
17 Sep 2023 19:22:28.000,230.788,15.089,1527.077081
17 Sep 2023 19:23:28.000,233.327,24.475,1151.335604
17 Sep 2023 19:24:28.000,239.192,40.411,816.377219
17 Sep 2023 19:25:28.000,267.174,67.982,597.625578
17 Sep 2023 19:26:28.000,16.751,60.823,631.448951
17 Sep 2023 19:27:28.000,33.951,35.872,889.317558
17 Sep 2023 19:28:28.000,38.620,21.995,1237.707238
17 Sep 2023 19:29:28.000,40.848,13.540,1618.245344
17 Sep 2023 19:30:28.000,42.207,7.639,2011.664975
17 Sep 2023 19:31:28.000,43.160,3.083,2410.457295
17 Sep 2023 19:32:16.307,43.764,0.000,2732.958214
17 Sep 2023 21:00:45.417,274.824,0.000,2725.617517
17 Sep 2023 21:01:45.000,280.856,3.002,2412.947369
17 Sep 2023 21:02:45.000,288.648,6.162,2127.561982
17 Sep 2023 21:03:45.000,298.704,9.293,1886.438522
17 Sep 2023 21:04:45.000,311.417,11.983,1709.418588
17 Sep 2023 21:05:45.000,326.476,13.545,1618.338769
17 Sep 2023 21:06:45.000,342.387,13.388,1627.942005
17 Sep 2023 21:07:45.000,357.089,11.584,1736.421294
17 Sep 2023 21:08:45.000,9.309,8.788,1926.691669
17 Sep 2023 21:09:45.000,18.922,5.648,2176.714439
17 Sep 2023 21:10:45.000,26.381,2.524,2467.522924
17 Sep 2023 21:11:35.658,31.401,0.000,2734.526258
17 Sep 2023 22:43:38.934,315.943,0.000,2732.802762
17 Sep 2023 22:44:38.000,323.961,1.926,2527.154088
17 Sep 2023 22:45:38.000,333.362,3.555,2366.437751
17 Sep 2023 22:46:38.000,343.866,4.650,2265.212202
17 Sep 2023 22:47:38.000,355.017,5.024,2231.963001
17 Sep 2023 22:48:38.000,6.146,4.605,2269.782067
17 Sep 2023 22:49:38.000,16.588,3.475,2375.120266
17 Sep 2023 22:50:38.000,25.911,1.824,2539.205087
17 Sep 2023 22:51:33.776,33.440,0.000,2734.740783
18 Sep 2023 00:24:41.011,330.307,0.000,2734.752577
18 Sep 2023 00:25:41.000,337.716,2.419,2478.556538
18 Sep 2023 00:26:41.000,346.663,4.673,2263.571376
18 Sep 2023 00:27:41.000,357.242,6.527,2103.531683
18 Sep 2023 00:28:41.000,9.200,7.664,2012.327528
18 Sep 2023 00:29:41.000,21.814,7.822,1999.830446
18 Sep 2023 00:30:41.000,34.072,6.956,2067.583171
18 Sep 2023 00:31:41.000,45.122,5.278,2208.036751
18 Sep 2023 00:32:41.000,54.567,3.107,2408.086963
18 Sep 2023 00:33:41.000,62.415,0.709,2653.678723
18 Sep 2023 00:33:58.336,64.413,0.000,2731.320331
18 Sep 2023 02:04:02.987,323.205,0.000,2734.398757
18 Sep 2023 02:05:02.000,326.730,3.557,2366.549034
18 Sep 2023 02:06:02.000,331.590,7.766,2003.773978
18 Sep 2023 02:07:02.000,338.594,12.822,1661.665417
18 Sep 2023 02:08:02.000,349.351,18.921,1357.883149
18 Sep 2023 02:09:02.000,6.556,25.530,1125.682196
18 Sep 2023 02:10:02.000,31.936,29.658,1016.683752
18 Sep 2023 02:11:02.000,59.233,27.499,1069.826765
18 Sep 2023 02:12:02.000,79.379,21.225,1264.784482
18 Sep 2023 02:13:02.000,92.047,14.776,1548.419157
18 Sep 2023 02:14:02.000,100.109,9.343,1880.276259
18 Sep 2023 02:15:02.000,105.556,4.851,2238.075409
18 Sep 2023 02:16:02.000,109.461,1.041,2610.112750
18 Sep 2023 02:16:19.949,110.424,0.000,2723.127444
18 Sep 2023 03:43:45.567,304.838,0.000,2732.485606
18 Sep 2023 03:44:45.000,301.794,3.661,2354.280866
18 Sep 2023 03:45:45.000,297.445,8.000,1983.196630
18 Sep 2023 03:46:45.000,290.922,13.281,1632.194225
18 Sep 2023 03:47:45.000,280.472,19.797,1319.316025
18 Sep 2023 03:48:45.000,262.934,27.061,1079.938712
18 Sep 2023 03:49:45.000,235.980,31.553,971.212602
18 Sep 2023 03:50:45.000,207.284,28.715,1035.524334
18 Sep 2023 03:51:45.000,187.260,21.627,1246.100561
18 Sep 2023 03:52:45.000,175.277,14.774,1543.541096
18 Sep 2023 03:53:45.000,167.894,9.177,1886.277372
18 Sep 2023 03:54:45.000,163.022,4.617,2252.643383
18 Sep 2023 03:55:45.000,159.597,0.775,2631.592728
18 Sep 2023 03:55:58.221,158.976,0.000,2716.128421
18 Sep 2023 17:37:27.078,185.624,0.000,2711.786941
18 Sep 2023 17:38:27.000,180.335,3.284,2372.533798
18 Sep 2023 17:39:27.000,173.276,6.863,2057.872069
18 Sep 2023 17:40:27.000,163.688,10.641,1783.268451
18 Sep 2023 17:41:27.000,150.748,14.208,1571.367915
18 Sep 2023 17:42:27.000,134.324,16.613,1451.047844
18 Sep 2023 17:43:27.000,116.189,16.748,1445.996912
18 Sep 2023 17:44:27.000,99.516,14.543,1557.467520
18 Sep 2023 17:45:27.000,86.272,11.058,1763.210198
18 Sep 2023 17:46:27.000,76.455,7.291,2034.225213
18 Sep 2023 17:47:27.000,69.261,3.695,2347.195256
18 Sep 2023 17:48:27.000,63.906,0.384,2686.522922
18 Sep 2023 17:48:34.290,63.351,0.000,2729.024293
18 Sep 2023 19:16:02.290,236.282,0.000,2717.235402
18 Sep 2023 19:17:02.000,238.166,3.844,2324.430098
18 Sep 2023 19:18:02.000,240.812,8.518,1934.599662
18 Sep 2023 19:19:02.000,244.831,14.554,1555.408491
18 Sep 2023 19:20:02.000,251.718,22.990,1199.126435
18 Sep 2023 19:21:02.000,265.887,35.390,895.658086
18 Sep 2023 19:22:02.000,300.724,49.054,717.293835
18 Sep 2023 19:23:02.000,351.755,45.103,758.787881
18 Sep 2023 19:24:02.000,17.185,30.637,992.721133
18 Sep 2023 19:25:02.000,27.959,19.801,1319.800150
18 Sep 2023 19:26:02.000,33.609,12.378,1685.722992
18 Sep 2023 19:27:02.000,37.095,6.914,2068.883200
18 Sep 2023 19:28:02.000,39.494,2.577,2460.038008
18 Sep 2023 19:28:43.455,40.775,0.000,2732.485522
18 Sep 2023 20:57:46.960,283.136,0.000,2726.420743
18 Sep 2023 20:58:46.000,289.715,2.740,2439.359532
18 Sep 2023 20:59:46.000,298.074,5.526,2182.268769
18 Sep 2023 21:00:46.000,308.467,8.096,1974.776236
18 Sep 2023 21:01:46.000,320.957,10.054,1834.611360
18 Sep 2023 21:02:46.000,334.947,10.910,1778.254722
18 Sep 2023 21:03:46.000,349.113,10.384,1813.658737
18 Sep 2023 21:04:46.000,2.035,8.658,1935.580371
18 Sep 2023 21:05:46.000,12.934,6.206,2128.714943
18 Sep 2023 21:06:46.000,21.754,3.461,2375.050082
18 Sep 2023 21:07:46.000,28.807,0.681,2658.979231
18 Sep 2023 21:08:00.897,30.331,0.000,2733.853420
18 Sep 2023 22:40:35.300,321.005,0.000,2732.621161
18 Sep 2023 22:41:35.000,329.183,1.893,2530.322297
18 Sep 2023 22:42:35.000,338.630,3.450,2376.130879
18 Sep 2023 22:43:35.000,349.118,4.462,2281.795475
18 Sep 2023 22:44:35.000,0.182,4.757,2255.204338
18 Sep 2023 22:45:35.000,11.162,4.279,2298.803588
18 Sep 2023 22:46:35.000,21.428,3.118,2408.623856
18 Sep 2023 22:47:35.000,30.582,1.462,2575.825801
18 Sep 2023 22:48:20.359,36.679,0.000,2733.691110
19 Sep 2023 00:21:08.819,330.059,0.000,2733.939734
19 Sep 2023 00:22:08.000,336.925,2.604,2459.194554
19 Sep 2023 00:23:08.000,345.503,5.181,2217.340914
19 Sep 2023 00:24:08.000,355.960,7.470,2026.783286
19 Sep 2023 00:25:08.000,8.233,9.102,1903.892730
19 Sep 2023 00:26:08.000,21.666,9.678,1862.699086
19 Sep 2023 00:27:08.000,35.063,9.022,1908.740716
19 Sep 2023 00:28:08.000,47.244,7.329,2036.023881
19 Sep 2023 00:29:08.000,57.586,5.003,2230.323804
19 Sep 2023 00:30:08.000,66.050,2.405,2475.332547
19 Sep 2023 00:31:02.383,72.315,0.000,2729.235800
19 Sep 2023 02:00:26.665,320.750,0.000,2733.376806
19 Sep 2023 02:01:26.000,323.279,3.722,2349.792216
19 Sep 2023 02:02:26.000,326.786,8.214,1968.472841
19 Sep 2023 02:03:26.000,331.984,13.875,1600.571198
19 Sep 2023 02:04:26.000,340.513,21.401,1260.074503
19 Sep 2023 02:05:26.000,356.365,31.345,978.196478
19 Sep 2023 02:06:26.000,27.053,40.359,819.645276
19 Sep 2023 02:07:26.000,66.054,37.831,856.751884
19 Sep 2023 02:08:26.000,90.589,27.449,1069.343684
19 Sep 2023 02:09:26.000,103.068,18.325,1377.991612
19 Sep 2023 02:10:26.000,110.070,11.550,1731.289344
19 Sep 2023 02:11:26.000,114.487,6.365,2105.914040
19 Sep 2023 02:12:26.000,117.531,2.165,2491.166871
19 Sep 2023 02:13:01.348,118.925,0.000,2720.791541
19 Sep 2023 03:40:24.420,299.852,0.000,2730.945770
19 Sep 2023 03:41:24.000,295.468,3.435,2374.258244
19 Sep 2023 03:42:24.000,289.425,7.323,2034.094910
19 Sep 2023 03:43:24.000,280.869,11.683,1726.039407
19 Sep 2023 03:44:24.000,268.536,16.282,1471.922047
19 Sep 2023 03:45:24.000,251.341,20.101,1304.839869
19 Sep 2023 03:46:24.000,230.488,21.245,1260.551304
19 Sep 2023 03:47:24.000,210.543,18.895,1351.257388
19 Sep 2023 03:48:24.000,195.104,14.582,1553.091340
19 Sep 2023 03:49:24.000,184.242,9.989,1828.911075
19 Sep 2023 03:50:24.000,176.657,5.784,2149.485312
19 Sep 2023 03:51:24.000,171.209,2.056,2496.543479
19 Sep 2023 03:52:00.329,168.621,0.000,2714.777999
19 Sep 2023 17:33:20.465,195.605,0.000,2711.408758
19 Sep 2023 17:34:20.000,191.673,3.564,2345.346762
19 Sep 2023 17:35:20.000,186.201,7.694,1991.754653
19 Sep 2023 17:36:20.000,178.273,12.517,1665.305005
19 Sep 2023 17:37:20.000,166.319,17.978,1387.155450
19 Sep 2023 17:38:20.000,148.398,23.096,1193.165098
19 Sep 2023 17:39:20.000,124.935,25.194,1128.640734
19 Sep 2023 17:40:20.000,102.019,22.520,1214.740947
19 Sep 2023 17:41:20.000,85.056,17.259,1424.198610
19 Sep 2023 17:42:20.000,73.835,11.883,1711.735287
19 Sep 2023 17:43:20.000,66.389,7.176,2043.827508
19 Sep 2023 17:44:20.000,61.245,3.138,2401.054366
19 Sep 2023 17:45:13.059,57.909,0.000,2729.109395
19 Sep 2023 19:12:36.405,244.786,-0.000,2718.021273
19 Sep 2023 19:13:36.000,247.760,3.715,2337.231537
19 Sep 2023 19:14:36.000,251.907,8.148,1962.848192
19 Sep 2023 19:15:36.000,258.050,13.639,1605.707776
19 Sep 2023 19:16:36.000,267.947,20.660,1282.192064
19 Sep 2023 19:17:36.000,285.237,29.102,1026.334585
19 Sep 2023 19:18:36.000,314.172,35.247,899.112573
19 Sep 2023 19:19:36.000,346.751,32.422,953.853884
19 Sep 2023 19:20:36.000,8.652,24.162,1164.899532
19 Sep 2023 19:21:36.000,21.069,16.461,1465.544096
19 Sep 2023 19:22:36.000,28.517,10.405,1810.778299
19 Sep 2023 19:23:36.000,33.405,5.598,2178.425980
19 Sep 2023 19:24:36.000,36.869,1.616,2557.659308
19 Sep 2023 19:25:03.241,38.136,0.000,2732.007044
19 Sep 2023 20:54:45.121,291.206,0.000,2727.094146
19 Sep 2023 20:55:45.000,298.393,2.548,2459.079542
19 Sep 2023 20:56:45.000,307.202,4.984,2230.163132
19 Sep 2023 20:57:45.000,317.792,7.067,2055.155694
19 Sep 2023 20:58:45.000,329.987,8.448,1949.296183
19 Sep 2023 20:59:45.000,343.066,8.794,1924.374268
19 Sep 2023 21:00:45.000,355.904,8.010,1983.458188
19 Sep 2023 21:01:45.000,7.497,6.310,2119.252075
19 Sep 2023 21:02:45.000,17.359,4.060,2317.787607
19 Sep 2023 21:03:45.000,25.490,1.568,2563.816036
19 Sep 2023 21:04:21.943,29.738,0.000,2733.091297
19 Sep 2023 22:37:19.745,324.915,0.000,2732.270335
19 Sep 2023 22:38:19.000,333.012,1.892,2529.937756
19 Sep 2023 22:39:19.000,342.443,3.469,2373.755531
19 Sep 2023 22:40:19.000,352.933,4.504,2277.268947
19 Sep 2023 22:41:19.000,4.021,4.822,2248.566408
19 Sep 2023 22:42:19.000,15.045,4.362,2290.316697
19 Sep 2023 22:43:19.000,25.364,3.210,2398.705501
19 Sep 2023 22:44:19.000,34.569,1.555,2564.934901
19 Sep 2023 22:45:07.066,41.042,0.000,2732.480853
20 Sep 2023 00:17:28.500,329.277,0.000,2733.077918
20 Sep 2023 00:18:28.000,335.646,2.846,2434.272278
20 Sep 2023 00:19:28.000,343.748,5.775,2164.830688
20 Sep 2023 00:20:28.000,353.970,8.569,1942.046269
20 Sep 2023 00:21:28.000,6.517,10.825,1784.574542
20 Sep 2023 00:22:28.000,20.917,11.972,1711.312301
20 Sep 2023 00:23:28.000,35.787,11.608,1733.358402
20 Sep 2023 00:24:28.000,49.457,9.866,1847.318626
20 Sep 2023 00:25:28.000,60.940,7.284,2037.528565
20 Sep 2023 00:26:28.000,70.128,4.377,2284.474582
20 Sep 2023 00:27:28.000,77.378,1.447,2571.127160
20 Sep 2023 00:27:58.349,80.450,-0.000,2727.043291
20 Sep 2023 01:56:45.615,317.980,0.000,2732.248930
20 Sep 2023 01:57:45.000,319.409,3.824,2338.998394
20 Sep 2023 01:58:45.000,321.374,8.513,1944.995730
20 Sep 2023 01:59:45.000,324.313,14.621,1559.055739
20 Sep 2023 02:00:45.000,329.347,23.360,1191.390223
20 Sep 2023 02:01:45.000,340.172,37.146,868.034673
20 Sep 2023 02:02:45.000,13.796,56.216,660.084598
20 Sep 2023 02:03:45.000,81.784,52.941,683.776656
20 Sep 2023 02:04:45.000,108.352,34.001,921.449303
20 Sep 2023 02:05:45.000,117.505,21.355,1256.555074
20 Sep 2023 02:06:45.000,121.964,13.226,1629.232713
20 Sep 2023 02:07:45.000,124.619,7.436,2017.759722
20 Sep 2023 02:08:45.000,126.401,2.926,2413.358143
20 Sep 2023 02:09:30.969,127.425,0.000,2718.530477
20 Sep 2023 03:37:04.236,293.978,0.000,2729.274754
20 Sep 2023 03:38:04.000,288.266,3.100,2404.775501
20 Sep 2023 03:39:04.000,280.736,6.380,2108.546262
20 Sep 2023 03:40:04.000,270.792,9.663,1857.497824
20 Sep 2023 03:41:04.000,257.951,12.501,1673.203591
20 Sep 2023 03:42:04.000,242.521,14.117,1579.926355
20 Sep 2023 03:43:04.000,226.204,13.837,1593.992978
20 Sep 2023 03:44:04.000,211.336,11.787,1712.591499
20 Sep 2023 03:45:04.000,199.249,8.748,1915.889488
20 Sep 2023 03:46:04.000,189.957,5.425,2179.537549
20 Sep 2023 03:47:04.000,182.899,2.176,2483.426086
20 Sep 2023 03:47:46.251,178.939,0.000,2713.726432
20 Sep 2023 15:55:14.615,130.728,0.000,2714.551170
20 Sep 2023 15:56:14.000,121.578,0.542,2656.579915
20 Sep 2023 15:57:14.000,112.137,0.531,2659.507936
20 Sep 2023 15:58:11.065,103.374,0.000,2719.634300
20 Sep 2023 17:29:17.543,204.950,0.000,2711.330393
20 Sep 2023 17:30:17.000,202.347,3.758,2326.811343
20 Sep 2023 17:31:17.000,198.619,8.281,1946.977022
20 Sep 2023 17:32:17.000,192.939,13.949,1583.409151
20 Sep 2023 17:33:17.000,183.468,21.345,1252.503249
20 Sep 2023 17:34:17.000,166.122,30.530,989.632553
20 Sep 2023 17:35:17.000,135.496,37.315,861.108221
20 Sep 2023 17:36:17.000,101.131,33.715,925.334723
20 Sep 2023 17:37:17.000,79.510,24.532,1150.317130
20 Sep 2023 17:38:17.000,67.920,16.442,1463.104814
20 Sep 2023 17:39:17.000,61.239,10.246,1818.068447
20 Sep 2023 17:40:17.000,57.013,5.383,2193.787691
20 Sep 2023 17:41:17.000,54.139,1.372,2580.052540
20 Sep 2023 17:41:39.893,53.276,0.000,2729.003223
20 Sep 2023 19:09:10.141,253.216,0.000,2718.834350
20 Sep 2023 19:10:10.000,257.206,3.569,2351.810138
20 Sep 2023 19:11:10.000,262.653,7.692,1998.270888
20 Sep 2023 19:12:10.000,270.450,12.532,1669.974853
20 Sep 2023 19:13:10.000,282.138,18.098,1386.594120
20 Sep 2023 19:14:10.000,299.795,23.550,1182.229946
20 Sep 2023 19:15:10.000,323.573,26.217,1102.561265
20 Sep 2023 19:16:10.000,347.599,23.872,1173.441560
20 Sep 2023 19:17:10.000,5.688,18.530,1371.381392
20 Sep 2023 19:18:10.000,17.706,12.957,1650.607695
20 Sep 2023 19:19:10.000,25.725,8.086,1976.052660
20 Sep 2023 19:20:10.000,31.333,3.938,2327.351689
20 Sep 2023 19:21:10.000,35.460,0.345,2693.251688
20 Sep 2023 19:21:16.174,35.824,0.000,2731.446477
20 Sep 2023 20:51:38.569,298.909,0.000,2727.636804
20 Sep 2023 20:52:38.000,306.430,2.316,2482.684138
20 Sep 2023 20:53:38.000,315.520,4.450,2278.539248
20 Sep 2023 20:54:38.000,326.143,6.143,2131.014758
20 Sep 2023 20:55:38.000,337.983,7.104,2052.898014
20 Sep 2023 20:56:38.000,350.299,7.117,2052.370016
20 Sep 2023 20:57:38.000,2.151,6.180,2129.427868
20 Sep 2023 20:58:38.000,12.797,4.507,2275.876757
20 Sep 2023 20:59:38.000,21.914,2.390,2478.901222
20 Sep 2023 21:00:38.000,29.532,0.064,2725.165231
20 Sep 2023 21:00:39.623,29.719,0.000,2732.313695
20 Sep 2023 22:33:52.013,327.681,0.000,2731.783940
20 Sep 2023 22:34:52.000,335.786,1.989,2519.364162
20 Sep 2023 22:35:52.000,345.184,3.659,2354.985508
20 Sep 2023 22:36:52.000,355.723,4.797,2249.968851
20 Sep 2023 22:37:52.000,6.955,5.211,2213.224670
20 Sep 2023 22:38:52.000,18.195,4.815,2248.269505
20 Sep 2023 22:39:52.000,28.757,3.689,2351.797304
20 Sep 2023 22:40:52.000,38.184,2.027,2515.032244
20 Sep 2023 22:41:52.000,46.318,0.039,2726.744466
20 Sep 2023 22:41:53.119,46.458,0.000,2731.081889
21 Sep 2023 00:13:40.871,328.060,0.000,2732.165912
21 Sep 2023 00:14:40.000,333.748,3.054,2412.987407
21 Sep 2023 00:15:40.000,341.192,6.351,2115.298533
21 Sep 2023 00:16:40.000,350.941,9.724,1858.150508
21 Sep 2023 00:17:40.000,3.569,12.787,1661.783636
21 Sep 2023 00:18:40.000,19.014,14.781,1550.460503
21 Sep 2023 00:19:40.000,35.819,14.907,1543.268341
21 Sep 2023 00:20:40.000,51.560,13.101,1641.711710
21 Sep 2023 00:21:40.000,64.580,10.110,1828.574594
21 Sep 2023 00:22:40.000,74.664,6.730,2079.641461
21 Sep 2023 00:23:40.000,82.347,3.396,2373.902549
21 Sep 2023 00:24:40.000,88.261,0.257,2696.373689
21 Sep 2023 00:24:45.100,88.700,0.000,2724.736438
21 Sep 2023 01:53:00.327,314.877,0.000,2731.112115
21 Sep 2023 01:54:00.000,315.130,3.888,2331.773590
21 Sep 2023 01:55:00.000,315.411,8.668,1932.324672
21 Sep 2023 01:56:00.000,315.745,14.984,1538.819823
21 Sep 2023 01:57:00.000,316.207,24.319,1159.740038
21 Sep 2023 01:58:00.000,317.081,40.394,818.026045
21 Sep 2023 01:59:00.000,321.295,71.362,585.908786
21 Sep 2023 02:00:00.000,131.326,65.521,607.273780
21 Sep 2023 02:01:00.000,134.202,37.246,863.515412
21 Sep 2023 02:02:00.000,134.946,22.539,1213.473213
21 Sep 2023 02:03:00.000,135.341,13.791,1595.787562
21 Sep 2023 02:04:00.000,135.611,7.759,1990.855550
21 Sep 2023 02:05:00.000,135.820,3.133,2391.195759
21 Sep 2023 02:05:48.531,135.962,0.000,2716.403229
21 Sep 2023 03:33:48.319,286.787,0.000,2727.284180
21 Sep 2023 03:34:48.000,279.827,2.618,2450.140593
21 Sep 2023 03:35:48.000,271.119,5.136,2212.751130
21 Sep 2023 03:36:48.000,260.494,7.281,2032.213963
21 Sep 2023 03:37:48.000,248.145,8.666,1925.274984
21 Sep 2023 03:38:48.000,234.891,8.929,1904.690432
21 Sep 2023 03:39:48.000,221.989,7.988,1973.112411
21 Sep 2023 03:40:48.000,210.513,6.111,2121.566454
21 Sep 2023 03:41:48.000,200.919,3.707,2334.187917
21 Sep 2023 03:42:48.000,193.144,1.097,2594.401470
21 Sep 2023 03:43:12.932,190.380,0.000,2713.125903
21 Sep 2023 15:49:10.884,153.222,0.000,2710.747277
21 Sep 2023 15:50:10.000,144.920,1.787,2520.888137
21 Sep 2023 15:51:10.000,135.296,3.187,2382.624117
21 Sep 2023 15:52:10.000,124.753,3.972,2309.759453
21 Sep 2023 15:53:10.000,113.857,3.999,2308.950952
21 Sep 2023 15:54:10.000,103.299,3.262,2380.421157
21 Sep 2023 15:55:10.000,93.655,1.897,2517.886045
21 Sep 2023 15:56:10.000,85.228,0.104,2710.941171
21 Sep 2023 15:56:13.189,84.815,0.000,2722.536036
21 Sep 2023 17:25:16.777,213.874,0.000,2711.479457
21 Sep 2023 17:26:16.000,212.578,3.854,2317.928502
21 Sep 2023 17:27:16.000,210.673,8.604,1923.043666
21 Sep 2023 17:28:16.000,207.658,14.813,1537.171037
21 Sep 2023 17:29:16.000,202.231,23.718,1171.574834
21 Sep 2023 17:30:16.000,190.113,37.634,855.091442
21 Sep 2023 17:31:16.000,153.384,55.197,664.280638
21 Sep 2023 17:32:16.000,91.402,49.658,709.948850
21 Sep 2023 17:33:16.000,67.180,32.077,958.756192
21 Sep 2023 17:34:16.000,58.371,20.267,1298.134696
21 Sep 2023 17:35:16.000,54.084,12.529,1672.948135
21 Sep 2023 17:36:16.000,51.607,6.940,2062.893539
21 Sep 2023 17:37:16.000,50.022,2.543,2459.593991
21 Sep 2023 17:37:56.462,49.252,0.000,2728.795970
21 Sep 2023 19:05:43.003,261.582,0.000,2719.697109
21 Sep 2023 19:06:43.000,266.476,3.381,2370.534193
21 Sep 2023 19:07:43.000,273.006,7.147,2041.645796
21 Sep 2023 19:08:43.000,281.992,11.303,1746.105109
21 Sep 2023 19:09:43.000,294.535,15.575,1505.051856
21 Sep 2023 19:10:43.000,311.425,19.010,1349.052042
21 Sep 2023 19:11:43.000,331.411,20.012,1309.413689
21 Sep 2023 19:12:43.000,350.579,17.944,1396.108008
21 Sep 2023 19:13:43.000,5.819,14.050,1588.187037
21 Sep 2023 19:14:43.000,16.898,9.780,1852.467836
21 Sep 2023 19:15:43.000,24.867,5.780,2161.738747
21 Sep 2023 19:16:43.000,30.742,2.181,2498.314690
21 Sep 2023 19:17:22.745,33.833,0.000,2730.839400
21 Sep 2023 20:48:25.735,306.085,0.000,2727.960598
21 Sep 2023 20:49:25.000,313.876,2.128,2501.967543
21 Sep 2023 20:50:25.000,323.152,4.012,2319.036405
21 Sep 2023 20:51:25.000,333.752,5.400,2194.487665
21 Sep 2023 20:52:25.000,345.273,6.053,2138.997750
21 Sep 2023 20:53:25.000,356.996,5.832,2158.064183
21 Sep 2023 20:54:25.000,8.122,4.789,2249.676311
21 Sep 2023 20:55:25.000,18.079,3.127,2405.197166
21 Sep 2023 20:56:25.000,26.644,1.090,2612.674700
21 Sep 2023 20:56:54.854,30.396,0.000,2731.482811
21 Sep 2023 22:30:12.616,329.408,0.000,2731.161130
21 Sep 2023 22:31:12.000,337.243,2.100,2507.403884
21 Sep 2023 22:32:12.000,346.527,3.944,2327.274551
21 Sep 2023 22:33:12.000,357.103,5.290,2205.424367
21 Sep 2023 22:34:12.000,8.566,5.904,2152.309197
21 Sep 2023 22:35:12.000,20.205,5.657,2173.222367
21 Sep 2023 22:36:12.000,31.241,4.602,2266.082277
21 Sep 2023 22:37:12.000,41.116,2.940,2422.346099
21 Sep 2023 22:38:12.000,49.617,0.910,2630.246003
21 Sep 2023 22:38:37.065,52.766,0.000,2729.515054
22 Sep 2023 00:09:46.594,326.476,0.000,2731.221311
22 Sep 2023 00:10:46.000,331.450,3.284,2389.677775
22 Sep 2023 00:11:46.000,338.080,6.952,2065.164141
22 Sep 2023 00:12:46.000,347.103,10.958,1774.154984
22 Sep 2023 00:13:46.000,359.531,15.021,1537.343650
22 Sep 2023 00:14:46.000,16.034,18.241,1384.090499
22 Sep 2023 00:15:46.000,35.407,19.175,1344.085515
22 Sep 2023 00:16:46.000,54.072,17.245,1427.158322
22 Sep 2023 00:17:46.000,69.111,13.547,1614.249225
22 Sep 2023 00:18:46.000,80.185,9.421,1873.964438
22 Sep 2023 00:19:46.000,88.214,5.507,2179.770231
22 Sep 2023 00:20:46.000,94.151,1.955,2514.008808
22 Sep 2023 00:21:21.815,96.990,0.000,2722.359069
22 Sep 2023 01:49:11.384,311.402,0.000,2729.893949
22 Sep 2023 01:50:11.000,310.416,3.864,2332.728528
22 Sep 2023 01:51:11.000,308.920,8.597,1936.243053
22 Sep 2023 01:52:11.000,306.493,14.790,1547.706164
22 Sep 2023 01:53:11.000,302.047,23.726,1177.348215
22 Sep 2023 01:54:11.000,291.883,38.058,851.689965
22 Sep 2023 01:55:11.000,257.278,58.334,644.786660
22 Sep 2023 01:56:11.000,185.471,53.582,677.155188
22 Sep 2023 01:57:11.000,160.831,33.758,923.902831
22 Sep 2023 01:58:11.000,152.748,21.057,1264.652283
22 Sep 2023 01:59:11.000,148.933,12.963,1640.971122
22 Sep 2023 02:00:11.000,146.741,7.206,2032.120780
22 Sep 2023 02:01:11.000,145.327,2.718,2429.759526
22 Sep 2023 02:01:53.701,144.594,0.000,2714.421505
22 Sep 2023 03:30:43.745,277.302,0.000,2724.844658
22 Sep 2023 03:31:43.000,269.250,1.939,2516.170081
22 Sep 2023 03:32:43.000,259.774,3.529,2357.456668
22 Sep 2023 03:33:43.000,249.185,4.525,2263.313842
22 Sep 2023 03:34:43.000,238.021,4.743,2242.141827
22 Sep 2023 03:35:43.000,227.026,4.136,2295.900348
22 Sep 2023 03:36:43.000,216.874,2.827,2419.254386
22 Sep 2023 03:37:43.000,207.958,1.030,2601.737265
22 Sep 2023 03:38:13.480,203.940,0.000,2713.171246
22 Sep 2023 15:44:03.723,167.337,0.000,2708.924155
22 Sep 2023 15:45:03.000,160.098,2.498,2446.788141
22 Sep 2023 15:46:03.000,151.116,4.864,2224.820432
22 Sep 2023 15:47:03.000,140.356,6.801,2061.726323
22 Sep 2023 15:48:03.000,128.115,7.951,1973.036268
22 Sep 2023 15:49:03.000,115.248,8.020,1969.346597
22 Sep 2023 15:50:03.000,102.912,6.990,2051.266822
22 Sep 2023 15:51:03.000,92.013,5.131,2209.113653
22 Sep 2023 15:52:03.000,82.900,2.805,2427.669056
22 Sep 2023 15:53:03.000,75.489,0.289,2691.516357
22 Sep 2023 15:53:09.796,74.745,0.000,2723.658097
22 Sep 2023 17:21:17.171,222.514,0.000,2711.855331
22 Sep 2023 17:22:17.000,222.471,3.933,2310.830852
22 Sep 2023 17:23:17.000,222.371,8.773,1910.940148
22 Sep 2023 17:24:17.000,222.159,15.200,1517.355892
22 Sep 2023 17:25:17.000,221.684,24.769,1138.996707
22 Sep 2023 17:26:17.000,220.355,41.402,800.300766
22 Sep 2023 17:27:17.000,211.394,73.276,578.292721
22 Sep 2023 17:28:17.000,51.547,63.275,616.669332
22 Sep 2023 17:29:17.000,47.109,36.144,881.924643
22 Sep 2023 17:30:17.000,46.154,21.973,1235.016422
22 Sep 2023 17:31:17.000,45.813,13.464,1618.520403
22 Sep 2023 17:32:17.000,45.693,7.553,2014.034605
22 Sep 2023 17:33:17.000,45.679,2.997,2414.455599
22 Sep 2023 17:34:03.874,45.712,0.000,2728.459889
22 Sep 2023 19:02:14.442,269.871,0.000,2720.516376
22 Sep 2023 19:03:14.000,275.501,3.139,2394.664681
22 Sep 2023 19:04:14.000,282.885,6.526,2092.520142
22 Sep 2023 19:05:14.000,292.645,10.023,1830.949310
22 Sep 2023 19:06:14.000,305.420,13.237,1630.728166
22 Sep 2023 19:07:14.000,321.191,15.359,1517.130381
22 Sep 2023 19:08:14.000,338.419,15.511,1510.179834
22 Sep 2023 19:09:14.000,354.495,13.623,1611.172054
22 Sep 2023 19:10:14.000,7.680,10.518,1801.609739
22 Sep 2023 19:11:14.000,17.808,7.047,2056.094677
22 Sep 2023 19:12:14.000,25.482,3.653,2353.059155
22 Sep 2023 19:13:14.000,31.373,0.478,2677.395167
22 Sep 2023 19:13:23.436,32.174,0.000,2730.190797
22 Sep 2023 20:45:04.862,312.545,0.000,2728.095807
22 Sep 2023 20:46:04.000,320.519,1.983,2516.722421
22 Sep 2023 20:47:04.000,329.906,3.681,2349.976567
22 Sep 2023 20:48:04.000,340.458,4.852,2242.618766
22 Sep 2023 20:49:04.000,351.729,5.295,2203.739246
22 Sep 2023 20:50:04.000,3.030,4.921,2237.025934
22 Sep 2023 20:51:04.000,13.658,3.808,2339.249695
22 Sep 2023 20:52:04.000,23.147,2.150,2501.591569
22 Sep 2023 20:53:04.000,31.333,0.161,2712.706076
22 Sep 2023 20:53:08.597,31.907,0.000,2730.564652
22 Sep 2023 22:26:22.505,330.254,0.000,2730.426910
22 Sep 2023 22:27:22.000,337.833,2.275,2488.832782
22 Sep 2023 22:28:22.000,346.947,4.354,2288.512016
22 Sep 2023 22:29:22.000,357.553,5.984,2144.795397
22 Sep 2023 22:30:22.000,9.320,6.884,2070.156599
22 Sep 2023 22:31:22.000,21.518,6.852,2072.424369
22 Sep 2023 22:32:22.000,33.235,5.895,2151.406012
22 Sep 2023 22:33:22.000,43.757,4.224,2298.987187
22 Sep 2023 22:34:22.000,52.777,2.118,2502.611918
22 Sep 2023 22:35:17.103,59.758,0.000,2727.769224
23 Sep 2023 00:05:46.223,324.568,0.000,2730.238340
23 Sep 2023 00:06:46.000,328.730,3.501,2367.779976
23 Sep 2023 00:07:46.000,334.357,7.524,2018.735448
23 Sep 2023 00:08:46.000,342.309,12.194,1695.501626
23 Sep 2023 00:09:46.000,354.028,17.471,1417.641756
23 Sep 2023 00:10:46.000,11.342,22.516,1218.176418
23 Sep 2023 00:11:46.000,34.187,24.930,1140.110409
23 Sep 2023 00:12:46.000,57.290,22.788,1207.664374
23 Sep 2023 00:13:46.000,75.053,17.808,1399.807606
23 Sep 2023 00:14:46.000,87.102,12.481,1673.686268
23 Sep 2023 00:15:46.000,95.240,7.743,1995.180776
23 Sep 2023 00:16:46.000,100.957,3.664,2343.860574
23 Sep 2023 00:17:46.000,105.162,0.106,2708.204734
23 Sep 2023 00:17:47.914,105.278,0.000,2719.998954
23 Sep 2023 01:45:19.489,307.493,0.000,2728.577162
23 Sep 2023 01:46:19.000,305.234,3.765,2340.663210
23 Sep 2023 01:47:19.000,301.947,8.304,1956.637731
23 Sep 2023 01:48:19.000,296.867,14.033,1586.938048
23 Sep 2023 01:49:19.000,288.244,21.651,1246.489652
23 Sep 2023 01:50:19.000,271.855,31.603,968.677616
23 Sep 2023 01:51:19.000,240.407,39.984,821.325965
23 Sep 2023 01:52:19.000,202.552,36.542,873.752498
23 Sep 2023 01:53:19.000,179.510,26.232,1097.496367
23 Sep 2023 01:54:19.000,167.807,17.400,1412.752026
23 Sep 2023 01:55:19.000,161.256,10.830,1770.382714
23 Sep 2023 01:56:19.000,157.163,5.770,2148.243110
23 Sep 2023 01:57:19.000,154.382,1.648,2536.109146
23 Sep 2023 01:57:46.034,153.401,0.000,2712.637781
23 Sep 2023 03:28:16.324,261.789,0.000,2721.180865
23 Sep 2023 03:29:16.000,252.732,0.882,2623.269081
23 Sep 2023 03:30:16.000,243.138,1.215,2586.139166
23 Sep 2023 03:31:16.000,233.505,0.947,2613.097376
23 Sep 2023 03:32:16.000,224.296,0.115,2701.969637
23 Sep 2023 03:32:22.269,223.373,0.000,2714.602589
23 Sep 2023 15:39:13.327,178.917,0.000,2707.830821
23 Sep 2023 15:40:13.000,172.832,3.021,2394.124275
23 Sep 2023 15:41:13.000,164.907,6.173,2110.684313
23 Sep 2023 15:42:13.000,154.626,9.241,1875.408596
23 Sep 2023 15:43:13.000,141.671,11.761,1709.563403
23 Sep 2023 15:44:13.000,126.555,13.027,1635.298586
23 Sep 2023 15:45:13.000,110.978,12.537,1665.348993
23 Sep 2023 15:46:13.000,96.957,10.504,1794.487569
23 Sep 2023 15:47:13.000,85.543,7.619,2003.294925
23 Sep 2023 15:48:13.000,76.697,4.478,2269.267321
23 Sep 2023 15:49:13.000,69.919,1.383,2573.926787
23 Sep 2023 15:49:40.762,67.332,0.000,2724.163288
23 Sep 2023 17:17:18.041,230.962,0.000,2712.373658
23 Sep 2023 17:18:18.000,232.127,3.913,2313.209888
23 Sep 2023 17:19:18.000,233.756,8.695,1916.987732
23 Sep 2023 17:20:18.000,236.244,14.986,1528.632115
23 Sep 2023 17:21:18.000,240.613,24.146,1158.342689
23 Sep 2023 17:22:18.000,250.471,39.088,832.936640
23 Sep 2023 17:23:18.000,286.280,60.864,628.661476
23 Sep 2023 17:24:18.000,3.615,54.681,668.641190
23 Sep 2023 17:25:18.000,26.752,33.950,921.417631
23 Sep 2023 17:26:18.000,34.264,21.149,1264.605389
23 Sep 2023 17:27:18.000,37.937,13.059,1641.511010
23 Sep 2023 17:28:18.000,40.161,7.316,2032.353903
23 Sep 2023 17:29:18.000,41.691,2.843,2429.205120
23 Sep 2023 17:30:02.942,42.577,0.000,2728.039512
23 Sep 2023 18:58:43.761,278.048,0.000,2721.332362
23 Sep 2023 18:59:43.000,284.306,2.894,2419.196629
23 Sep 2023 19:00:43.000,292.356,5.906,2144.798703
23 Sep 2023 19:01:43.000,302.595,8.809,1917.054797
23 Sep 2023 19:02:43.000,315.276,11.188,1755.153613
23 Sep 2023 19:03:43.000,329.939,12.432,1678.842071
23 Sep 2023 19:04:43.000,345.134,12.095,1699.882947
23 Sep 2023 19:05:43.000,359.076,10.312,1814.720608
23 Sep 2023 19:06:43.000,10.726,7.663,2006.844118
23 Sep 2023 19:07:43.000,19.997,4.695,2255.891951
23 Sep 2023 19:08:43.000,27.281,1.721,2544.333701
23 Sep 2023 19:09:18.757,30.874,0.000,2729.480968
23 Sep 2023 20:41:34.236,318.106,0.000,2728.017411
23 Sep 2023 20:42:34.000,326.287,1.914,2523.647349
23 Sep 2023 20:43:34.000,335.746,3.493,2367.590576
23 Sep 2023 20:44:34.000,346.268,4.527,2271.522384
23 Sep 2023 20:45:34.000,357.386,4.840,2243.523739
23 Sep 2023 20:46:34.000,8.431,4.370,2286.185986
23 Sep 2023 20:47:34.000,18.760,3.210,2395.569336
23 Sep 2023 20:48:34.000,27.965,1.547,2562.753341
23 Sep 2023 20:49:21.690,34.386,0.000,2729.560121
23 Sep 2023 22:22:22.746,330.380,0.000,2729.661282
23 Sep 2023 22:23:22.000,337.563,2.465,2468.801337
23 Sep 2023 22:24:22.000,346.405,4.831,2244.321035
23 Sep 2023 22:25:22.000,356.972,6.830,2073.739500
23 Sep 2023 22:26:22.000,9.069,8.127,1971.890487
23 Sep 2023 22:27:22.000,21.980,8.413,1950.057393
23 Sep 2023 22:28:22.000,34.624,7.607,2011.004486
23 Sep 2023 22:29:22.000,46.046,5.920,2147.550105
23 Sep 2023 22:30:22.000,55.782,3.698,2346.132824
23 Sep 2023 22:31:22.000,63.829,1.237,2591.931574
23 Sep 2023 22:31:51.450,67.227,0.000,2725.833373
24 Sep 2023 00:01:40.240,322.361,0.000,2729.208229
24 Sep 2023 00:02:40.000,325.579,3.665,2351.051051
24 Sep 2023 00:03:40.000,329.996,8.000,1980.892705
24 Sep 2023 00:04:40.000,336.446,13.309,1628.810860
24 Sep 2023 00:05:40.000,346.632,19.963,1311.487339
24 Sep 2023 00:06:40.000,3.835,27.691,1062.459640
24 Sep 2023 00:07:40.000,31.318,33.083,939.206149
24 Sep 2023 00:08:40.000,61.916,30.620,990.518096
24 Sep 2023 00:09:40.000,83.365,23.139,1194.056858
24 Sep 2023 00:10:40.000,96.006,15.871,1488.142590
24 Sep 2023 00:11:40.000,103.728,10.011,1828.843302
24 Sep 2023 00:12:40.000,108.825,5.295,2193.595358
24 Sep 2023 00:13:40.000,112.429,1.358,2571.107448
24 Sep 2023 00:14:02.972,113.546,0.000,2717.650343
24 Sep 2023 01:41:25.559,303.053,0.000,2727.138560
24 Sep 2023 01:42:25.000,299.505,3.588,2355.954172
24 Sep 2023 01:43:25.000,294.492,7.781,1994.847540
24 Sep 2023 01:44:25.000,287.115,12.751,1658.143124
24 Sep 2023 01:45:25.000,275.726,18.561,1365.791612
24 Sep 2023 01:46:25.000,257.946,24.377,1153.540214
24 Sep 2023 01:47:25.000,233.362,27.220,1071.084457
24 Sep 2023 01:48:25.000,208.596,24.526,1147.013856
24 Sep 2023 01:49:25.000,190.510,18.723,1354.634004
24 Sep 2023 01:50:25.000,178.886,12.869,1644.107173
24 Sep 2023 01:51:25.000,171.342,7.855,1978.906735
24 Sep 2023 01:52:25.000,166.193,3.631,2338.555515
24 Sep 2023 01:53:24.858,162.501,0.000,2711.090003
24 Sep 2023 15:34:31.119,189.178,0.000,2707.205754
24 Sep 2023 15:35:31.000,184.340,3.401,2356.698039
24 Sep 2023 15:36:31.000,177.784,7.192,2027.011984
24 Sep 2023 15:37:31.000,168.659,11.352,1732.994278
24 Sep 2023 15:38:31.000,155.849,15.550,1497.437035
24 Sep 2023 15:39:31.000,138.708,18.737,1352.528842
24 Sep 2023 15:40:31.000,118.871,19.337,1329.025967
24 Sep 2023 15:41:31.000,100.393,16.965,1433.110960
24 Sep 2023 15:42:31.000,86.026,12.994,1640.412669
24 Sep 2023 15:43:31.000,75.726,8.769,1917.145651
24 Sep 2023 15:44:31.000,68.405,4.841,2236.865029
24 Sep 2023 15:45:31.000,63.085,1.303,2582.669053
24 Sep 2023 15:45:54.757,61.375,0.000,2724.378928
24 Sep 2023 17:13:18.857,239.281,0.000,2712.987222
24 Sep 2023 17:14:18.000,241.541,3.770,2327.150926
24 Sep 2023 17:15:18.000,244.737,8.365,1941.838077
24 Sep 2023 17:16:18.000,249.559,14.225,1569.222841
24 Sep 2023 17:17:18.000,257.668,22.189,1223.025121
24 Sep 2023 17:18:18.000,273.439,33.136,935.063712
24 Sep 2023 17:19:18.000,306.439,43.475,774.828085
24 Sep 2023 17:20:18.000,349.027,39.981,821.395538
24 Sep 2023 17:21:18.000,13.458,28.217,1047.288288
24 Sep 2023 17:22:18.000,25.154,18.594,1365.580349
24 Sep 2023 17:23:18.000,31.594,11.667,1724.931950
24 Sep 2023 17:24:18.000,35.648,6.435,2103.308255
24 Sep 2023 17:25:18.000,38.462,2.222,2490.858090
24 Sep 2023 17:25:54.291,39.795,0.000,2727.522494
24 Sep 2023 18:55:10.125,286.052,0.000,2722.015087
24 Sep 2023 18:56:10.000,292.945,2.695,2439.438626
24 Sep 2023 18:57:10.000,301.523,5.349,2193.178866
24 Sep 2023 18:58:10.000,312.055,7.727,1998.586381
24 Sep 2023 18:59:10.000,324.498,9.444,1872.596878
24 Sep 2023 19:00:10.000,338.178,10.070,1829.862666
24 Sep 2023 19:01:10.000,351.831,9.412,1876.155718
24 Sep 2023 19:02:10.000,4.207,7.677,2005.072339
24 Sep 2023 19:03:10.000,14.665,5.298,2201.636725
24 Sep 2023 19:04:10.000,23.185,2.654,2448.901056
24 Sep 2023 19:05:09.292,29.982,0.000,2728.764287
24 Sep 2023 20:37:52.486,322.624,0.000,2727.731394
24 Sep 2023 20:38:52.000,330.805,1.878,2526.979328
24 Sep 2023 20:39:52.000,340.276,3.422,2373.878880
24 Sep 2023 20:40:52.000,350.781,4.418,2280.850251
24 Sep 2023 20:41:52.000,1.850,4.696,2255.703287
24 Sep 2023 20:42:52.000,12.820,4.203,2300.759397
24 Sep 2023 20:43:52.000,23.066,3.032,2411.927091
24 Sep 2023 20:44:52.000,32.195,1.370,2580.292712
24 Sep 2023 20:45:34.562,37.917,0.000,2728.445865
24 Sep 2023 22:18:14.351,329.929,0.000,2728.827807
24 Sep 2023 22:19:14.000,336.705,2.700,2444.549248
24 Sep 2023 22:20:14.000,345.177,5.389,2194.081457
24 Sep 2023 22:21:14.000,355.619,7.830,1993.839047
24 Sep 2023 22:22:14.000,8.041,9.637,1861.068611
24 Sep 2023 22:23:14.000,21.814,10.358,1811.309415
24 Sep 2023 22:24:14.000,35.663,9.761,1851.547412
24 Sep 2023 22:25:14.000,48.271,8.035,1976.233777
24 Sep 2023 22:26:14.000,58.928,5.627,2170.518069
24 Sep 2023 22:27:14.000,67.583,2.938,2417.104073
24 Sep 2023 22:28:14.000,74.532,0.206,2700.959750
24 Sep 2023 22:28:18.564,75.001,0.000,2723.728739
24 Sep 2023 23:57:29.090,319.862,0.000,2728.139834
24 Sep 2023 23:58:29.000,322.057,3.803,2336.960360
24 Sep 2023 23:59:29.000,325.081,8.387,1950.543531
25 Sep 2023 00:00:29.000,329.600,14.248,1575.581355
25 Sep 2023 00:01:29.000,337.179,22.279,1224.891584
25 Sep 2023 00:02:29.000,352.095,33.604,928.684052
25 Sep 2023 00:03:29.000,25.062,45.194,755.977823
25 Sep 2023 00:04:29.000,70.622,42.077,793.029591
25 Sep 2023 00:05:29.000,96.117,29.390,1017.174261
25 Sep 2023 00:06:29.000,107.774,19.201,1336.921829
25 Sep 2023 00:07:29.000,114.023,12.004,1698.313860
25 Sep 2023 00:08:29.000,117.887,6.632,2078.754090
25 Sep 2023 00:09:29.000,120.524,2.338,2468.337288
25 Sep 2023 00:10:06.681,121.799,0.000,2715.362809
25 Sep 2023 01:37:30.901,297.930,0.000,2725.574505
25 Sep 2023 01:38:30.000,293.126,3.303,2381.571391
25 Sep 2023 01:39:30.000,286.542,6.999,2054.670726
25 Sep 2023 01:40:30.000,277.425,11.002,1764.373077
25 Sep 2023 01:41:30.000,264.764,14.969,1533.007497
25 Sep 2023 01:42:30.000,248.054,17.910,1391.319451
25 Sep 2023 01:43:30.000,228.881,18.423,1367.978053
25 Sep 2023 01:44:30.000,210.934,16.183,1468.619997
25 Sep 2023 01:45:30.000,196.768,12.410,1670.548344
25 Sep 2023 01:46:30.000,186.443,8.339,1941.679348
25 Sep 2023 01:47:30.000,178.996,4.510,2256.254691
25 Sep 2023 01:48:30.000,173.512,1.036,2597.444032
25 Sep 2023 01:48:49.097,172.068,0.000,2709.807965
25 Sep 2023 15:29:53.414,198.633,0.000,2706.901088
25 Sep 2023 15:30:53.000,195.111,3.643,2333.373236
25 Sep 2023 15:31:53.000,190.162,7.920,1970.085179
25 Sep 2023 15:32:53.000,182.857,13.046,1630.300362
25 Sep 2023 15:33:53.000,171.451,19.144,1334.065420
25 Sep 2023 15:34:53.000,153.272,25.397,1118.279388
25 Sep 2023 15:35:53.000,127.627,28.499,1035.700091
25 Sep 2023 15:36:53.000,101.913,25.522,1116.701008
25 Sep 2023 15:37:53.000,83.639,19.318,1331.565489
25 Sep 2023 15:38:53.000,72.191,13.229,1627.530242
25 Sep 2023 15:39:53.000,64.891,8.100,1967.486681
25 Sep 2023 15:40:53.000,59.981,3.818,2331.249387
25 Sep 2023 15:41:53.000,56.502,0.146,2708.106283
25 Sep 2023 15:41:55.553,56.377,0.000,2724.331233
25 Sep 2023 17:09:19.157,247.511,0.000,2713.736602
25 Sep 2023 17:10:19.000,250.842,3.685,2335.809235
25 Sep 2023 17:11:19.000,255.450,8.030,1967.569869
25 Sep 2023 17:12:19.000,262.214,13.330,1619.194887
25 Sep 2023 17:13:19.000,272.883,19.889,1308.457841
25 Sep 2023 17:14:19.000,290.632,27.249,1070.260851
25 Sep 2023 17:15:19.000,317.900,31.894,961.216466
25 Sep 2023 17:16:19.000,347.065,29.144,1023.762068
25 Sep 2023 17:17:19.000,7.506,22.043,1231.720633
25 Sep 2023 17:18:19.000,19.820,15.158,1526.084422
25 Sep 2023 17:19:19.000,27.497,9.542,1865.471496
25 Sep 2023 17:20:19.000,32.647,4.974,2228.329263
25 Sep 2023 17:21:19.000,36.345,1.131,2603.687772
25 Sep 2023 17:21:38.455,37.333,0.000,2727.008734
25 Sep 2023 18:51:32.463,293.789,0.000,2722.573594
25 Sep 2023 18:52:32.000,301.091,2.459,2463.323523
25 Sep 2023 18:53:32.000,310.025,4.789,2243.033173
25 Sep 2023 18:54:32.000,320.660,6.730,2077.854966
25 Sep 2023 18:55:32.000,332.761,7.951,1982.235285
25 Sep 2023 18:56:32.000,345.588,8.164,1966.651059
25 Sep 2023 18:57:32.000,358.076,7.312,2032.928596
25 Sep 2023 18:58:32.000,9.320,5.616,2173.290184
25 Sep 2023 18:59:32.000,18.902,3.412,2374.096159
25 Sep 2023 19:00:32.000,26.837,0.982,2620.769719
25 Sep 2023 19:00:55.703,29.566,0.000,2728.005756
25 Sep 2023 20:33:58.872,326.042,0.000,2727.315179
25 Sep 2023 20:34:58.000,334.124,1.899,2524.268365
25 Sep 2023 20:35:58.000,343.568,3.488,2366.873516
25 Sep 2023 20:36:58.000,354.088,4.537,2269.296207
25 Sep 2023 20:37:58.000,5.218,4.864,2239.769207
25 Sep 2023 20:38:58.000,16.289,4.407,2281.064205
25 Sep 2023 20:39:58.000,26.653,3.253,2389.380179
25 Sep 2023 20:40:58.000,35.893,1.592,2555.851153
25 Sep 2023 20:41:46.981,42.500,0.000,2727.202346
25 Sep 2023 22:13:58.174,329.012,0.000,2727.921503
25 Sep 2023 22:14:58.000,335.251,2.933,2420.634895
25 Sep 2023 22:15:58.000,343.211,5.973,2142.955643
25 Sep 2023 22:16:58.000,353.367,8.932,1910.552097
25 Sep 2023 22:17:58.000,6.023,11.399,1742.788584
25 Sep 2023 22:18:58.000,20.785,12.744,1660.207252
25 Sep 2023 22:19:58.000,36.205,12.470,1675.881258
25 Sep 2023 22:20:58.000,50.411,10.685,1787.269429
25 Sep 2023 22:21:58.000,62.273,7.985,1977.980118
25 Sep 2023 22:22:58.000,71.674,4.954,2227.186241
25 Sep 2023 22:23:58.000,79.019,1.919,2516.836121
25 Sep 2023 22:24:37.223,82.947,0.000,2721.523412
25 Sep 2023 23:53:13.215,317.064,0.000,2727.020243
25 Sep 2023 23:54:13.000,318.146,3.874,2329.063955
25 Sep 2023 23:55:13.000,319.611,8.616,1932.401948
25 Sep 2023 23:56:13.000,321.790,14.843,1542.810398
25 Sep 2023 23:57:13.000,325.543,23.911,1169.766651
25 Sep 2023 23:58:13.000,333.925,38.855,838.239352
25 Sep 2023 23:59:13.000,6.105,62.338,621.253545
26 Sep 2023 00:00:13.000,92.573,57.621,647.857092
26 Sep 2023 00:01:13.000,115.839,35.175,896.643956
26 Sep 2023 00:02:13.000,122.766,21.705,1239.893431
26 Sep 2023 00:03:13.000,126.051,13.345,1617.724462
26 Sep 2023 00:04:13.000,127.996,7.474,2009.698543
26 Sep 2023 00:05:13.000,129.305,2.929,2407.768171
26 Sep 2023 00:05:58.778,130.057,0.000,2713.144662
26 Sep 2023 01:33:37.569,291.863,0.000,2723.844091
26 Sep 2023 01:34:37.000,285.771,2.950,2414.032013
26 Sep 2023 01:35:37.000,277.822,6.007,2134.380736
26 Sep 2023 01:36:37.000,267.568,8.936,1903.949949
26 Sep 2023 01:37:37.000,254.763,11.282,1743.346346
26 Sep 2023 01:38:37.000,239.967,12.395,1673.390528
26 Sep 2023 01:39:37.000,224.799,11.845,1705.433773
26 Sep 2023 01:40:37.000,211.119,9.852,1833.897148
26 Sep 2023 01:41:37.000,199.894,7.054,2040.086852
26 Sep 2023 01:42:37.000,191.103,3.999,2302.414968
26 Sep 2023 01:43:37.000,184.291,0.975,2602.988280
26 Sep 2023 01:43:56.909,182.381,0.000,2708.837812
26 Sep 2023 13:50:28.414,139.205,0.000,2708.548109
26 Sep 2023 13:51:28.000,130.173,1.026,2598.463984
26 Sep 2023 13:52:28.000,120.493,1.515,2548.533156
26 Sep 2023 13:53:28.000,110.677,1.387,2563.651049
26 Sep 2023 13:54:28.000,101.221,0.660,2642.791509
26 Sep 2023 13:55:02.921,96.047,0.000,2716.241985
26 Sep 2023 15:25:18.209,207.561,0.000,2706.894929
26 Sep 2023 15:26:18.000,205.316,3.824,2316.209198
26 Sep 2023 15:27:18.000,202.092,8.440,1930.870675
26 Sep 2023 15:28:18.000,197.111,14.319,1559.401193
26 Sep 2023 15:29:18.000,188.576,22.256,1216.788350
26 Sep 2023 15:30:18.000,171.923,32.861,937.402960
26 Sep 2023 15:31:18.000,138.675,41.834,792.906386
26 Sep 2023 15:32:18.000,99.097,37.557,855.334921
26 Sep 2023 15:33:18.000,76.456,26.506,1089.532709
26 Sep 2023 15:34:18.000,65.360,17.460,1411.871969
26 Sep 2023 15:35:18.000,59.249,10.842,1774.064927
26 Sep 2023 15:36:18.000,55.479,5.777,2155.053881
26 Sep 2023 15:37:18.000,52.955,1.659,2545.240003
26 Sep 2023 15:37:45.267,52.070,0.000,2724.180409
26 Sep 2023 17:05:18.523,255.675,0.000,2714.484515
26 Sep 2023 17:06:18.000,259.916,3.492,2354.781049
26 Sep 2023 17:07:18.000,265.708,7.513,2007.931283
26 Sep 2023 17:08:18.000,273.910,12.152,1688.756587
26 Sep 2023 17:09:18.000,285.951,17.318,1417.625500
26 Sep 2023 17:10:18.000,303.494,22.087,1228.035746
26 Sep 2023 17:11:18.000,326.077,24.124,1161.369116
26 Sep 2023 17:12:18.000,348.434,21.852,1237.773646
26 Sep 2023 17:13:18.000,5.576,17.028,1434.204075
26 Sep 2023 17:14:18.000,17.319,11.908,1709.081787
26 Sep 2023 17:15:18.000,25.349,7.330,2029.881548
26 Sep 2023 17:16:18.000,31.059,3.363,2377.032056
26 Sep 2023 17:17:15.882,35.176,0.000,2726.418164
26 Sep 2023 18:47:49.475,301.133,0.000,2723.000259
26 Sep 2023 18:48:49.000,308.786,2.259,2483.790402
26 Sep 2023 18:49:49.000,317.970,4.307,2286.997880
26 Sep 2023 18:50:49.000,328.622,5.890,2147.717932
26 Sep 2023 18:51:49.000,340.387,6.734,2078.057886
26 Sep 2023 18:52:49.000,352.520,6.652,2085.217037
26 Sep 2023 18:53:49.000,4.125,5.664,2168.350655
26 Sep 2023 18:54:49.000,14.525,3.986,2318.958408
26 Sep 2023 18:55:49.000,23.437,1.892,2524.435120
26 Sep 2023 18:56:38.758,29.723,0.000,2727.179032
26 Sep 2023 20:29:53.437,328.402,0.000,2726.731111
26 Sep 2023 20:30:53.000,336.428,2.002,2513.030066
26 Sep 2023 20:31:53.000,345.822,3.706,2345.441259
26 Sep 2023 20:32:53.000,356.391,4.884,2237.179226
26 Sep 2023 20:33:53.000,7.692,5.332,2197.493524
26 Sep 2023 20:34:53.000,19.028,4.959,2230.231040
26 Sep 2023 20:35:53.000,29.693,3.841,2332.257583
26 Sep 2023 20:36:53.000,39.210,2.174,2494.762516
26 Sep 2023 20:37:53.000,47.413,0.175,2706.351225
26 Sep 2023 20:37:57.980,48.035,0.000,2725.758097
26 Sep 2023 22:09:34.899,327.709,0.000,2726.996582
26 Sep 2023 22:10:34.000,333.215,3.113,2402.020024
26 Sep 2023 22:11:34.000,340.474,6.514,2096.804409
26 Sep 2023 22:12:34.000,350.086,10.056,1830.462230
26 Sep 2023 22:13:34.000,2.741,13.367,1623.614373
26 Sep 2023 22:14:34.000,18.532,15.636,1502.103659
26 Sep 2023 22:15:34.000,35.999,15.917,1487.616089
26 Sep 2023 22:16:34.000,52.433,14.060,1583.258755
26 Sep 2023 22:17:34.000,65.923,10.901,1771.057809
26 Sep 2023 22:18:34.000,76.240,7.348,2025.020376
26 Sep 2023 22:19:34.000,84.003,3.879,2322.816219
26 Sep 2023 22:20:34.000,89.919,0.643,2648.816386
26 Sep 2023 22:20:46.498,90.973,0.000,2719.249803
26 Sep 2023 23:48:53.087,313.944,0.000,2725.858810
26 Sep 2023 23:49:53.000,313.854,3.909,2324.605074
26 Sep 2023 23:50:53.000,313.642,8.700,1924.929056
26 Sep 2023 23:51:53.000,313.204,15.040,1531.359122
26 Sep 2023 23:52:53.000,312.268,24.427,1152.582445
26 Sep 2023 23:53:53.000,309.795,40.602,812.198675
26 Sep 2023 23:54:53.000,295.184,71.155,584.368559
26 Sep 2023 23:55:53.000,150.903,63.852,612.593651
26 Sep 2023 23:56:53.000,142.023,36.522,872.339445
26 Sep 2023 23:57:53.000,140.011,22.129,1223.573980
26 Sep 2023 23:58:53.000,139.171,13.514,1606.503786
26 Sep 2023 23:59:53.000,138.736,7.549,2001.961595
27 Sep 2023 00:00:53.000,138.486,2.961,2402.590041
27 Sep 2023 00:01:39.015,138.362,0.000,2711.108319
27 Sep 2023 01:29:49.294,284.356,0.000,2721.783597
27 Sep 2023 01:30:49.000,277.034,2.453,2461.133405
27 Sep 2023 01:31:49.000,268.032,4.724,2243.999771
27 Sep 2023 01:32:49.000,257.311,6.538,2086.692423
27 Sep 2023 01:33:49.000,245.205,7.556,2003.911677
27 Sep 2023 01:34:49.000,232.566,7.522,2005.115636
27 Sep 2023 01:35:49.000,220.491,6.444,2090.018081
27 Sep 2023 01:36:49.000,209.810,4.590,2248.715641
27 Sep 2023 01:37:49.000,200.837,2.297,2466.318217
27 Sep 2023 01:38:44.788,193.954,0.000,2708.371848
27 Sep 2023 13:44:20.902,157.175,0.000,2705.719426
27 Sep 2023 13:45:20.000,149.119,1.992,2494.799151
27 Sep 2023 13:46:20.000,139.587,3.658,2332.568195
27 Sep 2023 13:47:20.000,128.894,4.735,2234.853596
27 Sep 2023 13:48:20.000,117.576,5.023,2210.794488
27 Sep 2023 13:49:20.000,106.407,4.460,2262.985072
27 Sep 2023 13:50:20.000,96.103,3.163,2386.364314
