xian_to_ion_scv-009_55441_Access_AER.csv

"Time (UTCG)","Azimuth (deg)","Elevation (deg)","Range (km)"
14 Sep 2023 06:11:57.409,198.359,0.000,2194.448622
14 Sep 2023 06:12:02.000,198.331,0.298,2161.764069
14 Sep 2023 06:12:07.000,198.300,0.627,2126.172179
14 Sep 2023 06:12:12.000,198.267,0.962,2090.583927
14 Sep 2023 06:12:17.000,198.233,1.303,2055.000647
14 Sep 2023 06:12:22.000,198.197,1.651,2019.423742
14 Sep 2023 06:12:27.000,198.160,2.005,1983.854701
14 Sep 2023 06:12:32.000,198.121,2.367,1948.295098
14 Sep 2023 06:12:37.000,198.081,2.735,1912.746603
14 Sep 2023 06:12:42.000,198.039,3.112,1877.210991
14 Sep 2023 06:12:47.000,197.994,3.497,1841.690150
14 Sep 2023 06:12:52.000,197.948,3.891,1806.186095
14 Sep 2023 06:12:57.000,197.899,4.294,1770.700977
14 Sep 2023 06:13:02.000,197.849,4.708,1735.237100
14 Sep 2023 06:13:07.000,197.795,5.131,1699.796934
14 Sep 2023 06:13:12.000,197.739,5.566,1664.383135
14 Sep 2023 06:13:17.000,197.680,6.013,1628.998562
14 Sep 2023 06:13:22.000,197.618,6.473,1593.646303
14 Sep 2023 06:13:27.000,197.553,6.946,1558.329693
14 Sep 2023 06:13:32.000,197.484,7.434,1523.052350
14 Sep 2023 06:13:37.000,197.412,7.937,1487.818204
14 Sep 2023 06:13:42.000,197.335,8.457,1452.631534
14 Sep 2023 06:13:47.000,197.254,8.994,1417.497007
14 Sep 2023 06:13:52.000,197.168,9.551,1382.419732
14 Sep 2023 06:13:57.000,197.077,10.128,1347.405311
14 Sep 2023 06:14:02.000,196.980,10.728,1312.459904
14 Sep 2023 06:14:07.000,196.877,11.351,1277.590298
14 Sep 2023 06:14:12.000,196.767,12.000,1242.804000
14 Sep 2023 06:14:17.000,196.650,12.678,1208.109329
14 Sep 2023 06:14:22.000,196.524,13.386,1173.515528
14 Sep 2023 06:14:27.000,196.389,14.127,1139.032907
14 Sep 2023 06:14:32.000,196.245,14.904,1104.672986
14 Sep 2023 06:14:37.000,196.089,15.720,1070.448692
14 Sep 2023 06:14:42.000,195.922,16.580,1036.374564
14 Sep 2023 06:14:47.000,195.740,17.486,1002.467016
14 Sep 2023 06:14:52.000,195.543,18.445,968.744634
14 Sep 2023 06:14:57.000,195.328,19.461,935.228534
14 Sep 2023 06:15:02.000,195.094,20.539,901.942795
14 Sep 2023 06:15:07.000,194.837,21.688,868.914966
14 Sep 2023 06:15:12.000,194.555,22.913,836.176673
14 Sep 2023 06:15:17.000,194.243,24.224,803.764351
14 Sep 2023 06:15:22.000,193.896,25.631,771.720118
14 Sep 2023 06:15:27.000,193.510,27.144,740.092818
14 Sep 2023 06:15:32.000,193.075,28.775,708.939273
14 Sep 2023 06:15:37.000,192.585,30.538,678.325759
14 Sep 2023 06:15:42.000,192.026,32.448,648.329762
14 Sep 2023 06:15:47.000,191.384,34.523,619.042014
14 Sep 2023 06:15:52.000,190.640,36.781,590.568830
14 Sep 2023 06:15:57.000,189.768,39.242,563.034705
14 Sep 2023 06:16:02.000,188.733,41.926,536.585090
14 Sep 2023 06:16:07.000,187.486,44.852,511.389118
14 Sep 2023 06:16:12.000,185.957,48.038,487.641935
14 Sep 2023 06:16:17.000,184.041,51.494,465.566020
14 Sep 2023 06:16:22.000,181.579,55.220,445.410613
14 Sep 2023 06:16:27.000,178.315,59.195,427.448070
14 Sep 2023 06:16:32.000,173.818,63.360,411.965854
14 Sep 2023 06:16:37.000,167.338,67.594,399.253048
14 Sep 2023 06:16:42.000,157.543,71.656,389.581198
14 Sep 2023 06:16:47.000,142.333,75.070,383.180833
14 Sep 2023 06:16:52.000,120.209,77.015,380.217455
14 Sep 2023 06:16:57.000,95.121,76.684,380.771252
14 Sep 2023 06:17:02.000,74.844,74.242,384.826947
14 Sep 2023 06:17:07.000,61.366,70.591,392.275739
14 Sep 2023 06:17:12.000,52.665,66.458,402.929190
14 Sep 2023 06:17:17.000,46.835,62.237,416.541089
14 Sep 2023 06:17:22.000,42.737,58.129,432.831928
14 Sep 2023 06:17:27.000,39.729,54.233,451.511271
14 Sep 2023 06:17:32.000,37.439,50.593,472.295177
14 Sep 2023 06:17:37.000,35.644,47.225,494.917893
14 Sep 2023 06:17:42.000,34.202,44.123,519.138603
14 Sep 2023 06:17:47.000,33.021,41.277,544.742952
14 Sep 2023 06:17:52.000,32.036,38.666,571.544403
14 Sep 2023 06:17:57.000,31.204,36.272,599.381541
14 Sep 2023 06:18:02.000,30.492,34.075,628.115799
14 Sep 2023 06:18:07.000,29.877,32.054,657.628685
14 Sep 2023 06:18:12.000,29.340,30.192,687.819052
14 Sep 2023 06:18:17.000,28.868,28.472,718.600564
14 Sep 2023 06:18:22.000,28.450,26.880,749.899470
14 Sep 2023 06:18:27.000,28.077,25.402,781.652636
14 Sep 2023 06:18:32.000,27.743,24.027,813.805901
14 Sep 2023 06:18:37.000,27.442,22.744,846.312658
14 Sep 2023 06:18:42.000,27.169,21.544,879.132680
14 Sep 2023 06:18:47.000,26.922,20.419,912.231133
14 Sep 2023 06:18:52.000,26.696,19.361,945.577745
14 Sep 2023 06:18:57.000,26.490,18.364,979.146124
14 Sep 2023 06:19:02.000,26.300,17.422,1012.913173
14 Sep 2023 06:19:07.000,26.126,16.531,1046.858613
14 Sep 2023 06:19:12.000,25.965,15.686,1080.964584
14 Sep 2023 06:19:17.000,25.816,14.882,1115.215291
14 Sep 2023 06:19:22.000,25.678,14.117,1149.596729
14 Sep 2023 06:19:27.000,25.550,13.387,1184.096441
14 Sep 2023 06:19:32.000,25.430,12.689,1218.703303
14 Sep 2023 06:19:37.000,25.319,12.021,1253.407364
14 Sep 2023 06:19:42.000,25.215,11.380,1288.199682
14 Sep 2023 06:19:47.000,25.118,10.765,1323.072212
14 Sep 2023 06:19:52.000,25.027,10.173,1358.017688
14 Sep 2023 06:19:57.000,24.941,9.602,1393.029526
14 Sep 2023 06:20:02.000,24.861,9.052,1428.101756
14 Sep 2023 06:20:07.000,24.786,8.520,1463.228941
14 Sep 2023 06:20:12.000,24.715,8.006,1498.406118
14 Sep 2023 06:20:17.000,24.649,7.508,1533.628749
14 Sep 2023 06:20:22.000,24.586,7.025,1568.892675
14 Sep 2023 06:20:27.000,24.527,6.557,1604.194072
14 Sep 2023 06:20:32.000,24.471,6.102,1639.529416
14 Sep 2023 06:20:37.000,24.419,5.659,1674.895456
14 Sep 2023 06:20:42.000,24.369,5.228,1710.289184
14 Sep 2023 06:20:47.000,24.322,4.807,1745.707810
14 Sep 2023 06:20:52.000,24.278,4.398,1781.148745
14 Sep 2023 06:20:57.000,24.236,3.998,1816.609573
14 Sep 2023 06:21:02.000,24.196,3.607,1852.088046
14 Sep 2023 06:21:07.000,24.158,3.224,1887.582061
14 Sep 2023 06:21:12.000,24.123,2.851,1923.089648
14 Sep 2023 06:21:17.000,24.089,2.484,1958.608961
14 Sep 2023 06:21:22.000,24.058,2.125,1994.138265
14 Sep 2023 06:21:27.000,24.028,1.774,2029.675922
14 Sep 2023 06:21:32.000,23.999,1.428,2065.220393
14 Sep 2023 06:21:37.000,23.972,1.089,2100.770221
14 Sep 2023 06:21:42.000,23.947,0.756,2136.324029
14 Sep 2023 06:21:47.000,23.923,0.429,2171.880509
14 Sep 2023 06:21:52.000,23.900,0.107,2207.438423
14 Sep 2023 06:21:53.680,23.893,0.000,2219.382614
14 Sep 2023 07:48:36.086,272.653,0.000,2207.452101
14 Sep 2023 07:48:41.000,273.481,0.164,2189.500376
14 Sep 2023 07:48:46.000,274.337,0.328,2171.649744
14 Sep 2023 07:48:51.000,275.207,0.489,2154.228023
14 Sep 2023 07:48:56.000,276.090,0.648,2137.246136
14 Sep 2023 07:49:01.000,276.988,0.804,2120.715061
14 Sep 2023 07:49:06.000,277.899,0.957,2104.645830
14 Sep 2023 07:49:11.000,278.824,1.107,2089.049480
14 Sep 2023 07:49:16.000,279.763,1.253,2073.937060
14 Sep 2023 07:49:21.000,280.715,1.395,2059.319574
14 Sep 2023 07:49:26.000,281.680,1.534,2045.207975
14 Sep 2023 07:49:31.000,282.658,1.669,2031.613129
14 Sep 2023 07:49:36.000,283.650,1.799,2018.545775
14 Sep 2023 07:49:41.000,284.653,1.925,2006.016519
14 Sep 2023 07:49:46.000,285.670,2.047,1994.035768
14 Sep 2023 07:49:51.000,286.698,2.164,1982.613720
14 Sep 2023 07:49:56.000,287.738,2.275,1971.760319
14 Sep 2023 07:50:01.000,288.789,2.382,1961.485223
14 Sep 2023 07:50:06.000,289.851,2.483,1951.797759
14 Sep 2023 07:50:11.000,290.923,2.578,1942.706893
14 Sep 2023 07:50:16.000,292.005,2.668,1934.221207
14 Sep 2023 07:50:21.000,293.096,2.752,1926.348828
14 Sep 2023 07:50:26.000,294.195,2.830,1919.097426
14 Sep 2023 07:50:31.000,295.303,2.901,1912.474171
14 Sep 2023 07:50:36.000,296.418,2.966,1906.485684
14 Sep 2023 07:50:41.000,297.540,3.025,1901.138027
14 Sep 2023 07:50:46.000,298.668,3.076,1896.436659
14 Sep 2023 07:50:51.000,299.801,3.121,1892.386422
14 Sep 2023 07:50:56.000,300.938,3.160,1888.991501
14 Sep 2023 07:51:01.000,302.080,3.191,1886.255412
14 Sep 2023 07:51:06.000,303.224,3.215,1884.180986
14 Sep 2023 07:51:11.000,304.370,3.232,1882.770348
14 Sep 2023 07:51:16.000,305.518,3.242,1882.024912
14 Sep 2023 07:51:21.000,306.666,3.245,1881.945363
14 Sep 2023 07:51:26.000,307.814,3.240,1882.531662
14 Sep 2023 07:51:31.000,308.960,3.229,1883.783046
14 Sep 2023 07:51:36.000,310.105,3.210,1885.698029
14 Sep 2023 07:51:41.000,311.247,3.185,1888.274404
14 Sep 2023 07:51:46.000,312.386,3.152,1891.509272
14 Sep 2023 07:51:51.000,313.520,3.113,1895.399033
14 Sep 2023 07:51:56.000,314.649,3.067,1899.939427
14 Sep 2023 07:52:01.000,315.772,3.014,1905.125537
14 Sep 2023 07:52:06.000,316.889,2.954,1910.951822
14 Sep 2023 07:52:11.000,317.999,2.888,1917.412151
14 Sep 2023 07:52:16.000,319.100,2.815,1924.499821
14 Sep 2023 07:52:21.000,320.194,2.737,1932.207585
14 Sep 2023 07:52:26.000,321.278,2.652,1940.527703
14 Sep 2023 07:52:31.000,322.353,2.562,1949.451960
14 Sep 2023 07:52:36.000,323.417,2.466,1958.971709
14 Sep 2023 07:52:41.000,324.471,2.365,1969.077903
14 Sep 2023 07:52:46.000,325.514,2.258,1979.761139
14 Sep 2023 07:52:51.000,326.545,2.146,1991.011683
14 Sep 2023 07:52:56.000,327.565,2.029,2002.819631
14 Sep 2023 07:53:01.000,328.572,1.908,2015.174494
14 Sep 2023 07:53:06.000,329.567,1.782,2028.065890
14 Sep 2023 07:53:11.000,330.549,1.652,2041.483153
14 Sep 2023 07:53:16.000,331.518,1.518,2055.415461
14 Sep 2023 07:53:21.000,332.474,1.380,2069.851882
14 Sep 2023 07:53:26.000,333.417,1.238,2084.781394
14 Sep 2023 07:53:31.000,334.346,1.093,2100.192919
14 Sep 2023 07:53:36.000,335.262,0.944,2116.075348
14 Sep 2023 07:53:41.000,336.164,0.792,2132.417574
14 Sep 2023 07:53:46.000,337.052,0.637,2149.208502
14 Sep 2023 07:53:51.000,337.926,0.480,2166.437088
14 Sep 2023 07:53:56.000,338.787,0.320,2184.092348
14 Sep 2023 07:54:01.000,339.634,0.157,2202.163380
14 Sep 2023 07:54:05.759,340.427,0.000,2219.739051
14 Sep 2023 15:50:40.183,347.277,0.000,2232.528885
14 Sep 2023 15:50:45.000,347.521,0.298,2199.506972
14 Sep 2023 15:50:50.000,347.781,0.612,2165.262729
14 Sep 2023 15:50:55.000,348.050,0.931,2131.055821
14 Sep 2023 15:51:00.000,348.327,1.255,2096.889206
14 Sep 2023 15:51:05.000,348.612,1.584,2062.766021
14 Sep 2023 15:51:10.000,348.907,1.919,2028.689589
14 Sep 2023 15:51:15.000,349.211,2.259,1994.663437
14 Sep 2023 15:51:20.000,349.525,2.606,1960.691318
14 Sep 2023 15:51:25.000,349.850,2.959,1926.777220
14 Sep 2023 15:51:30.000,350.186,3.318,1892.925393
14 Sep 2023 15:51:35.000,350.534,3.684,1859.140370
14 Sep 2023 15:51:40.000,350.894,4.058,1825.426990
14 Sep 2023 15:51:45.000,351.268,4.439,1791.790427
14 Sep 2023 15:51:50.000,351.656,4.828,1758.236218
14 Sep 2023 15:51:55.000,352.058,5.226,1724.770297
14 Sep 2023 15:52:00.000,352.477,5.632,1691.399032
14 Sep 2023 15:52:05.000,352.912,6.048,1658.129263
14 Sep 2023 15:52:10.000,353.365,6.473,1624.968348
14 Sep 2023 15:52:15.000,353.837,6.909,1591.924211
14 Sep 2023 15:52:20.000,354.329,7.356,1559.005399
14 Sep 2023 15:52:25.000,354.843,7.814,1526.221139
14 Sep 2023 15:52:30.000,355.380,8.284,1493.581409
14 Sep 2023 15:52:35.000,355.941,8.767,1461.097006
14 Sep 2023 15:52:40.000,356.528,9.263,1428.779637
14 Sep 2023 15:52:45.000,357.144,9.772,1396.642005
14 Sep 2023 15:52:50.000,357.790,10.297,1364.697911
14 Sep 2023 15:52:55.000,358.468,10.837,1332.962370
14 Sep 2023 15:53:00.000,359.181,11.393,1301.451734
14 Sep 2023 15:53:05.000,359.931,11.967,1270.183833
14 Sep 2023 15:53:10.000,0.721,12.558,1239.178127
14 Sep 2023 15:53:15.000,1.555,13.168,1208.455879
14 Sep 2023 15:53:20.000,2.436,13.797,1178.040340
14 Sep 2023 15:53:25.000,3.368,14.447,1147.956953
14 Sep 2023 15:53:30.000,4.354,15.118,1118.233587
14 Sep 2023 15:53:35.000,5.400,15.810,1088.900773
14 Sep 2023 15:53:40.000,6.510,16.526,1059.991974
14 Sep 2023 15:53:45.000,7.689,17.264,1031.543870
14 Sep 2023 15:53:50.000,8.945,18.026,1003.596655
14 Sep 2023 15:53:55.000,10.282,18.811,976.194355
14 Sep 2023 15:54:00.000,11.708,19.620,949.385143
14 Sep 2023 15:54:05.000,13.230,20.452,923.221661
14 Sep 2023 15:54:10.000,14.857,21.305,897.761326
14 Sep 2023 15:54:15.000,16.597,22.179,873.066588
14 Sep 2023 15:54:20.000,18.458,23.070,849.205157
14 Sep 2023 15:54:25.000,20.451,23.975,826.250118
14 Sep 2023 15:54:30.000,22.584,24.890,804.279951
14 Sep 2023 15:54:35.000,24.866,25.810,783.378357
14 Sep 2023 15:54:40.000,27.307,26.726,763.633888
14 Sep 2023 15:54:45.000,29.913,27.631,745.139300
14 Sep 2023 15:54:50.000,32.692,28.513,727.990590
14 Sep 2023 15:54:55.000,35.646,29.362,712.285662
14 Sep 2023 15:55:00.000,38.775,30.163,698.122602
14 Sep 2023 15:55:05.000,42.078,30.901,685.597570
14 Sep 2023 15:55:10.000,45.544,31.562,674.802328
14 Sep 2023 15:55:15.000,49.160,32.130,665.821507
14 Sep 2023 15:55:20.000,52.906,32.590,658.729761
14 Sep 2023 15:55:25.000,56.756,32.929,653.588954
14 Sep 2023 15:55:30.000,60.679,33.138,650.445654
14 Sep 2023 15:55:35.000,64.641,33.210,649.329159
14 Sep 2023 15:55:40.000,68.603,33.143,650.250063
14 Sep 2023 15:55:45.000,72.531,32.938,653.199872
14 Sep 2023 15:55:50.000,76.387,32.602,658.151367
14 Sep 2023 15:55:55.000,80.142,32.145,665.059834
14 Sep 2023 15:56:00.000,83.769,31.579,673.865019
14 Sep 2023 15:56:05.000,87.247,30.919,684.493608
14 Sep 2023 15:56:10.000,90.562,30.181,696.861984
14 Sep 2023 15:56:15.000,93.704,29.378,710.879110
14 Sep 2023 15:56:20.000,96.671,28.528,726.449255
14 Sep 2023 15:56:25.000,99.462,27.642,743.474513
14 Sep 2023 15:56:30.000,102.081,26.734,761.856954
14 Sep 2023 15:56:35.000,104.533,25.814,781.500381
14 Sep 2023 15:56:40.000,106.826,24.890,802.311704
14 Sep 2023 15:56:45.000,108.969,23.970,824.201952
14 Sep 2023 15:56:50.000,110.970,23.059,847.086938
14 Sep 2023 15:56:55.000,112.840,22.163,870.887665
14 Sep 2023 15:57:00.000,114.587,21.285,895.530518
14 Sep 2023 15:57:05.000,116.220,20.427,920.947257
14 Sep 2023 15:57:10.000,117.748,19.590,947.074919
14 Sep 2023 15:57:15.000,119.179,18.777,973.855591
14 Sep 2023 15:57:20.000,120.521,17.987,1001.236461
14 Sep 2023 15:57:25.000,121.780,17.221,1029.168337
14 Sep 2023 15:57:30.000,122.963,16.478,1057.607072
14 Sep 2023 15:57:35.000,124.075,15.759,1086.512104
14 Sep 2023 15:57:40.000,125.123,15.062,1115.846405
14 Sep 2023 15:57:45.000,126.111,14.387,1145.576199
14 Sep 2023 15:57:50.000,127.043,13.734,1175.670667
14 Sep 2023 15:57:55.000,127.925,13.101,1206.101681
14 Sep 2023 15:58:00.000,128.759,12.488,1236.843558
14 Sep 2023 15:58:05.000,129.549,11.894,1267.872831
14 Sep 2023 15:58:10.000,130.299,11.318,1299.168040
14 Sep 2023 15:58:15.000,131.011,10.759,1330.709550
14 Sep 2023 15:58:20.000,131.688,10.216,1362.479365
14 Sep 2023 15:58:25.000,132.332,9.689,1394.460990
14 Sep 2023 15:58:30.000,132.946,9.177,1426.639273
14 Sep 2023 15:58:35.000,133.531,8.679,1459.000292
14 Sep 2023 15:58:40.000,134.090,8.194,1491.531233
14 Sep 2023 15:58:45.000,134.624,7.722,1524.220291
14 Sep 2023 15:58:50.000,135.135,7.262,1557.056576
14 Sep 2023 15:58:55.000,135.624,6.813,1590.030022
14 Sep 2023 15:59:00.000,136.093,6.376,1623.131327
14 Sep 2023 15:59:05.000,136.542,5.948,1656.351871
14 Sep 2023 15:59:10.000,136.974,5.531,1689.683671
14 Sep 2023 15:59:15.000,137.388,5.123,1723.119305
14 Sep 2023 15:59:20.000,137.787,4.724,1756.651879
14 Sep 2023 15:59:25.000,138.170,4.333,1790.274973
14 Sep 2023 15:59:30.000,138.539,3.950,1823.982608
14 Sep 2023 15:59:35.000,138.895,3.575,1857.769199
14 Sep 2023 15:59:40.000,139.238,3.208,1891.629538
14 Sep 2023 15:59:45.000,139.570,2.847,1925.558744
14 Sep 2023 15:59:50.000,139.889,2.493,1959.552249
14 Sep 2023 15:59:55.000,140.198,2.145,1993.605774
14 Sep 2023 16:00:00.000,140.497,1.803,2027.715297
14 Sep 2023 16:00:05.000,140.786,1.468,2061.877036
14 Sep 2023 16:00:10.000,141.065,1.137,2096.087440
14 Sep 2023 16:00:15.000,141.336,0.812,2130.343159
14 Sep 2023 16:00:20.000,141.598,0.492,2164.641030
14 Sep 2023 16:00:25.000,141.853,0.177,2198.978075
14 Sep 2023 16:00:27.838,141.994,0.000,2218.487248
14 Sep 2023 17:25:35.151,303.729,0.000,2230.264623
14 Sep 2023 17:25:40.000,303.061,0.219,2205.946338
14 Sep 2023 17:25:45.000,302.357,0.444,2181.170166
14 Sep 2023 17:25:50.000,301.636,0.669,2156.708335
14 Sep 2023 17:25:55.000,300.898,0.893,2132.572380
14 Sep 2023 17:26:00.000,300.143,1.117,2108.774204
14 Sep 2023 17:26:05.000,299.371,1.341,2085.326069
14 Sep 2023 17:26:10.000,298.581,1.563,2062.240607
14 Sep 2023 17:26:15.000,297.772,1.785,2039.530798
14 Sep 2023 17:26:20.000,296.945,2.005,2017.209997
14 Sep 2023 17:26:25.000,296.099,2.224,1995.291908
14 Sep 2023 17:26:30.000,295.234,2.441,1973.790577
14 Sep 2023 17:26:35.000,294.349,2.657,1952.720390
14 Sep 2023 17:26:40.000,293.445,2.870,1932.096056
14 Sep 2023 17:26:45.000,292.521,3.082,1911.932592
14 Sep 2023 17:26:50.000,291.576,3.290,1892.245303
14 Sep 2023 17:26:55.000,290.612,3.496,1873.049763
14 Sep 2023 17:27:00.000,289.626,3.699,1854.361776
14 Sep 2023 17:27:05.000,288.621,3.899,1836.197367
14 Sep 2023 17:27:10.000,287.595,4.095,1818.572724
14 Sep 2023 17:27:15.000,286.548,4.287,1801.504178
14 Sep 2023 17:27:20.000,285.481,4.474,1785.008140
14 Sep 2023 17:27:25.000,284.393,4.657,1769.101079
14 Sep 2023 17:27:30.000,283.285,4.835,1753.799440
14 Sep 2023 17:27:35.000,282.158,5.007,1739.119615
14 Sep 2023 17:27:40.000,281.010,5.174,1725.077864
14 Sep 2023 17:27:45.000,279.844,5.334,1711.690244
14 Sep 2023 17:27:50.000,278.659,5.488,1698.972568
14 Sep 2023 17:27:55.000,277.455,5.634,1686.940298
14 Sep 2023 17:28:00.000,276.234,5.774,1675.608505
14 Sep 2023 17:28:05.000,274.997,5.905,1664.991753
14 Sep 2023 17:28:10.000,273.743,6.028,1655.104055
14 Sep 2023 17:28:15.000,272.474,6.143,1645.958768
14 Sep 2023 17:28:20.000,271.190,6.249,1637.568535
14 Sep 2023 17:28:25.000,269.894,6.346,1629.945190
14 Sep 2023 17:28:30.000,268.585,6.433,1623.099680
14 Sep 2023 17:28:35.000,267.265,6.510,1617.042013
14 Sep 2023 17:28:40.000,265.936,6.577,1611.781167
14 Sep 2023 17:28:45.000,264.598,6.634,1607.325038
14 Sep 2023 17:28:50.000,263.253,6.681,1603.680374
14 Sep 2023 17:28:55.000,261.902,6.716,1600.852741
14 Sep 2023 17:29:00.000,260.547,6.741,1598.846463
14 Sep 2023 17:29:05.000,259.190,6.755,1597.664604
14 Sep 2023 17:29:10.000,257.830,6.758,1597.308927
14 Sep 2023 17:29:15.000,256.471,6.750,1597.779897
14 Sep 2023 17:29:20.000,255.114,6.731,1599.076669
14 Sep 2023 17:29:25.000,253.760,6.701,1601.197101
14 Sep 2023 17:29:30.000,252.410,6.660,1604.137752
14 Sep 2023 17:29:35.000,251.066,6.609,1607.893937
14 Sep 2023 17:29:40.000,249.729,6.547,1612.459738
14 Sep 2023 17:29:45.000,248.401,6.475,1617.828093
14 Sep 2023 17:29:50.000,247.083,6.392,1623.990703
14 Sep 2023 17:29:55.000,245.776,6.300,1630.938302
14 Sep 2023 17:30:00.000,244.481,6.199,1638.660588
14 Sep 2023 17:30:05.000,243.200,6.089,1647.146327
14 Sep 2023 17:30:10.000,241.933,5.970,1656.383415
14 Sep 2023 17:30:15.000,240.681,5.842,1666.358968
14 Sep 2023 17:30:20.000,239.445,5.706,1677.059402
14 Sep 2023 17:30:25.000,238.227,5.563,1688.470494
14 Sep 2023 17:30:30.000,237.026,5.413,1700.577490
14 Sep 2023 17:30:35.000,235.843,5.255,1713.365156
14 Sep 2023 17:30:40.000,234.679,5.092,1726.817878
14 Sep 2023 17:30:45.000,233.534,4.922,1740.919713
14 Sep 2023 17:30:50.000,232.408,4.746,1755.654491
14 Sep 2023 17:30:55.000,231.303,4.566,1771.005852
14 Sep 2023 17:31:00.000,230.217,4.380,1786.957331
14 Sep 2023 17:31:05.000,229.152,4.190,1803.492416
14 Sep 2023 17:31:10.000,228.107,3.995,1820.594587
14 Sep 2023 17:31:15.000,227.082,3.797,1838.247396
14 Sep 2023 17:31:20.000,226.078,3.595,1856.434489
14 Sep 2023 17:31:25.000,225.095,3.390,1875.139660
14 Sep 2023 17:31:30.000,224.131,3.181,1894.346889
14 Sep 2023 17:31:35.000,223.188,2.971,1914.040368
14 Sep 2023 17:31:40.000,222.265,2.758,1934.204544
14 Sep 2023 17:31:45.000,221.361,2.542,1954.824132
14 Sep 2023 17:31:50.000,220.477,2.325,1975.884140
14 Sep 2023 17:31:55.000,219.612,2.106,1997.369899
14 Sep 2023 17:32:00.000,218.767,1.886,2019.267055
14 Sep 2023 17:32:05.000,217.940,1.664,2041.561605
14 Sep 2023 17:32:10.000,217.131,1.442,2064.239893
14 Sep 2023 17:32:15.000,216.340,1.218,2087.288616
14 Sep 2023 17:32:20.000,215.567,0.994,2110.694840
14 Sep 2023 17:32:25.000,214.812,0.769,2134.445989
14 Sep 2023 17:32:30.000,214.073,0.544,2158.529855
14 Sep 2023 17:32:35.000,213.351,0.318,2182.934592
14 Sep 2023 17:32:40.000,212.645,0.092,2207.648717
14 Sep 2023 17:32:42.035,212.362,0.000,2217.791929
15 Sep 2023 05:11:38.999,164.252,0.000,2193.230291
15 Sep 2023 05:11:43.000,163.843,0.222,2168.833857
15 Sep 2023 05:11:48.000,163.318,0.502,2138.494973
15 Sep 2023 05:11:53.000,162.778,0.784,2108.327312
15 Sep 2023 05:11:58.000,162.222,1.069,2078.339365
15 Sep 2023 05:12:03.000,161.649,1.356,2048.540055
15 Sep 2023 05:12:08.000,161.059,1.646,2018.938757
15 Sep 2023 05:12:13.000,160.452,1.939,1989.545328
15 Sep 2023 05:12:18.000,159.826,2.234,1960.370129
15 Sep 2023 05:12:23.000,159.180,2.532,1931.424058
15 Sep 2023 05:12:28.000,158.514,2.833,1902.718570
15 Sep 2023 05:12:33.000,157.828,3.136,1874.265709
15 Sep 2023 05:12:38.000,157.120,3.442,1846.078144
15 Sep 2023 05:12:43.000,156.389,3.750,1818.169188
15 Sep 2023 05:12:48.000,155.635,4.061,1790.552839
15 Sep 2023 05:12:53.000,154.856,4.374,1763.243804
15 Sep 2023 05:12:58.000,154.052,4.690,1736.257536
15 Sep 2023 05:13:03.000,153.222,5.008,1709.610260
15 Sep 2023 05:13:08.000,152.365,5.328,1683.319006
15 Sep 2023 05:13:13.000,151.480,5.650,1657.401635
15 Sep 2023 05:13:18.000,150.565,5.974,1631.876869
15 Sep 2023 05:13:23.000,149.621,6.299,1606.764317
15 Sep 2023 05:13:28.000,148.645,6.625,1582.084490
15 Sep 2023 05:13:33.000,147.636,6.952,1557.858825
15 Sep 2023 05:13:38.000,146.595,7.280,1534.109693
15 Sep 2023 05:13:43.000,145.519,7.608,1510.860409
15 Sep 2023 05:13:48.000,144.408,7.936,1488.135224
15 Sep 2023 05:13:53.000,143.261,8.262,1465.959321
15 Sep 2023 05:13:58.000,142.077,8.587,1444.358795
15 Sep 2023 05:14:03.000,140.855,8.910,1423.360612
15 Sep 2023 05:14:08.000,139.594,9.231,1402.992573
15 Sep 2023 05:14:13.000,138.295,9.547,1383.283248
15 Sep 2023 05:14:18.000,136.955,9.860,1364.261903
15 Sep 2023 05:14:23.000,135.576,10.166,1345.958395
15 Sep 2023 05:14:28.000,134.157,10.467,1328.403066
15 Sep 2023 05:14:33.000,132.697,10.760,1311.626606
15 Sep 2023 05:14:38.000,131.197,11.045,1295.659884
15 Sep 2023 05:14:43.000,129.658,11.320,1280.533790
15 Sep 2023 05:14:48.000,128.080,11.584,1266.279014
15 Sep 2023 05:14:53.000,126.463,11.836,1252.925835
15 Sep 2023 05:14:58.000,124.810,12.074,1240.503876
15 Sep 2023 05:15:03.000,123.122,12.298,1229.041855
15 Sep 2023 05:15:08.000,121.400,12.506,1218.567311
15 Sep 2023 05:15:13.000,119.647,12.696,1209.106321
15 Sep 2023 05:15:18.000,117.865,12.869,1200.683232
15 Sep 2023 05:15:23.000,116.057,13.021,1193.320373
15 Sep 2023 05:15:28.000,114.226,13.153,1187.037787
15 Sep 2023 05:15:33.000,112.376,13.264,1181.852987
15 Sep 2023 05:15:38.000,110.509,13.352,1177.780718
15 Sep 2023 05:15:43.000,108.630,13.417,1174.832755
15 Sep 2023 05:15:48.000,106.742,13.459,1173.017753
15 Sep 2023 05:15:53.000,104.850,13.477,1172.341126
15 Sep 2023 05:15:58.000,102.957,13.471,1172.804925
15 Sep 2023 05:16:03.000,101.068,13.441,1174.407871
15 Sep 2023 05:16:08.000,99.186,13.388,1177.145332
15 Sep 2023 05:16:13.000,97.316,13.311,1181.009415
15 Sep 2023 05:16:18.000,95.462,13.212,1185.989060
15 Sep 2023 05:16:23.000,93.627,13.092,1192.070209
15 Sep 2023 05:16:28.000,91.813,12.950,1199.235990
15 Sep 2023 05:16:33.000,90.026,12.788,1207.466941
15 Sep 2023 05:16:38.000,88.266,12.608,1216.741257
15 Sep 2023 05:16:43.000,86.538,12.409,1227.035065
15 Sep 2023 05:16:48.000,84.842,12.195,1238.322687
15 Sep 2023 05:16:53.000,83.182,11.965,1250.576931
15 Sep 2023 05:16:58.000,81.558,11.721,1263.769367
15 Sep 2023 05:17:03.000,79.972,11.465,1277.870588
15 Sep 2023 05:17:08.000,78.425,11.198,1292.850489
15 Sep 2023 05:17:13.000,76.917,10.920,1308.678495
15 Sep 2023 05:17:18.000,75.450,10.633,1325.323789
15 Sep 2023 05:17:23.000,74.022,10.339,1342.755521
15 Sep 2023 05:17:28.000,72.635,10.037,1360.942992
15 Sep 2023 05:17:33.000,71.289,9.730,1379.855814
15 Sep 2023 05:17:38.000,69.982,9.418,1399.464051
15 Sep 2023 05:17:43.000,68.714,9.103,1419.738334
15 Sep 2023 05:17:48.000,67.486,8.784,1440.649975
15 Sep 2023 05:17:53.000,66.295,8.462,1462.171034
15 Sep 2023 05:17:58.000,65.142,8.139,1484.274389
15 Sep 2023 05:18:03.000,64.026,7.815,1506.933780
15 Sep 2023 05:18:08.000,62.945,7.490,1530.123862
15 Sep 2023 05:18:13.000,61.898,7.165,1553.820198
15 Sep 2023 05:18:18.000,60.886,6.840,1577.999299
15 Sep 2023 05:18:23.000,59.905,6.516,1602.638615
15 Sep 2023 05:18:28.000,58.957,6.193,1627.716527
15 Sep 2023 05:18:33.000,58.039,5.871,1653.212351
15 Sep 2023 05:18:38.000,57.150,5.551,1679.106299
15 Sep 2023 05:18:43.000,56.291,5.232,1705.379484
15 Sep 2023 05:18:48.000,55.458,4.916,1732.013872
15 Sep 2023 05:18:53.000,54.653,4.601,1758.992276
15 Sep 2023 05:18:58.000,53.873,4.289,1786.298313
15 Sep 2023 05:19:03.000,53.117,3.979,1813.916382
15 Sep 2023 05:19:08.000,52.386,3.672,1841.831627
15 Sep 2023 05:19:13.000,51.677,3.367,1870.029921
15 Sep 2023 05:19:18.000,50.990,3.064,1898.497811
15 Sep 2023 05:19:23.000,50.325,2.764,1927.222503
15 Sep 2023 05:19:28.000,49.680,2.467,1956.191833
15 Sep 2023 05:19:33.000,49.055,2.172,1985.394233
15 Sep 2023 05:19:38.000,48.448,1.880,2014.818693
15 Sep 2023 05:19:43.000,47.860,1.590,2044.455062
15 Sep 2023 05:19:48.000,47.289,1.303,2074.292763
15 Sep 2023 05:19:53.000,46.735,1.019,2104.322635
15 Sep 2023 05:19:58.000,46.197,0.737,2134.535670
15 Sep 2023 05:20:03.000,45.675,0.457,2164.923292
15 Sep 2023 05:20:08.000,45.168,0.180,2195.477340
15 Sep 2023 05:20:11.278,44.843,0.000,2215.596597
15 Sep 2023 06:45:10.640,232.202,0.000,2197.770033
15 Sep 2023 06:45:15.000,232.586,0.253,2169.983986
15 Sep 2023 06:45:20.000,233.039,0.546,2138.226010
15 Sep 2023 06:45:25.000,233.505,0.843,2106.589089
15 Sep 2023 06:45:30.000,233.986,1.143,2075.079696
15 Sep 2023 06:45:35.000,234.481,1.446,2043.704674
15 Sep 2023 06:45:40.000,234.991,1.754,2012.471235
15 Sep 2023 06:45:45.000,235.517,2.065,1981.387006
15 Sep 2023 06:45:50.000,236.060,2.380,1950.460036
15 Sep 2023 06:45:55.000,236.620,2.699,1919.698847
15 Sep 2023 06:46:00.000,237.199,3.022,1889.112442
15 Sep 2023 06:46:05.000,237.796,3.350,1858.710351
15 Sep 2023 06:46:10.000,238.413,3.682,1828.502662
15 Sep 2023 06:46:15.000,239.052,4.018,1798.500058
15 Sep 2023 06:46:20.000,239.712,4.358,1768.713853
15 Sep 2023 06:46:25.000,240.395,4.704,1739.156037
15 Sep 2023 06:46:30.000,241.101,5.053,1709.839315
15 Sep 2023 06:46:35.000,241.833,5.408,1680.777156
15 Sep 2023 06:46:40.000,242.591,5.767,1651.983842
15 Sep 2023 06:46:45.000,243.376,6.131,1623.474501
15 Sep 2023 06:46:50.000,244.190,6.500,1595.265189
15 Sep 2023 06:46:55.000,245.035,6.873,1567.372906
15 Sep 2023 06:47:00.000,245.910,7.251,1539.815688
15 Sep 2023 06:47:05.000,246.818,7.634,1512.612630
15 Sep 2023 06:47:10.000,247.761,8.021,1485.783957
15 Sep 2023 06:47:15.000,248.739,8.412,1459.351075
15 Sep 2023 06:47:20.000,249.755,8.807,1433.336627
15 Sep 2023 06:47:25.000,250.811,9.206,1407.764541
15 Sep 2023 06:47:30.000,251.906,9.608,1382.660067
15 Sep 2023 06:47:35.000,253.045,10.014,1358.049839
15 Sep 2023 06:47:40.000,254.227,10.421,1333.961886
15 Sep 2023 06:47:45.000,255.455,10.831,1310.425668
15 Sep 2023 06:47:50.000,256.731,11.242,1287.472081
15 Sep 2023 06:47:55.000,258.055,11.653,1265.133454
15 Sep 2023 06:48:00.000,259.430,12.063,1243.443530
15 Sep 2023 06:48:05.000,260.857,12.472,1222.437408
15 Sep 2023 06:48:10.000,262.338,12.878,1202.151480
15 Sep 2023 06:48:15.000,263.872,13.279,1182.623329
15 Sep 2023 06:48:20.000,265.462,13.675,1163.891597
15 Sep 2023 06:48:25.000,267.108,14.064,1145.995802
15 Sep 2023 06:48:30.000,268.810,14.443,1128.976133
15 Sep 2023 06:48:35.000,270.569,14.811,1112.873198
15 Sep 2023 06:48:40.000,272.383,15.166,1097.727711
15 Sep 2023 06:48:45.000,274.251,15.505,1083.580169
15 Sep 2023 06:48:50.000,276.174,15.827,1070.470448
15 Sep 2023 06:48:55.000,278.147,16.129,1058.437381
15 Sep 2023 06:49:00.000,280.170,16.408,1047.518311
15 Sep 2023 06:49:05.000,282.238,16.663,1037.748600
15 Sep 2023 06:49:10.000,284.348,16.891,1029.161149
15 Sep 2023 06:49:15.000,286.496,17.091,1021.785888
15 Sep 2023 06:49:20.000,288.677,17.259,1015.649301
15 Sep 2023 06:49:25.000,290.884,17.395,1010.774003
15 Sep 2023 06:49:30.000,293.114,17.498,1007.178304
15 Sep 2023 06:49:35.000,295.358,17.565,1004.875908
15 Sep 2023 06:49:40.000,297.611,17.596,1003.875615
15 Sep 2023 06:49:45.000,299.865,17.592,1004.181248
15 Sep 2023 06:49:50.000,302.115,17.552,1005.791424
15 Sep 2023 06:49:55.000,304.354,17.477,1008.699698
15 Sep 2023 06:50:00.000,306.574,17.367,1012.894646
15 Sep 2023 06:50:05.000,308.771,17.223,1018.360092
15 Sep 2023 06:50:10.000,310.937,17.048,1025.075394
15 Sep 2023 06:50:15.000,313.069,16.843,1033.015826
15 Sep 2023 06:50:20.000,315.162,16.610,1042.152996
15 Sep 2023 06:50:25.000,317.211,16.351,1052.455309
15 Sep 2023 06:50:30.000,319.212,16.068,1063.888458
15 Sep 2023 06:50:35.000,321.164,15.763,1076.415919
15 Sep 2023 06:50:40.000,323.063,15.440,1089.999438
15 Sep 2023 06:50:45.000,324.909,15.099,1104.599505
15 Sep 2023 06:50:50.000,326.699,14.744,1120.175788
15 Sep 2023 06:50:55.000,328.433,14.377,1136.687548
15 Sep 2023 06:51:00.000,330.111,13.999,1154.094000
15 Sep 2023 06:51:05.000,331.734,13.613,1172.354632
15 Sep 2023 06:51:10.000,333.300,13.219,1191.429485
15 Sep 2023 06:51:15.000,334.812,12.821,1211.279389
15 Sep 2023 06:51:20.000,336.270,12.418,1231.866149
15 Sep 2023 06:51:25.000,337.676,12.014,1253.152706
15 Sep 2023 06:51:30.000,339.030,11.607,1275.103246
15 Sep 2023 06:51:35.000,340.335,11.201,1297.683290
15 Sep 2023 06:51:40.000,341.591,10.794,1320.859757
15 Sep 2023 06:51:45.000,342.801,10.390,1344.600987
15 Sep 2023 06:51:50.000,343.966,9.987,1368.876767
15 Sep 2023 06:51:55.000,345.088,9.586,1393.658317
15 Sep 2023 06:52:00.000,346.168,9.189,1418.918278
15 Sep 2023 06:52:05.000,347.208,8.795,1444.630683
15 Sep 2023 06:52:10.000,348.210,8.405,1470.770923
15 Sep 2023 06:52:15.000,349.176,8.019,1497.315695
15 Sep 2023 06:52:20.000,350.106,7.637,1524.242961
15 Sep 2023 06:52:25.000,351.003,7.259,1551.531890
15 Sep 2023 06:52:30.000,351.868,6.886,1579.162813
15 Sep 2023 06:52:35.000,352.702,6.518,1607.117156
15 Sep 2023 06:52:40.000,353.507,6.154,1635.377395
15 Sep 2023 06:52:45.000,354.284,5.795,1663.926997
15 Sep 2023 06:52:50.000,355.034,5.440,1692.750365
15 Sep 2023 06:52:55.000,355.758,5.090,1721.832789
15 Sep 2023 06:53:00.000,356.459,4.744,1751.160689
15 Sep 2023 06:53:05.000,357.136,4.404,1780.720391
15 Sep 2023 06:53:10.000,357.791,4.067,1810.499838
15 Sep 2023 06:53:15.000,358.424,3.735,1840.487380
15 Sep 2023 06:53:20.000,359.037,3.407,1870.672018
15 Sep 2023 06:53:25.000,359.631,3.084,1901.043369
15 Sep 2023 06:53:30.000,0.206,2.764,1931.591626
15 Sep 2023 06:53:35.000,0.764,2.449,1962.307525
15 Sep 2023 06:53:40.000,1.305,2.137,1993.182308
15 Sep 2023 06:53:45.000,1.829,1.830,2024.207692
15 Sep 2023 06:53:50.000,2.338,1.526,2055.375845
15 Sep 2023 06:53:55.000,2.832,1.226,2086.679349
15 Sep 2023 06:54:00.000,3.312,0.929,2118.111184
15 Sep 2023 06:54:05.000,3.778,0.636,2149.664697
15 Sep 2023 06:54:10.000,4.231,0.346,2181.333580
15 Sep 2023 06:54:15.000,4.672,0.059,2213.111852
15 Sep 2023 06:54:16.038,4.762,0.000,2219.724666
15 Sep 2023 14:50:14.539,7.417,0.000,2231.795542
15 Sep 2023 14:50:19.000,8.013,0.207,2208.827740
15 Sep 2023 14:50:24.000,8.696,0.439,2183.328823
15 Sep 2023 14:50:29.000,9.395,0.672,2158.099207
15 Sep 2023 14:50:34.000,10.109,0.904,2133.149320
15 Sep 2023 14:50:39.000,10.840,1.137,2108.489957
15 Sep 2023 14:50:44.000,11.588,1.370,2084.132287
15 Sep 2023 14:50:49.000,12.354,1.602,2060.087860
15 Sep 2023 14:50:54.000,13.137,1.835,2036.368612
15 Sep 2023 14:50:59.000,13.938,2.067,2012.986869
15 Sep 2023 14:51:04.000,14.758,2.298,1989.955349
15 Sep 2023 14:51:09.000,15.596,2.529,1967.287165
15 Sep 2023 14:51:14.000,16.454,2.759,1944.995823
15 Sep 2023 14:51:19.000,17.332,2.987,1923.095217
15 Sep 2023 14:51:24.000,18.230,3.215,1901.599629
15 Sep 2023 14:51:29.000,19.148,3.441,1880.523718
15 Sep 2023 14:51:34.000,20.086,3.665,1859.882504
15 Sep 2023 14:51:39.000,21.046,3.887,1839.691369
15 Sep 2023 14:51:44.000,22.027,4.107,1819.966021
15 Sep 2023 14:51:49.000,23.029,4.324,1800.722486
15 Sep 2023 14:51:54.000,24.053,4.539,1781.977079
15 Sep 2023 14:51:59.000,25.098,4.750,1763.746371
15 Sep 2023 14:52:04.000,26.166,4.958,1746.047160
15 Sep 2023 14:52:09.000,27.255,5.162,1728.896429
15 Sep 2023 14:52:14.000,28.366,5.361,1712.311301
15 Sep 2023 14:52:19.000,29.499,5.556,1696.308998
15 Sep 2023 14:52:24.000,30.654,5.746,1680.906769
15 Sep 2023 14:52:29.000,31.829,5.930,1666.121852
15 Sep 2023 14:52:34.000,33.027,6.108,1651.971394
15 Sep 2023 14:52:39.000,34.244,6.280,1638.472390
15 Sep 2023 14:52:44.000,35.482,6.445,1625.641602
15 Sep 2023 14:52:49.000,36.740,6.603,1613.495487
15 Sep 2023 14:52:54.000,38.017,6.753,1602.050115
15 Sep 2023 14:52:59.000,39.312,6.895,1591.321080
15 Sep 2023 14:53:04.000,40.625,7.029,1581.323412
15 Sep 2023 14:53:09.000,41.954,7.153,1572.071498
15 Sep 2023 14:53:14.000,43.299,7.268,1563.578984
15 Sep 2023 14:53:19.000,44.659,7.373,1555.858691
15 Sep 2023 14:53:24.000,46.032,7.468,1548.922527
15 Sep 2023 14:53:29.000,47.417,7.552,1542.781402
15 Sep 2023 14:53:34.000,48.813,7.626,1537.445161
15 Sep 2023 14:53:39.000,50.218,7.688,1532.922495
15 Sep 2023 14:53:44.000,51.631,7.739,1529.220893
15 Sep 2023 14:53:49.000,53.050,7.779,1526.346560
15 Sep 2023 14:53:54.000,54.474,7.807,1524.304394
15 Sep 2023 14:53:59.000,55.901,7.822,1523.097927
15 Sep 2023 14:54:04.000,57.330,7.826,1522.729310
15 Sep 2023 14:54:09.000,58.759,7.818,1523.199289
15 Sep 2023 14:54:14.000,60.185,7.798,1524.507198
15 Sep 2023 14:54:19.000,61.609,7.767,1526.650966
15 Sep 2023 14:54:24.000,63.028,7.723,1529.627144
15 Sep 2023 14:54:29.000,64.440,7.668,1533.430907
15 Sep 2023 14:54:34.000,65.844,7.602,1538.056204
15 Sep 2023 14:54:39.000,67.238,7.524,1543.495493
15 Sep 2023 14:54:44.000,68.622,7.436,1549.740225
15 Sep 2023 14:54:49.000,69.993,7.337,1556.780638
15 Sep 2023 14:54:54.000,71.351,7.228,1564.605899
15 Sep 2023 14:54:59.000,72.694,7.109,1573.204173
15 Sep 2023 14:55:04.000,74.021,6.981,1582.562723
15 Sep 2023 14:55:09.000,75.331,6.844,1592.667981
15 Sep 2023 14:55:14.000,76.624,6.698,1603.505636
15 Sep 2023 14:55:19.000,77.898,6.545,1615.060737
15 Sep 2023 14:55:24.000,79.153,6.383,1627.317764
15 Sep 2023 14:55:29.000,80.388,6.215,1640.260725
15 Sep 2023 14:55:34.000,81.603,6.040,1653.873237
15 Sep 2023 14:55:39.000,82.797,5.858,1668.138606
15 Sep 2023 14:55:44.000,83.969,5.671,1683.039912
15 Sep 2023 14:55:49.000,85.120,5.478,1698.560078
15 Sep 2023 14:55:54.000,86.250,5.280,1714.681939
15 Sep 2023 14:55:59.000,87.357,5.078,1731.388301
15 Sep 2023 14:56:04.000,88.442,4.871,1748.662022
15 Sep 2023 14:56:09.000,89.506,4.661,1766.486032
15 Sep 2023 14:56:14.000,90.547,4.447,1784.843414
15 Sep 2023 14:56:19.000,91.567,4.230,1803.717431
15 Sep 2023 14:56:24.000,92.565,4.010,1823.091563
15 Sep 2023 14:56:29.000,93.541,3.787,1842.949560
15 Sep 2023 14:56:34.000,94.497,3.563,1863.275444
15 Sep 2023 14:56:39.000,95.431,3.336,1884.053558
15 Sep 2023 14:56:44.000,96.344,3.108,1905.268575
15 Sep 2023 14:56:49.000,97.237,2.878,1926.905519
15 Sep 2023 14:56:54.000,98.110,2.647,1948.949778
15 Sep 2023 14:56:59.000,98.963,2.415,1971.387110
15 Sep 2023 14:57:04.000,99.796,2.182,1994.203669
15 Sep 2023 14:57:09.000,100.611,1.949,2017.385981
15 Sep 2023 14:57:14.000,101.407,1.714,2040.920975
15 Sep 2023 14:57:19.000,102.185,1.480,2064.795969
15 Sep 2023 14:57:24.000,102.945,1.245,2088.998671
15 Sep 2023 14:57:29.000,103.687,1.011,2113.517175
15 Sep 2023 14:57:34.000,104.413,0.776,2138.339964
15 Sep 2023 14:57:39.000,105.122,0.542,2163.455896
15 Sep 2023 14:57:44.000,105.814,0.307,2188.854199
15 Sep 2023 14:57:49.000,106.491,0.073,2214.524480
15 Sep 2023 14:57:50.561,106.700,0.000,2222.592508
15 Sep 2023 16:23:18.928,328.121,-0.000,2231.126080
15 Sep 2023 16:23:23.000,327.945,0.254,2202.923605
15 Sep 2023 16:23:28.000,327.724,0.571,2168.320643
15 Sep 2023 16:23:33.000,327.494,0.892,2133.753580
15 Sep 2023 16:23:38.000,327.257,1.219,2099.225290
15 Sep 2023 16:23:43.000,327.010,1.551,2064.738825
15 Sep 2023 16:23:48.000,326.755,1.888,2030.297418
15 Sep 2023 16:23:53.000,326.491,2.231,1995.904505
15 Sep 2023 16:23:58.000,326.216,2.581,1961.563734
15 Sep 2023 16:24:03.000,325.931,2.937,1927.278996
15 Sep 2023 16:24:08.000,325.634,3.300,1893.054429
15 Sep 2023 16:24:13.000,325.326,3.670,1858.894456
15 Sep 2023 16:24:18.000,325.006,4.047,1824.803797
15 Sep 2023 16:24:23.000,324.672,4.432,1790.787499
15 Sep 2023 16:24:28.000,324.325,4.825,1756.850978
15 Sep 2023 16:24:33.000,323.963,5.228,1723.000033
15 Sep 2023 16:24:38.000,323.585,5.639,1689.240890
15 Sep 2023 16:24:43.000,323.191,6.060,1655.580253
15 Sep 2023 16:24:48.000,322.779,6.490,1622.025332
15 Sep 2023 16:24:53.000,322.348,6.932,1588.583901
15 Sep 2023 16:24:58.000,321.897,7.385,1555.264356
15 Sep 2023 16:25:03.000,321.425,7.849,1522.075767
15 Sep 2023 16:25:08.000,320.930,8.327,1489.027962
15 Sep 2023 16:25:13.000,320.410,8.817,1456.131583
15 Sep 2023 16:25:18.000,319.865,9.321,1423.398186
15 Sep 2023 16:25:23.000,319.291,9.840,1390.840333
15 Sep 2023 16:25:28.000,318.687,10.374,1358.471685
15 Sep 2023 16:25:33.000,318.051,10.924,1326.307137
15 Sep 2023 16:25:38.000,317.380,11.492,1294.362939
15 Sep 2023 16:25:43.000,316.672,12.077,1262.656842
15 Sep 2023 16:25:48.000,315.923,12.682,1231.208255
15 Sep 2023 16:25:53.000,315.131,13.306,1200.038439
15 Sep 2023 16:25:58.000,314.291,13.952,1169.170686
15 Sep 2023 16:26:03.000,313.400,14.619,1138.630558
15 Sep 2023 16:26:08.000,312.453,15.309,1108.446115
15 Sep 2023 16:26:13.000,311.447,16.022,1078.648185
15 Sep 2023 16:26:18.000,310.375,16.760,1049.270653
15 Sep 2023 16:26:23.000,309.231,17.523,1020.350775
15 Sep 2023 16:26:28.000,308.011,18.313,991.929510
15 Sep 2023 16:26:33.000,306.706,19.128,964.051860
15 Sep 2023 16:26:38.000,305.309,19.969,936.767257
15 Sep 2023 16:26:43.000,303.813,20.836,910.129908
15 Sep 2023 16:26:48.000,302.208,21.728,884.199161
15 Sep 2023 16:26:53.000,300.485,22.644,859.039835
15 Sep 2023 16:26:58.000,298.634,23.580,834.722482
15 Sep 2023 16:27:03.000,296.645,24.534,811.323583
15 Sep 2023 16:27:08.000,294.507,25.501,788.925603
15 Sep 2023 16:27:13.000,292.209,26.475,767.616870
15 Sep 2023 16:27:18.000,289.742,27.449,747.491207
15 Sep 2023 16:27:23.000,287.095,28.412,728.647277
15 Sep 2023 16:27:28.000,284.262,29.353,711.187559
15 Sep 2023 16:27:33.000,281.237,30.260,695.216884
15 Sep 2023 16:27:38.000,278.020,31.116,680.840528
15 Sep 2023 16:27:43.000,274.612,31.905,668.161843
15 Sep 2023 16:27:48.000,271.024,32.610,657.279455
15 Sep 2023 16:27:53.000,267.271,33.212,648.284146
15 Sep 2023 16:27:58.000,263.376,33.696,641.255584
15 Sep 2023 16:28:03.000,259.368,34.045,636.259085
15 Sep 2023 16:28:08.000,255.283,34.250,633.343002
15 Sep 2023 16:28:13.000,251.161,34.304,632.536083
15 Sep 2023 16:28:18.000,247.044,34.203,633.846375
15 Sep 2023 16:28:23.000,242.976,33.953,637.260741
15 Sep 2023 16:28:28.000,238.994,33.560,642.745507
15 Sep 2023 16:28:33.000,235.133,33.038,650.248074
15 Sep 2023 16:28:38.000,231.421,32.401,659.699337
15 Sep 2023 16:28:43.000,227.879,31.666,671.016628
15 Sep 2023 16:28:48.000,224.520,30.851,684.106961
15 Sep 2023 16:28:53.000,221.353,29.975,698.870274
15 Sep 2023 16:28:58.000,218.378,29.052,715.202484
15 Sep 2023 16:29:03.000,215.593,28.099,732.998195
15 Sep 2023 16:29:08.000,212.994,27.127,752.152956
15 Sep 2023 16:29:13.000,210.571,26.148,772.565070
15 Sep 2023 16:29:18.000,208.315,25.171,794.136932
15 Sep 2023 16:29:23.000,206.215,24.203,816.775967
15 Sep 2023 16:29:28.000,204.262,23.250,840.395217
15 Sep 2023 16:29:33.000,202.444,22.315,864.913630
15 Sep 2023 16:29:38.000,200.751,21.402,890.256143
15 Sep 2023 16:29:43.000,199.173,20.514,916.353849
15 Sep 2023 16:29:48.000,197.702,19.651,943.142738
15 Sep 2023 16:29:53.000,196.328,18.814,970.564972
15 Sep 2023 16:29:58.000,195.043,18.003,998.567510
15 Sep 2023 16:30:03.000,193.841,17.218,1027.102012
15 Sep 2023 16:30:08.000,192.715,16.460,1056.124465
15 Sep 2023 16:30:13.000,191.657,15.726,1085.594825
15 Sep 2023 16:30:18.000,190.664,15.017,1115.476668
15 Sep 2023 16:30:23.000,189.730,14.332,1145.736865
15 Sep 2023 16:30:28.000,188.849,13.669,1176.345268
15 Sep 2023 16:30:33.000,188.019,13.028,1207.274436
15 Sep 2023 16:30:38.000,187.235,12.408,1238.499370
15 Sep 2023 16:30:43.000,186.493,11.807,1269.997278
15 Sep 2023 16:30:48.000,185.791,11.225,1301.747358
15 Sep 2023 16:30:53.000,185.126,10.661,1333.730608
15 Sep 2023 16:30:58.000,184.495,10.114,1365.929649
15 Sep 2023 16:31:03.000,183.895,9.583,1398.328565
15 Sep 2023 16:31:08.000,183.325,9.068,1430.912768
15 Sep 2023 16:31:13.000,182.782,8.566,1463.668863
15 Sep 2023 16:31:18.000,182.264,8.079,1496.584537
15 Sep 2023 16:31:23.000,181.771,7.605,1529.648459
15 Sep 2023 16:31:28.000,181.300,7.142,1562.850186
15 Sep 2023 16:31:33.000,180.849,6.692,1596.180077
15 Sep 2023 16:31:38.000,180.418,6.253,1629.629226
15 Sep 2023 16:31:43.000,180.006,5.824,1663.189391
15 Sep 2023 16:31:48.000,179.611,5.405,1696.852932
15 Sep 2023 16:31:53.000,179.232,4.996,1730.612763
15 Sep 2023 16:31:58.000,178.868,4.596,1764.462298
15 Sep 2023 16:32:03.000,178.519,4.204,1798.395413
15 Sep 2023 16:32:08.000,178.183,3.821,1832.406400
15 Sep 2023 16:32:13.000,177.860,3.445,1866.489936
15 Sep 2023 16:32:18.000,177.549,3.077,1900.641049
15 Sep 2023 16:32:23.000,177.249,2.716,1934.855090
15 Sep 2023 16:32:28.000,176.961,2.361,1969.127707
15 Sep 2023 16:32:33.000,176.682,2.013,2003.454816
15 Sep 2023 16:32:38.000,176.413,1.671,2037.832589
15 Sep 2023 16:32:43.000,176.154,1.335,2072.257424
15 Sep 2023 16:32:48.000,175.903,1.004,2106.725934
15 Sep 2023 16:32:53.000,175.661,0.679,2141.234928
15 Sep 2023 16:32:58.000,175.426,0.358,2175.781396
15 Sep 2023 16:33:03.000,175.199,0.043,2210.362496
15 Sep 2023 16:33:03.685,175.169,0.000,2215.105577
16 Sep 2023 04:14:44.798,101.784,0.000,2202.309394
16 Sep 2023 04:14:49.000,100.961,0.015,2200.884315
16 Sep 2023 04:14:54.000,99.980,0.027,2199.729481
16 Sep 2023 04:14:59.000,98.999,0.034,2199.163472
16 Sep 2023 04:15:04.000,98.018,0.036,2199.186858
16 Sep 2023 04:15:09.000,97.036,0.032,2199.799726
16 Sep 2023 04:15:14.000,96.056,0.024,2201.001661
16 Sep 2023 04:15:19.000,95.077,0.010,2202.791773
16 Sep 2023 04:15:21.646,94.559,0.000,2203.976630
16 Sep 2023 05:43:20.312,199.254,0.000,2192.357157
16 Sep 2023 05:43:25.000,199.238,0.304,2158.965350
16 Sep 2023 05:43:30.000,199.220,0.634,2123.356842
16 Sep 2023 05:43:35.000,199.201,0.969,2087.751514
16 Sep 2023 05:43:40.000,199.182,1.311,2052.150674
16 Sep 2023 05:43:45.000,199.161,1.659,2016.555700
16 Sep 2023 05:43:50.000,199.139,2.014,1980.968052
16 Sep 2023 05:43:55.000,199.117,2.375,1945.389275
16 Sep 2023 05:44:00.000,199.093,2.745,1909.821005
16 Sep 2023 05:44:05.000,199.068,3.122,1874.264983
16 Sep 2023 05:44:10.000,199.042,3.508,1838.723061
16 Sep 2023 05:44:15.000,199.014,3.902,1803.197213
16 Sep 2023 05:44:20.000,198.985,4.306,1767.689552
16 Sep 2023 05:44:25.000,198.955,4.720,1732.202331
16 Sep 2023 05:44:30.000,198.922,5.145,1696.737976
16 Sep 2023 05:44:35.000,198.889,5.581,1661.299089
16 Sep 2023 05:44:40.000,198.853,6.028,1625.888475
16 Sep 2023 05:44:45.000,198.815,6.489,1590.509159
16 Sep 2023 05:44:50.000,198.775,6.963,1555.164412
16 Sep 2023 05:44:55.000,198.733,7.452,1519.857783
16 Sep 2023 05:45:00.000,198.688,7.957,1484.593126
16 Sep 2023 05:45:05.000,198.641,8.478,1449.374637
16 Sep 2023 05:45:10.000,198.590,9.017,1414.206900
16 Sep 2023 05:45:15.000,198.536,9.576,1379.094923
16 Sep 2023 05:45:20.000,198.479,10.155,1344.044207
16 Sep 2023 05:45:25.000,198.419,10.757,1309.060802
16 Sep 2023 05:45:30.000,198.354,11.383,1274.151372
16 Sep 2023 05:45:35.000,198.284,12.035,1239.323294
16 Sep 2023 05:45:40.000,198.210,12.715,1204.584744
16 Sep 2023 05:45:45.000,198.130,13.426,1169.944812
16 Sep 2023 05:45:50.000,198.045,14.171,1135.413641
16 Sep 2023 05:45:55.000,197.952,14.952,1101.002571
16 Sep 2023 05:46:00.000,197.853,15.774,1066.724335
16 Sep 2023 05:46:05.000,197.745,16.639,1032.593260
16 Sep 2023 05:46:10.000,197.628,17.552,998.625537
16 Sep 2023 05:46:15.000,197.501,18.518,964.839507
16 Sep 2023 05:46:20.000,197.362,19.541,931.256033
16 Sep 2023 05:46:25.000,197.210,20.630,897.898923
16 Sep 2023 05:46:30.000,197.043,21.789,864.795443
16 Sep 2023 05:46:35.000,196.858,23.027,831.976929
16 Sep 2023 05:46:40.000,196.654,24.353,799.479531
16 Sep 2023 05:46:45.000,196.427,25.777,767.345088
16 Sep 2023 05:46:50.000,196.172,27.310,735.622198
16 Sep 2023 05:46:55.000,195.886,28.965,704.367480
16 Sep 2023 05:47:00.000,195.561,30.757,673.647102
16 Sep 2023 05:47:05.000,195.190,32.702,643.538569
16 Sep 2023 05:47:10.000,194.762,34.819,614.132834
16 Sep 2023 05:47:15.000,194.264,37.127,585.536719
16 Sep 2023 05:47:20.000,193.678,39.650,557.875641
16 Sep 2023 05:47:25.000,192.978,42.410,531.296530
16 Sep 2023 05:47:30.000,192.130,45.431,505.970751
16 Sep 2023 05:47:35.000,191.081,48.735,482.096647
16 Sep 2023 05:47:40.000,189.751,52.342,459.901074
16 Sep 2023 05:47:45.000,188.017,56.261,439.638996
16 Sep 2023 05:47:50.000,185.667,60.487,421.589877
16 Sep 2023 05:47:55.000,182.318,64.988,406.049438
16 Sep 2023 05:48:00.000,177.216,69.681,393.315581
16 Sep 2023 05:48:05.000,168.709,74.382,383.668183
16 Sep 2023 05:48:10.000,152.922,78.642,377.344226
16 Sep 2023 05:48:15.000,123.202,81.292,374.512347
16 Sep 2023 05:48:20.000,86.192,80.612,375.251531
16 Sep 2023 05:48:25.000,62.333,77.157,379.540805
16 Sep 2023 05:48:30.000,49.954,72.657,387.262007
16 Sep 2023 05:48:35.000,43.014,67.937,398.215236
16 Sep 2023 05:48:40.000,38.697,63.315,412.142472
16 Sep 2023 05:48:45.000,35.785,58.925,428.753497
16 Sep 2023 05:48:50.000,33.699,54.826,447.749138
16 Sep 2023 05:48:55.000,32.136,51.038,468.838992
16 Sep 2023 05:49:00.000,30.924,47.559,491.752988
16 Sep 2023 05:49:05.000,29.959,44.375,516.247794
16 Sep 2023 05:49:10.000,29.172,41.465,542.107901
16 Sep 2023 05:49:15.000,28.520,38.807,569.146618
16 Sep 2023 05:49:20.000,27.971,36.376,597.203008
16 Sep 2023 05:49:25.000,27.503,34.150,626.139396
16 Sep 2023 05:49:30.000,27.100,32.107,655.838391
16 Sep 2023 05:49:35.000,26.749,30.227,686.200043
16 Sep 2023 05:49:40.000,26.441,28.494,717.139236
16 Sep 2023 05:49:45.000,26.169,26.892,748.583386
16 Sep 2023 05:49:50.000,25.928,25.405,780.470477
16 Sep 2023 05:49:55.000,25.712,24.024,812.747371
16 Sep 2023 05:50:00.000,25.518,22.735,845.368411
16 Sep 2023 05:50:05.000,25.343,21.531,878.294227
16 Sep 2023 05:50:10.000,25.184,20.402,911.490759
16 Sep 2023 05:50:15.000,25.040,19.341,944.928438
16 Sep 2023 05:50:20.000,24.909,18.342,978.581496
16 Sep 2023 05:50:25.000,24.789,17.399,1012.427404
16 Sep 2023 05:50:30.000,24.678,16.507,1046.446388
16 Sep 2023 05:50:35.000,24.577,15.661,1080.621041
16 Sep 2023 05:50:40.000,24.484,14.857,1114.935979
16 Sep 2023 05:50:45.000,24.398,14.091,1149.377562
16 Sep 2023 05:50:50.000,24.318,13.360,1183.933663
16 Sep 2023 05:50:55.000,24.244,12.662,1218.593456
16 Sep 2023 05:51:00.000,24.176,11.994,1253.347258
16 Sep 2023 05:51:05.000,24.112,11.353,1288.186371
16 Sep 2023 05:51:10.000,24.053,10.738,1323.102967
16 Sep 2023 05:51:15.000,23.998,10.146,1358.089980
16 Sep 2023 05:51:20.000,23.946,9.576,1393.141007
16 Sep 2023 05:51:25.000,23.899,9.025,1428.250240
16 Sep 2023 05:51:30.000,23.854,8.494,1463.412394
16 Sep 2023 05:51:35.000,23.812,7.980,1498.622642
16 Sep 2023 05:51:40.000,23.773,7.482,1533.876570
16 Sep 2023 05:51:45.000,23.737,7.000,1569.170133
16 Sep 2023 05:51:50.000,23.703,6.532,1604.499613
16 Sep 2023 05:51:55.000,23.671,6.077,1639.861580
16 Sep 2023 05:52:00.000,23.642,5.634,1675.252873
16 Sep 2023 05:52:05.000,23.614,5.203,1710.670563
16 Sep 2023 05:52:10.000,23.588,4.783,1746.111938
16 Sep 2023 05:52:15.000,23.564,4.374,1781.574474
16 Sep 2023 05:52:20.000,23.542,3.974,1817.055826
16 Sep 2023 05:52:25.000,23.521,3.583,1852.553798
16 Sep 2023 05:52:30.000,23.501,3.202,1888.066345
16 Sep 2023 05:52:35.000,23.483,2.828,1923.591549
16 Sep 2023 05:52:40.000,23.466,2.462,1959.127608
16 Sep 2023 05:52:45.000,23.450,2.103,1994.672833
16 Sep 2023 05:52:50.000,23.436,1.752,2030.225630
16 Sep 2023 05:52:55.000,23.422,1.407,2065.784493
16 Sep 2023 05:53:00.000,23.410,1.068,2101.348004
16 Sep 2023 05:53:05.000,23.398,0.735,2136.914818
16 Sep 2023 05:53:10.000,23.388,0.408,2172.483660
16 Sep 2023 05:53:15.000,23.378,0.086,2208.053319
16 Sep 2023 05:53:16.354,23.376,0.000,2217.682185
16 Sep 2023 07:20:04.740,274.186,0.000,2205.893413
16 Sep 2023 07:20:09.000,274.912,0.137,2190.874002
16 Sep 2023 07:20:14.000,275.777,0.295,2173.642698
16 Sep 2023 07:20:19.000,276.656,0.451,2156.849550
16 Sep 2023 07:20:24.000,277.548,0.603,2140.505287
16 Sep 2023 07:20:29.000,278.453,0.753,2124.620658
16 Sep 2023 07:20:34.000,279.372,0.899,2109.206435
16 Sep 2023 07:20:39.000,280.304,1.042,2094.273368
16 Sep 2023 07:20:44.000,281.248,1.181,2079.832169
16 Sep 2023 07:20:49.000,282.206,1.317,2065.893487
16 Sep 2023 07:20:54.000,283.177,1.448,2052.467881
16 Sep 2023 07:20:59.000,284.160,1.576,2039.565778
16 Sep 2023 07:21:04.000,285.155,1.699,2027.197454
16 Sep 2023 07:21:09.000,286.162,1.817,2015.373007
16 Sep 2023 07:21:14.000,287.181,1.931,2004.102310
16 Sep 2023 07:21:19.000,288.211,2.040,1993.394988
16 Sep 2023 07:21:24.000,289.252,2.144,1983.260369
16 Sep 2023 07:21:29.000,290.303,2.242,1973.707477
16 Sep 2023 07:21:34.000,291.364,2.335,1964.744966
16 Sep 2023 07:21:39.000,292.434,2.422,1956.381106
16 Sep 2023 07:21:44.000,293.514,2.504,1948.623742
16 Sep 2023 07:21:49.000,294.601,2.579,1941.480263
16 Sep 2023 07:21:54.000,295.697,2.649,1934.957564
16 Sep 2023 07:21:59.000,296.799,2.712,1929.062014
16 Sep 2023 07:22:04.000,297.908,2.769,1923.799448
16 Sep 2023 07:22:09.000,299.022,2.819,1919.175101
16 Sep 2023 07:22:14.000,300.142,2.863,1915.193620
16 Sep 2023 07:22:19.000,301.266,2.900,1911.859013
16 Sep 2023 07:22:24.000,302.393,2.930,1909.174655
16 Sep 2023 07:22:29.000,303.524,2.953,1907.143247
16 Sep 2023 07:22:34.000,304.656,2.970,1905.766810
16 Sep 2023 07:22:39.000,305.789,2.979,1905.046687
16 Sep 2023 07:22:44.000,306.923,2.982,1904.983513
16 Sep 2023 07:22:49.000,308.057,2.978,1905.577239
16 Sep 2023 07:22:54.000,309.190,2.966,1906.827100
16 Sep 2023 07:22:59.000,310.320,2.948,1908.731648
16 Sep 2023 07:23:04.000,311.448,2.923,1911.288745
16 Sep 2023 07:23:09.000,312.573,2.892,1914.495571
16 Sep 2023 07:23:14.000,313.693,2.853,1918.348646
16 Sep 2023 07:23:19.000,314.809,2.808,1922.843848
16 Sep 2023 07:23:24.000,315.919,2.756,1927.976418
16 Sep 2023 07:23:29.000,317.023,2.698,1933.741008
16 Sep 2023 07:23:34.000,318.119,2.634,1940.131683
16 Sep 2023 07:23:39.000,319.209,2.563,1947.141962
16 Sep 2023 07:23:44.000,320.290,2.487,1954.764847
16 Sep 2023 07:23:49.000,321.362,2.404,1962.992844
16 Sep 2023 07:23:54.000,322.425,2.316,1971.818013
16 Sep 2023 07:23:59.000,323.478,2.223,1981.231982
16 Sep 2023 07:24:04.000,324.521,2.124,1991.225998
16 Sep 2023 07:24:09.000,325.554,2.020,2001.790948
16 Sep 2023 07:24:14.000,326.575,1.911,2012.917408
16 Sep 2023 07:24:19.000,327.585,1.797,2024.595662
16 Sep 2023 07:24:24.000,328.583,1.678,2036.815869
16 Sep 2023 07:24:29.000,329.569,1.556,2049.567626
16 Sep 2023 07:24:34.000,330.542,1.428,2062.840678
16 Sep 2023 07:24:39.000,331.503,1.297,2076.624517
16 Sep 2023 07:24:44.000,332.451,1.162,2090.908513
16 Sep 2023 07:24:49.000,333.387,1.024,2105.681941
16 Sep 2023 07:24:54.000,334.309,0.881,2120.934016
16 Sep 2023 07:24:59.000,335.218,0.736,2136.653918
16 Sep 2023 07:25:04.000,336.114,0.587,2152.830814
16 Sep 2023 07:25:09.000,336.996,0.436,2169.453886
16 Sep 2023 07:25:14.000,337.865,0.281,2186.512347
16 Sep 2023 07:25:19.000,338.721,0.124,2203.995464
16 Sep 2023 07:25:22.902,339.379,0.000,2217.926075
16 Sep 2023 15:21:56.744,346.819,0.000,2230.850889
16 Sep 2023 15:22:01.000,347.025,0.264,2201.574003
16 Sep 2023 15:22:06.000,347.274,0.579,2167.211885
16 Sep 2023 15:22:11.000,347.530,0.898,2132.883539
16 Sep 2023 15:22:16.000,347.794,1.223,2098.591758
16 Sep 2023 15:22:21.000,348.066,1.553,2064.339503
16 Sep 2023 15:22:26.000,348.347,1.888,2030.129907
16 Sep 2023 15:22:31.000,348.637,2.229,1995.966304
16 Sep 2023 15:22:36.000,348.937,2.576,1961.852229
16 Sep 2023 15:22:41.000,349.246,2.930,1927.791450
16 Sep 2023 15:22:46.000,349.567,3.290,1893.787978
16 Sep 2023 15:22:51.000,349.899,3.658,1859.846090
16 Sep 2023 15:22:56.000,350.243,4.033,1825.970357
16 Sep 2023 15:23:01.000,350.599,4.415,1792.165664
16 Sep 2023 15:23:06.000,350.969,4.806,1758.437241
16 Sep 2023 15:23:11.000,351.353,5.205,1724.790696
16 Sep 2023 15:23:16.000,351.753,5.614,1691.232048
16 Sep 2023 15:23:21.000,352.168,6.031,1657.767765
16 Sep 2023 15:23:26.000,352.600,6.459,1624.404809
16 Sep 2023 15:23:31.000,353.051,6.898,1591.150683
16 Sep 2023 15:23:36.000,353.521,7.347,1558.013481
16 Sep 2023 15:23:41.000,354.012,7.808,1525.001950
16 Sep 2023 15:23:46.000,354.524,8.282,1492.125555
16 Sep 2023 15:23:51.000,355.061,8.768,1459.394549
16 Sep 2023 15:23:56.000,355.622,9.268,1426.820055
16 Sep 2023 15:24:01.000,356.211,9.783,1394.414158
16 Sep 2023 15:24:06.000,356.829,10.313,1362.190002
16 Sep 2023 15:24:11.000,357.478,10.859,1330.161906
16 Sep 2023 15:24:16.000,358.161,11.422,1298.345482
16 Sep 2023 15:24:21.000,358.880,12.002,1266.757781
16 Sep 2023 15:24:26.000,359.638,12.602,1235.417444
16 Sep 2023 15:24:31.000,0.439,13.221,1204.344872
16 Sep 2023 15:24:36.000,1.285,13.861,1173.562419
16 Sep 2023 15:24:41.000,2.180,14.523,1143.094601
16 Sep 2023 15:24:46.000,3.130,15.207,1112.968328
16 Sep 2023 15:24:51.000,4.137,15.915,1083.213161
16 Sep 2023 15:24:56.000,5.208,16.647,1053.861588
16 Sep 2023 15:25:01.000,6.347,17.404,1024.949326
16 Sep 2023 15:25:06.000,7.562,18.188,996.515646
16 Sep 2023 15:25:11.000,8.858,18.997,968.603715
16 Sep 2023 15:25:16.000,10.242,19.834,941.260956
16 Sep 2023 15:25:21.000,11.723,20.696,914.539415
16 Sep 2023 15:25:26.000,13.310,21.585,888.496115
16 Sep 2023 15:25:31.000,15.011,22.497,863.193405
16 Sep 2023 15:25:36.000,16.836,23.432,838.699249
16 Sep 2023 15:25:41.000,18.796,24.386,815.087456
16 Sep 2023 15:25:46.000,20.901,25.356,792.437789
16 Sep 2023 15:25:51.000,23.162,26.335,770.835922
16 Sep 2023 15:25:56.000,25.590,27.318,750.373180
16 Sep 2023 15:26:01.000,28.195,28.294,731.146005
16 Sep 2023 15:26:06.000,30.984,29.253,713.255079
16 Sep 2023 15:26:11.000,33.965,30.182,696.804051
16 Sep 2023 15:26:16.000,37.140,31.067,681.897812
16 Sep 2023 15:26:21.000,40.509,31.891,668.640309
16 Sep 2023 15:26:26.000,44.063,32.637,657.131907
16 Sep 2023 15:26:31.000,47.792,33.287,647.466396
16 Sep 2023 15:26:36.000,51.673,33.823,639.727773
16 Sep 2023 15:26:41.000,55.681,34.229,633.986997
16 Sep 2023 15:26:46.000,59.781,34.493,630.298984
16 Sep 2023 15:26:51.000,63.934,34.606,628.700174
16 Sep 2023 15:26:56.000,68.098,34.564,629.206663
16 Sep 2023 15:27:01.000,72.230,34.368,631.813525
16 Sep 2023 15:27:06.000,76.288,34.025,636.495026
16 Sep 2023 15:27:11.000,80.236,33.546,643.205871
16 Sep 2023 15:27:16.000,84.044,32.945,651.883335
16 Sep 2023 15:27:21.000,87.687,32.239,662.450012
16 Sep 2023 15:27:26.000,91.149,31.445,674.816990
16 Sep 2023 15:27:31.000,94.421,30.583,688.887071
16 Sep 2023 15:27:36.000,97.498,29.668,704.557945
16 Sep 2023 15:27:41.000,100.381,28.716,721.725002
16 Sep 2023 15:27:46.000,103.076,27.742,740.283766
16 Sep 2023 15:27:51.000,105.590,26.757,760.131873
16 Sep 2023 15:27:56.000,107.932,25.771,781.170579
16 Sep 2023 15:28:01.000,110.112,24.791,803.305816
16 Sep 2023 15:28:06.000,112.142,23.824,826.448941
16 Sep 2023 15:28:11.000,114.031,22.875,850.517089
16 Sep 2023 15:28:16.000,115.791,21.947,875.433356
16 Sep 2023 15:28:21.000,117.432,21.043,901.126744
16 Sep 2023 15:28:26.000,118.963,20.165,927.532009
16 Sep 2023 15:28:31.000,120.392,19.312,954.589669
16 Sep 2023 15:28:36.000,121.729,18.487,982.244537
16 Sep 2023 15:28:41.000,122.981,17.687,1010.447110
16 Sep 2023 15:28:46.000,124.155,16.915,1039.152030
16 Sep 2023 15:28:51.000,125.256,16.168,1068.318026
16 Sep 2023 15:28:56.000,126.292,15.445,1097.907561
16 Sep 2023 15:29:01.000,127.267,14.748,1127.886492
16 Sep 2023 15:29:06.000,128.185,14.073,1158.223758
16 Sep 2023 15:29:11.000,129.053,13.420,1188.891091
16 Sep 2023 15:29:16.000,129.872,12.789,1219.862745
16 Sep 2023 15:29:21.000,130.648,12.179,1251.115257
16 Sep 2023 15:29:26.000,131.382,11.587,1282.627229
16 Sep 2023 15:29:31.000,132.079,11.014,1314.379109
16 Sep 2023 15:29:36.000,132.741,10.458,1346.353038
16 Sep 2023 15:29:41.000,133.370,9.919,1378.532657
16 Sep 2023 15:29:46.000,133.969,9.396,1410.902984
16 Sep 2023 15:29:51.000,134.540,8.887,1443.450271
16 Sep 2023 15:29:56.000,135.084,8.393,1476.161889
16 Sep 2023 15:30:01.000,135.604,7.912,1509.026214
16 Sep 2023 15:30:06.000,136.101,7.443,1542.032545
16 Sep 2023 15:30:11.000,136.577,6.987,1575.171010
16 Sep 2023 15:30:16.000,137.032,6.542,1608.432487
16 Sep 2023 15:30:21.000,137.469,6.108,1641.808549
16 Sep 2023 15:30:26.000,137.887,5.685,1675.291383
16 Sep 2023 15:30:31.000,138.289,5.271,1708.873744
16 Sep 2023 15:30:36.000,138.676,4.866,1742.548907
16 Sep 2023 15:30:41.000,139.047,4.470,1776.310618
16 Sep 2023 15:30:46.000,139.405,4.083,1810.153051
16 Sep 2023 15:30:51.000,139.749,3.703,1844.070782
16 Sep 2023 15:30:56.000,140.081,3.331,1878.058741
16 Sep 2023 15:31:01.000,140.402,2.967,1912.112190
16 Sep 2023 15:31:06.000,140.711,2.609,1946.226700
16 Sep 2023 15:31:11.000,141.009,2.258,1980.398115
16 Sep 2023 15:31:16.000,141.298,1.913,2014.622536
16 Sep 2023 15:31:21.000,141.577,1.573,2048.896307
16 Sep 2023 15:31:26.000,141.847,1.240,2083.215981
16 Sep 2023 15:31:31.000,142.108,0.912,2117.578321
16 Sep 2023 15:31:36.000,142.361,0.590,2151.980268
16 Sep 2023 15:31:41.000,142.607,0.272,2186.418940
16 Sep 2023 15:31:45.338,142.814,0.000,2216.322372
16 Sep 2023 16:56:54.438,302.856,0.000,2228.405887
16 Sep 2023 16:56:59.000,302.217,0.202,2205.944310
16 Sep 2023 16:57:04.000,301.500,0.423,2181.623892
16 Sep 2023 16:57:09.000,300.768,0.643,2157.628289
16 Sep 2023 16:57:14.000,300.018,0.863,2133.969164
16 Sep 2023 16:57:19.000,299.251,1.082,2110.658528
16 Sep 2023 16:57:24.000,298.467,1.300,2087.708736
16 Sep 2023 16:57:29.000,297.665,1.517,2065.132488
16 Sep 2023 16:57:34.000,296.845,1.732,2042.942828
16 Sep 2023 16:57:39.000,296.007,1.947,2021.153127
16 Sep 2023 16:57:44.000,295.150,2.160,1999.777086
16 Sep 2023 16:57:49.000,294.274,2.370,1978.828732
16 Sep 2023 16:57:54.000,293.379,2.579,1958.322390
16 Sep 2023 16:57:59.000,292.465,2.786,1938.272665
16 Sep 2023 16:58:04.000,291.531,2.990,1918.694444
16 Sep 2023 16:58:09.000,290.578,3.191,1899.602862
16 Sep 2023 16:58:14.000,289.605,3.390,1881.013265
16 Sep 2023 16:58:19.000,288.612,3.585,1862.941206
16 Sep 2023 16:58:24.000,287.599,3.776,1845.402385
16 Sep 2023 16:58:29.000,286.566,3.963,1828.412634
16 Sep 2023 16:58:34.000,285.514,4.146,1811.987853
16 Sep 2023 16:58:39.000,284.442,4.325,1796.143992
16 Sep 2023 16:58:44.000,283.350,4.499,1780.896973
16 Sep 2023 16:58:49.000,282.240,4.667,1766.262663
16 Sep 2023 16:58:54.000,281.110,4.829,1752.256797
16 Sep 2023 16:58:59.000,279.962,4.986,1738.894914
16 Sep 2023 16:59:04.000,278.795,5.136,1726.192315
16 Sep 2023 16:59:09.000,277.612,5.279,1714.163972
16 Sep 2023 16:59:14.000,276.411,5.416,1702.824468
16 Sep 2023 16:59:19.000,275.194,5.545,1692.187922
16 Sep 2023 16:59:24.000,273.961,5.665,1682.267921
16 Sep 2023 16:59:29.000,272.714,5.778,1673.077427
16 Sep 2023 16:59:34.000,271.452,5.882,1664.628734
16 Sep 2023 16:59:39.000,270.178,5.978,1656.933355
16 Sep 2023 16:59:44.000,268.892,6.064,1650.001983
16 Sep 2023 16:59:49.000,267.596,6.141,1643.844413
16 Sep 2023 16:59:54.000,266.289,6.208,1638.469465
16 Sep 2023 16:59:59.000,264.975,6.265,1633.884941
16 Sep 2023 17:00:04.000,263.653,6.312,1630.097551
16 Sep 2023 17:00:09.000,262.326,6.349,1627.112893
16 Sep 2023 17:00:14.000,260.994,6.375,1624.935382
16 Sep 2023 17:00:19.000,259.659,6.391,1623.568240
16 Sep 2023 17:00:24.000,258.322,6.396,1623.013453
