xian_to_starlink-1155_Access_AER.csv

"Time (UTCG)","Azimuth (deg)","Elevation (deg)","Range (km)"
14 Sep 2023 15:02:06.702,146.228,0.000,2457.180690
14 Sep 2023 15:03:06.000,136.415,1.344,2314.555183
14 Sep 2023 15:04:06.000,125.489,2.101,2239.231048
14 Sep 2023 15:05:06.000,114.189,2.109,2240.733107
14 Sep 2023 15:06:06.000,103.292,1.367,2319.038705
14 Sep 2023 15:07:06.000,93.423,0.018,2466.657748
14 Sep 2023 15:07:06.691,93.317,0.000,2468.716590
14 Sep 2023 16:35:39.855,211.792,0.000,2456.831023
14 Sep 2023 16:36:39.000,209.377,3.917,2061.598300
14 Sep 2023 16:37:39.000,205.673,8.848,1668.312660
14 Sep 2023 16:38:39.000,199.472,15.471,1292.179598
14 Sep 2023 16:39:39.000,187.496,25.037,956.184419
14 Sep 2023 16:40:39.000,160.568,37.225,721.216073
14 Sep 2023 16:41:39.000,114.256,38.935,699.288652
14 Sep 2023 16:42:39.000,83.306,27.196,906.093401
14 Sep 2023 16:43:39.000,69.651,17.027,1230.764436
14 Sep 2023 16:44:39.000,62.811,10.010,1602.320676
14 Sep 2023 16:45:39.000,58.840,4.857,1993.626610
14 Sep 2023 16:46:39.000,56.289,0.760,2393.790611
14 Sep 2023 16:46:51.422,55.873,0.000,2477.217814
14 Sep 2023 18:13:22.917,258.278,0.000,2466.521103
14 Sep 2023 18:14:22.000,262.442,3.678,2092.580212
14 Sep 2023 18:15:22.000,268.478,8.116,1728.108662
14 Sep 2023 18:16:22.000,277.722,13.554,1393.072051
14 Sep 2023 18:17:22.000,292.799,19.985,1116.160889
14 Sep 2023 18:18:22.000,316.903,25.452,951.031131
14 Sep 2023 18:19:22.000,346.476,25.216,957.987957
14 Sep 2023 18:20:22.000,9.894,19.569,1133.737470
14 Sep 2023 18:21:22.000,24.438,13.212,1416.180821
14 Sep 2023 18:22:22.000,33.400,7.873,1753.615215
14 Sep 2023 18:23:22.000,39.301,3.508,2118.851007
14 Sep 2023 18:24:19.000,43.284,0.000,2479.323203
14 Sep 2023 19:52:43.732,296.815,0.000,2475.718589
14 Sep 2023 19:53:43.000,304.118,2.861,2178.386218
14 Sep 2023 19:54:43.000,313.671,5.769,1917.513657
14 Sep 2023 19:55:43.000,325.886,8.379,1716.670863
14 Sep 2023 19:56:43.000,340.694,10.110,1599.524270
14 Sep 2023 19:57:43.000,356.835,10.338,1585.199084
14 Sep 2023 19:58:43.000,12.176,8.967,1676.352482
14 Sep 2023 19:59:43.000,25.131,6.532,1857.167029
14 Sep 2023 20:00:43.000,35.360,3.669,2104.021433
14 Sep 2023 20:01:43.000,43.271,0.760,2395.750889
14 Sep 2023 20:01:58.970,45.060,-0.000,2478.868675
14 Sep 2023 21:31:30.031,316.478,0.000,2479.261708
14 Sep 2023 21:32:30.000,323.599,2.984,2169.104696
14 Sep 2023 21:33:30.000,332.915,6.045,1896.435126
14 Sep 2023 21:34:30.000,345.035,8.894,1681.238714
14 Sep 2023 21:35:30.000,0.074,10.916,1548.733466
14 Sep 2023 21:36:30.000,16.846,11.361,1521.314898
14 Sep 2023 21:37:30.000,32.979,10.015,1604.540847
14 Sep 2023 21:38:30.000,46.572,7.460,1782.740131
14 Sep 2023 21:39:30.000,57.188,4.437,2030.511197
14 Sep 2023 21:40:30.000,65.289,1.386,2324.941976
14 Sep 2023 21:40:58.097,68.403,0.000,2473.975319
14 Sep 2023 23:09:02.238,315.570,0.000,2478.940862
14 Sep 2023 23:10:02.000,318.942,3.814,2089.752875
14 Sep 2023 23:11:02.000,323.814,8.475,1709.250487
14 Sep 2023 23:12:02.000,331.478,14.484,1349.988898
14 Sep 2023 23:13:02.000,344.935,22.445,1036.639767
14 Sep 2023 23:14:02.000,10.237,31.081,825.414995
14 Sep 2023 23:15:02.000,47.233,32.261,802.745723
14 Sep 2023 23:16:02.000,75.644,24.220,981.987864
14 Sep 2023 23:17:02.000,90.925,15.829,1280.601155
14 Sep 2023 23:18:02.000,99.419,9.444,1633.638116
14 Sep 2023 23:19:02.000,104.686,4.545,2011.664035
14 Sep 2023 23:20:02.000,108.264,0.567,2401.777798
14 Sep 2023 23:20:11.447,108.727,0.000,2463.841898
15 Sep 2023 00:46:36.491,300.757,0.000,2475.988563
15 Sep 2023 00:47:36.000,297.182,3.764,2090.811629
15 Sep 2023 00:48:36.000,291.835,8.325,1716.038009
15 Sep 2023 00:49:36.000,283.309,14.035,1368.304022
15 Sep 2023 00:50:36.000,268.668,21.079,1076.263554
15 Sep 2023 00:51:36.000,243.634,27.458,897.762134
15 Sep 2023 00:52:36.000,211.679,27.151,903.639619
15 Sep 2023 00:53:36.000,187.344,20.515,1090.863586
15 Sep 2023 00:54:36.000,173.183,13.502,1387.288870
15 Sep 2023 00:55:36.000,164.880,7.856,1736.987943
15 Sep 2023 00:56:36.000,159.620,3.344,2112.565498
15 Sep 2023 00:57:28.883,156.399,0.000,2454.631214
15 Sep 2023 16:00:13.236,204.861,0.000,2455.281799
15 Sep 2023 16:01:13.000,201.335,3.843,2066.899850
15 Sep 2023 16:02:13.000,196.083,8.521,1689.917604
15 Sep 2023 16:03:13.000,187.644,14.464,1339.152617
15 Sep 2023 16:04:13.000,172.872,21.972,1043.638734
15 Sep 2023 16:05:13.000,146.829,28.944,863.967527
15 Sep 2023 16:06:13.000,113.273,28.462,875.580803
15 Sep 2023 16:07:13.000,88.607,21.211,1072.284275
15 Sep 2023 16:08:13.000,74.769,13.885,1376.358936
15 Sep 2023 16:09:13.000,66.824,8.119,1731.268824
15 Sep 2023 16:10:13.000,61.860,3.557,2110.451002
15 Sep 2023 16:11:09.125,58.703,0.000,2476.191650
15 Sep 2023 17:37:34.615,252.338,0.000,2464.438201
15 Sep 2023 17:38:34.000,255.819,3.807,2078.702639
15 Sep 2023 17:39:34.000,260.909,8.480,1700.328278
15 Sep 2023 17:40:34.000,268.941,14.470,1345.111813
15 Sep 2023 17:41:34.000,282.959,22.273,1039.163969
15 Sep 2023 17:42:34.000,308.592,30.297,839.936427
15 Sep 2023 17:43:34.000,344.280,30.887,829.173299
15 Sep 2023 17:44:34.000,11.369,23.238,1012.823428
15 Sep 2023 17:45:34.000,26.306,15.291,1310.998599
15 Sep 2023 17:46:34.000,34.797,9.148,1662.275879
15 Sep 2023 17:47:34.000,40.145,4.378,2038.287126
15 Sep 2023 17:48:34.000,43.826,0.475,2426.341159
15 Sep 2023 17:48:42.032,44.236,0.000,2478.819576
15 Sep 2023 19:16:49.204,292.413,0.000,2474.259768
15 Sep 2023 19:17:49.000,299.578,2.970,2166.587656
15 Sep 2023 19:18:49.000,308.966,6.012,1896.315844
15 Sep 2023 19:19:49.000,321.147,8.822,1684.456061
15 Sep 2023 19:20:49.000,336.187,10.786,1555.999098
15 Sep 2023 19:21:49.000,352.859,11.177,1532.564884
15 Sep 2023 19:22:49.000,8.825,9.815,1618.762875
15 Sep 2023 19:23:49.000,22.264,7.280,1798.554653
15 Sep 2023 19:24:49.000,32.775,4.292,2046.788762
15 Sep 2023 19:25:49.000,40.821,1.275,2340.947344
15 Sep 2023 19:26:15.075,43.710,0.000,2478.795199
15 Sep 2023 20:55:46.376,315.213,0.000,2478.678677
15 Sep 2023 20:56:46.000,322.519,2.884,2178.372844
15 Sep 2023 20:57:46.000,332.033,5.806,1915.855395
15 Sep 2023 20:58:46.000,344.224,8.442,1712.814373
15 Sep 2023 20:59:46.000,359.052,10.208,1593.140278
15 Sep 2023 21:00:46.000,15.274,10.464,1576.489523
15 Sep 2023 21:01:46.000,30.725,9.095,1666.060160
15 Sep 2023 21:02:46.000,43.775,6.643,1846.180248
15 Sep 2023 21:03:46.000,54.064,3.755,2093.033624
15 Sep 2023 21:04:46.000,62.005,0.822,2385.205623
15 Sep 2023 21:05:03.165,63.926,0.000,2474.802984
15 Sep 2023 22:33:24.870,316.568,0.000,2478.816829
15 Sep 2023 22:34:24.000,320.609,3.668,2103.267891
15 Sep 2023 22:35:24.000,326.434,8.102,1736.184889
15 Sep 2023 22:36:24.000,335.350,13.573,1396.464188
15 Sep 2023 22:37:24.000,350.009,20.171,1111.606901
15 Sep 2023 22:38:24.000,14.023,26.090,934.982809
15 Sep 2023 22:39:24.000,44.506,26.202,931.356250
15 Sep 2023 22:40:24.000,68.883,20.350,1102.568570
15 Sep 2023 22:41:24.000,83.807,13.695,1384.818681
15 Sep 2023 22:42:24.000,92.852,8.162,1723.655945
15 Sep 2023 22:43:24.000,98.726,3.684,2090.783421
15 Sep 2023 22:44:22.866,102.757,0.000,2465.223709
16 Sep 2023 00:10:53.078,303.649,0.000,2476.396395
16 Sep 2023 00:11:53.000,301.114,3.917,2077.196305
16 Sep 2023 00:12:53.000,297.246,8.761,1685.734349
16 Sep 2023 00:13:53.000,290.792,15.191,1312.315580
16 Sep 2023 00:14:53.000,278.539,24.267,980.227924
16 Sep 2023 00:15:53.000,252.220,35.369,748.936501
16 Sep 2023 00:16:53.000,208.818,37.003,723.890343
16 Sep 2023 00:17:53.000,178.351,26.353,922.131035
16 Sep 2023 00:18:53.000,164.150,16.613,1240.338340
16 Sep 2023 00:19:53.000,156.863,9.730,1607.927546
16 Sep 2023 00:20:53.000,152.565,4.627,1996.710572
16 Sep 2023 00:21:53.000,149.759,0.552,2395.152909
16 Sep 2023 00:22:02.015,149.420,0.000,2455.476573
16 Sep 2023 01:50:49.042,264.391,0.000,2467.058841
16 Sep 2023 01:51:49.000,254.411,1.186,2336.366782
16 Sep 2023 01:52:49.000,243.558,1.746,2275.829058
16 Sep 2023 01:53:49.000,232.485,1.573,2291.263203
16 Sep 2023 01:54:49.000,221.916,0.700,2380.997977
16 Sep 2023 01:55:20.943,216.694,0.000,2456.389353
16 Sep 2023 15:24:48.390,197.635,0.000,2453.913641
16 Sep 2023 15:25:48.000,193.027,3.662,2082.388473
16 Sep 2023 15:26:48.000,186.326,7.970,1728.251829
16 Sep 2023 15:27:48.000,176.109,13.045,1411.118845
16 Sep 2023 15:28:48.000,160.070,18.504,1163.583977
16 Sep 2023 15:29:48.000,136.734,22.170,1038.136941
16 Sep 2023 15:30:48.000,111.008,20.950,1078.883157
16 Sep 2023 15:31:48.000,91.047,16.063,1269.843862
16 Sep 2023 15:32:48.000,78.106,10.690,1556.125678
16 Sep 2023 15:33:48.000,69.826,5.998,1894.144961
16 Sep 2023 15:34:48.000,64.289,2.017,2259.754256
16 Sep 2023 15:35:22.145,61.918,0.000,2475.030349
16 Sep 2023 17:01:45.955,246.272,0.000,2462.361671
16 Sep 2023 17:02:45.000,248.956,3.876,2070.393875
16 Sep 2023 17:03:45.000,252.937,8.746,1679.821212
16 Sep 2023 17:04:45.000,259.378,15.246,1306.264826
16 Sep 2023 17:05:45.000,271.403,24.552,971.864163
16 Sep 2023 17:06:45.000,297.573,36.436,734.376698
16 Sep 2023 17:07:45.000,342.953,38.887,701.538073
16 Sep 2023 17:08:45.000,15.026,27.701,896.127773
16 Sep 2023 17:09:45.000,29.653,17.505,1212.633444
16 Sep 2023 17:10:45.000,37.163,10.409,1578.444637
16 Sep 2023 17:11:45.000,41.674,5.203,1965.105135
16 Sep 2023 17:12:45.000,44.708,1.075,2361.158662
16 Sep 2023 17:13:02.592,45.424,0.000,2478.210126
16 Sep 2023 18:40:51.728,287.668,0.000,2472.634464
16 Sep 2023 18:41:51.000,294.487,3.042,2158.144396
16 Sep 2023 18:42:51.000,303.598,6.253,1875.459497
16 Sep 2023 18:43:51.000,315.642,9.331,1648.493169
16 Sep 2023 18:44:51.000,330.902,11.638,1503.718424
16 Sep 2023 18:45:51.000,348.261,12.298,1466.259969
16 Sep 2023 18:46:51.000,5.119,10.983,1544.032916
16 Sep 2023 18:47:51.000,19.273,8.319,1721.160916
16 Sep 2023 18:48:51.000,30.210,5.156,1970.398420
16 Sep 2023 18:49:51.000,38.461,1.986,2267.237601
16 Sep 2023 18:50:30.254,42.757,0.000,2478.643926
16 Sep 2023 20:19:58.523,313.524,0.000,2477.955547
16 Sep 2023 20:20:58.000,320.980,2.813,2184.682953
16 Sep 2023 20:21:58.000,330.640,5.630,1930.093903
16 Sep 2023 20:22:58.000,342.878,8.109,1736.462083
16 Sep 2023 20:23:58.000,357.544,9.692,1626.621843
16 Sep 2023 20:24:58.000,13.368,9.815,1618.220701
16 Sep 2023 20:25:58.000,28.334,8.428,1712.813517
16 Sep 2023 20:26:58.000,40.991,6.042,1894.732352
16 Sep 2023 20:27:58.000,51.036,3.246,2141.248274
16 Sep 2023 20:28:58.000,58.849,0.395,2432.001549
16 Sep 2023 20:29:06.432,59.799,0.000,2475.488955
16 Sep 2023 21:57:44.825,317.329,0.000,2478.608710
16 Sep 2023 21:58:44.000,322.021,3.558,2113.479528
16 Sep 2023 21:59:44.000,328.696,7.758,1761.408896
16 Sep 2023 22:00:44.000,338.622,12.707,1443.015119
16 Sep 2023 22:01:44.000,353.968,18.138,1187.606484
16 Sep 2023 22:02:44.000,16.537,22.198,1043.990010
16 Sep 2023 22:03:44.000,42.608,21.684,1059.427260
16 Sep 2023 22:04:44.000,63.864,17.084,1227.989289
16 Sep 2023 22:05:44.000,78.002,11.645,1498.438126
16 Sep 2023 22:06:44.000,87.165,6.820,1825.295325
16 Sep 2023 22:07:44.000,93.374,2.732,2182.410867
16 Sep 2023 22:08:29.806,96.885,0.000,2466.621916
16 Sep 2023 23:35:08.936,306.221,0.000,2476.657562
16 Sep 2023 23:36:08.000,304.762,3.933,2076.171731
16 Sep 2023 23:37:08.000,302.445,8.938,1673.867626
16 Sep 2023 23:38:08.000,298.428,15.837,1282.870509
16 Sep 2023 23:39:08.000,290.155,26.596,920.401744
16 Sep 2023 23:40:08.000,267.076,44.156,639.818517
16 Sep 2023 23:41:08.000,203.451,51.245,578.203985
16 Sep 2023 23:42:08.000,165.200,32.822,788.898910
16 Sep 2023 23:43:08.000,153.139,19.467,1127.974850
16 Sep 2023 23:44:08.000,147.845,11.303,1510.469738
16 Sep 2023 23:45:08.000,144.940,5.660,1909.378155
16 Sep 2023 23:46:08.000,143.121,1.317,2315.000764
16 Sep 2023 23:46:28.815,142.641,0.000,2456.423804
17 Sep 2023 01:14:14.705,274.792,0.000,2469.555967
17 Sep 2023 01:15:14.000,265.727,1.947,2260.254850
17 Sep 2023 01:16:14.000,254.929,3.454,2110.751574
17 Sep 2023 01:17:14.000,242.895,4.218,2038.223008
17 Sep 2023 01:18:14.000,230.493,4.051,2051.038674
17 Sep 2023 01:19:14.000,218.755,2.996,2147.495913
17 Sep 2023 01:20:14.000,208.415,1.289,2316.683141
17 Sep 2023 01:20:51.971,202.725,0.000,2454.455353
17 Sep 2023 14:49:25.963,190.021,0.000,2452.746584
17 Sep 2023 14:50:25.000,184.383,3.396,2106.090126
17 Sep 2023 14:51:25.000,176.382,7.237,1781.823097
17 Sep 2023 14:52:25.000,164.903,11.352,1505.972264
17 Sep 2023 14:53:25.000,148.723,15.045,1311.061980
17 Sep 2023 14:54:25.000,128.365,16.722,1237.035202
17 Sep 2023 14:55:25.000,107.888,15.246,1305.031526
17 Sep 2023 14:56:25.000,91.483,11.654,1495.638912
17 Sep 2023 14:57:25.000,79.831,7.564,1769.096476
17 Sep 2023 14:58:25.000,71.737,3.720,2092.328915
17 Sep 2023 14:59:25.000,65.992,0.261,2444.641476
17 Sep 2023 14:59:29.803,65.607,0.000,2473.699398
17 Sep 2023 16:25:57.207,240.083,0.000,2460.232124
17 Sep 2023 16:26:57.000,241.956,4.004,2056.669952
17 Sep 2023 16:27:57.000,244.716,9.056,1656.678062
17 Sep 2023 16:28:57.000,249.269,16.032,1268.741871
17 Sep 2023 16:29:57.000,258.317,26.903,910.927562
17 Sep 2023 16:30:57.000,282.818,44.278,638.655604
17 Sep 2023 16:31:57.000,345.723,50.159,587.829703
17 Sep 2023 16:32:57.000,22.752,32.315,801.782477
17 Sep 2023 16:33:57.000,35.057,19.362,1139.472138
17 Sep 2023 16:34:57.000,40.722,11.349,1519.624819
17 Sep 2023 16:35:57.000,43.997,5.774,1916.003548
17 Sep 2023 16:36:57.000,46.174,1.468,2319.051504
17 Sep 2023 16:37:20.471,46.848,0.000,2477.518227
17 Sep 2023 18:04:51.723,282.622,0.000,2470.838348
17 Sep 2023 18:05:51.000,289.102,3.155,2145.696678
17 Sep 2023 18:06:51.000,297.875,6.562,1849.225993
17 Sep 2023 18:07:51.000,309.734,9.965,1605.240468
17 Sep 2023 18:08:51.000,325.242,12.708,1441.766021
17 Sep 2023 18:09:51.000,343.474,13.725,1388.204807
17 Sep 2023 18:10:51.000,1.494,12.460,1456.868085
17 Sep 2023 18:11:51.000,16.553,9.599,1632.096934
17 Sep 2023 18:12:51.000,27.988,6.186,1883.755963
17 Sep 2023 18:13:51.000,36.451,2.812,2184.733987
17 Sep 2023 18:14:44.322,42.171,0.000,2478.363997
17 Sep 2023 19:44:06.352,311.385,0.000,2477.130511
17 Sep 2023 19:45:06.000,318.977,2.779,2187.298290
17 Sep 2023 19:46:06.000,328.739,5.526,1938.212392
17 Sep 2023 19:47:06.000,341.015,7.903,1751.132416
17 Sep 2023 19:48:06.000,355.583,9.365,1648.177030
17 Sep 2023 19:49:06.000,11.156,9.401,1645.659615
17 Sep 2023 19:50:06.000,25.811,7.995,1744.041445
17 Sep 2023 19:51:06.000,38.210,5.646,1927.605620
17 Sep 2023 19:52:06.000,48.086,2.904,2174.280931
17 Sep 2023 19:53:06.000,55.805,0.105,2464.381956
17 Sep 2023 19:53:08.263,56.061,0.000,2475.966728
17 Sep 2023 21:22:01.884,317.837,0.000,2478.319896
17 Sep 2023 21:23:01.000,323.105,3.434,2124.972445
17 Sep 2023 21:24:01.000,330.502,7.394,1788.677775
17 Sep 2023 21:25:01.000,341.184,11.842,1491.984706
17 Sep 2023 21:26:01.000,356.800,16.298,1264.780972
17 Sep 2023 21:27:01.000,17.924,19.093,1150.275295
17 Sep 2023 21:28:01.000,40.839,18.238,1182.283552
17 Sep 2023 21:29:01.000,59.755,14.417,1350.412638
17 Sep 2023 21:30:01.000,73.059,9.821,1612.177778
17 Sep 2023 21:31:01.000,82.135,5.549,1929.091498
17 Sep 2023 21:32:01.000,88.507,1.791,2277.303484
17 Sep 2023 21:32:32.515,91.126,0.000,2467.942972
17 Sep 2023 22:59:23.679,308.510,0.000,2476.776961
17 Sep 2023 23:00:23.000,308.052,3.988,2071.340575
17 Sep 2023 23:01:23.000,307.252,9.088,1663.919021
17 Sep 2023 23:02:23.000,305.758,16.259,1264.286178
17 Sep 2023 23:03:23.000,302.415,28.093,885.891133
17 Sep 2023 23:04:23.000,290.528,51.766,575.557397
17 Sep 2023 23:05:23.000,182.567,69.477,489.692383
17 Sep 2023 23:06:23.000,145.973,37.658,714.763957
17 Sep 2023 23:07:23.000,140.207,21.182,1069.344009
17 Sep 2023 23:08:23.000,138.009,12.166,1461.185361
17 Sep 2023 23:09:23.000,136.887,6.204,1865.881844
17 Sep 2023 23:10:23.000,136.226,1.711,2275.364543
17 Sep 2023 23:10:49.613,136.016,0.000,2457.535062
18 Sep 2023 00:37:58.487,281.977,0.000,2471.135434
18 Sep 2023 00:38:58.000,273.812,2.503,2206.283317
18 Sep 2023 00:39:58.000,263.504,4.783,1991.968032
18 Sep 2023 00:40:58.000,251.081,6.457,1849.923178
18 Sep 2023 00:41:58.000,237.215,7.095,1797.894376
18 Sep 2023 00:42:58.000,223.301,6.483,1843.621036
18 Sep 2023 00:43:58.000,210.754,4.820,1980.052545
18 Sep 2023 00:44:58.000,200.291,2.538,2189.693663
18 Sep 2023 00:45:58.000,191.912,0.005,2452.998596
18 Sep 2023 00:45:58.109,191.898,0.000,2453.513534
18 Sep 2023 14:14:06.903,181.880,0.000,2451.807296
18 Sep 2023 14:15:06.000,175.166,3.104,2132.980065
18 Sep 2023 14:16:06.000,166.011,6.392,1846.955313
18 Sep 2023 14:17:06.000,153.734,9.520,1620.612902
18 Sep 2023 14:18:06.000,138.103,11.769,1482.799115
18 Sep 2023 14:19:06.000,120.515,12.208,1459.556343
18 Sep 2023 14:20:06.000,103.858,10.613,1556.222125
18 Sep 2023 14:21:06.000,90.269,7.752,1752.806428
18 Sep 2023 14:22:06.000,80.028,4.494,2019.740002
18 Sep 2023 14:23:06.000,72.461,1.288,2332.144756
18 Sep 2023 14:23:31.122,69.900,-0.000,2472.162970
18 Sep 2023 15:50:08.602,233.769,0.000,2458.176002
18 Sep 2023 15:51:08.000,234.717,4.023,2052.966417
18 Sep 2023 15:52:08.000,236.102,9.176,1646.739024
18 Sep 2023 15:53:08.000,238.376,16.443,1249.089831
18 Sep 2023 15:54:08.000,243.031,28.451,874.498792
18 Sep 2023 15:55:08.000,258.641,51.975,573.130483
18 Sep 2023 15:56:08.000,358.885,65.569,503.070288
18 Sep 2023 15:57:08.000,35.129,36.467,733.976201
18 Sep 2023 15:58:08.000,42.220,20.791,1088.146777
18 Sep 2023 15:59:08.000,45.215,12.032,1478.602037
18 Sep 2023 16:00:08.000,46.931,6.180,1881.755061
18 Sep 2023 16:01:08.000,48.087,1.744,2289.649109
18 Sep 2023 16:01:35.438,48.510,0.000,2476.736495
18 Sep 2023 17:28:49.599,277.315,0.000,2468.915852
18 Sep 2023 17:29:49.000,283.399,3.284,2131.623502
18 Sep 2023 17:30:49.000,291.746,6.913,1820.101305
18 Sep 2023 17:31:49.000,303.321,10.702,1557.075378
18 Sep 2023 17:32:49.000,319.055,14.005,1371.981491
18 Sep 2023 17:33:49.000,338.361,15.517,1299.338442
18 Sep 2023 17:34:49.000,357.905,14.323,1357.525848
18 Sep 2023 17:35:49.000,14.129,11.173,1531.423724
18 Sep 2023 17:36:49.000,26.153,7.413,1786.939786
18 Sep 2023 17:37:49.000,34.829,3.767,2093.535175
18 Sep 2023 17:38:49.000,41.201,0.426,2430.927929
18 Sep 2023 17:38:57.083,41.928,0.000,2477.996946
18 Sep 2023 19:08:09.839,308.782,0.000,2476.121282
18 Sep 2023 19:09:09.000,316.355,2.739,2190.401048
18 Sep 2023 19:10:09.000,326.144,5.457,1943.340560
18 Sep 2023 19:11:09.000,338.416,7.795,1758.592622
18 Sep 2023 19:12:09.000,352.928,9.215,1657.961076
18 Sep 2023 19:13:09.000,8.393,9.225,1657.263976
18 Sep 2023 19:14:09.000,22.928,7.822,1756.626914
18 Sep 2023 19:15:09.000,35.234,5.493,1940.394735
18 Sep 2023 19:16:09.000,45.056,2.777,2186.777017
18 Sep 2023 19:17:08.992,52.747,0.000,2476.299918
18 Sep 2023 20:46:15.824,318.071,0.000,2477.924251
18 Sep 2023 20:47:15.000,323.863,3.314,2135.999350
18 Sep 2023 20:48:15.000,331.869,7.038,1815.748701
18 Sep 2023 20:49:15.000,343.110,11.027,1540.480436
18 Sep 2023 20:50:15.000,358.753,14.688,1339.736103
18 Sep 2023 20:51:15.000,18.579,16.600,1250.989984
18 Sep 2023 20:52:15.000,39.151,15.539,1297.888548
18 Sep 2023 20:53:15.000,56.267,12.219,1467.404557
18 Sep 2023 20:54:15.000,68.780,8.213,1723.253967
18 Sep 2023 20:55:15.000,77.655,4.367,2032.344295
18 Sep 2023 20:56:15.000,84.071,0.884,2373.024944
18 Sep 2023 20:56:31.294,85.507,0.000,2469.167549
18 Sep 2023 22:23:36.980,310.544,0.000,2476.836619
18 Sep 2023 22:24:36.000,311.052,3.965,2073.568197
18 Sep 2023 22:25:36.000,311.727,9.062,1665.964644
18 Sep 2023 22:26:36.000,312.743,16.237,1265.580712
18 Sep 2023 22:27:36.000,314.680,28.141,885.137462
18 Sep 2023 22:28:36.000,321.065,52.679,569.474170
18 Sep 2023 22:29:36.000,97.004,75.238,475.650726
18 Sep 2023 22:30:36.000,123.364,38.810,699.897323
18 Sep 2023 22:31:36.000,126.642,21.627,1055.549119
18 Sep 2023 22:32:36.000,127.993,12.416,1448.017066
18 Sep 2023 22:33:36.000,128.775,6.377,1852.995462
18 Sep 2023 22:34:36.000,129.311,1.848,2262.572829
18 Sep 2023 22:35:04.652,129.517,0.000,2458.714793
19 Sep 2023 00:01:49.962,287.617,0.000,2472.220455
19 Sep 2023 00:02:49.000,280.530,2.904,2168.354960
19 Sep 2023 00:03:49.000,271.046,5.861,1901.664784
19 Sep 2023 00:04:49.000,258.735,8.486,1698.710072
19 Sep 2023 00:05:49.000,243.719,10.143,1585.053333
19 Sep 2023 00:06:49.000,227.457,10.184,1580.477355
19 Sep 2023 00:07:49.000,212.269,8.585,1685.785601
19 Sep 2023 00:08:49.000,199.717,5.973,1882.144355
19 Sep 2023 00:09:49.000,189.999,3.004,2143.908663
19 Sep 2023 00:10:49.000,182.610,0.035,2449.212947
19 Sep 2023 00:10:49.728,182.532,0.000,2453.115052
19 Sep 2023 13:38:52.705,172.984,0.000,2451.230130
19 Sep 2023 13:39:52.000,165.208,2.735,2168.134114
19 Sep 2023 13:40:52.000,155.120,5.380,1929.742260
19 Sep 2023 13:41:52.000,142.541,7.531,1760.673592
19 Sep 2023 13:42:52.000,127.957,8.634,1682.876901
19 Sep 2023 13:43:52.000,112.891,8.290,1709.316031
19 Sep 2023 13:44:52.000,99.181,6.640,1835.496339
19 Sep 2023 13:45:52.000,87.859,4.214,2042.648846
19 Sep 2023 13:46:52.000,78.972,1.495,2308.423946
19 Sep 2023 13:47:24.557,75.022,0.000,2470.326160
19 Sep 2023 15:14:20.400,227.318,0.000,2456.155844
19 Sep 2023 15:15:20.000,227.298,4.057,2048.025587
19 Sep 2023 15:16:20.000,227.206,9.254,1639.738926
19 Sep 2023 15:17:20.000,226.958,16.641,1239.099579
19 Sep 2023 15:18:20.000,226.266,29.093,859.649976
19 Sep 2023 15:19:20.000,223.234,55.380,550.321953
19 Sep 2023 15:20:20.000,61.711,73.882,478.171961
19 Sep 2023 15:21:20.000,51.952,37.491,718.741637
19 Sep 2023 15:22:20.000,50.820,21.020,1079.521571
19 Sep 2023 15:23:20.000,50.480,12.098,1473.823298
19 Sep 2023 15:24:20.000,50.383,6.195,1879.531630
19 Sep 2023 15:25:20.000,50.394,1.738,2289.330583
19 Sep 2023 15:25:47.249,50.420,0.000,2475.859038
19 Sep 2023 16:52:45.765,271.782,0.000,2466.866982
19 Sep 2023 16:53:45.000,277.366,3.402,2118.595775
19 Sep 2023 16:54:45.000,285.166,7.269,1791.020214
19 Sep 2023 16:55:45.000,296.295,11.503,1507.017386
19 Sep 2023 16:56:45.000,312.141,15.525,1296.941694
19 Sep 2023 16:57:45.000,332.721,17.757,1201.153712
19 Sep 2023 16:58:45.000,354.295,16.689,1246.580518
19 Sep 2023 16:59:45.000,12.045,13.121,1419.483783
19 Sep 2023 17:00:45.000,24.770,8.872,1680.344739
19 Sep 2023 17:01:45.000,33.651,4.865,1994.065538
19 Sep 2023 17:02:45.000,40.006,1.285,2338.421777
19 Sep 2023 17:03:08.313,42.001,0.000,2477.517573
19 Sep 2023 18:32:09.030,305.707,0.000,2474.996107
19 Sep 2023 18:33:09.000,313.388,2.783,2185.072256
19 Sep 2023 18:34:09.000,323.206,5.510,1938.109456
19 Sep 2023 18:35:09.000,335.519,7.851,1753.738002
19 Sep 2023 18:36:09.000,350.079,9.268,1653.850752
19 Sep 2023 18:37:09.000,5.579,9.264,1654.229966
19 Sep 2023 18:38:09.000,20.126,7.843,1754.800421
19 Sep 2023 18:39:09.000,32.422,5.501,1939.680417
19 Sep 2023 18:40:09.000,42.225,2.776,2186.964427
19 Sep 2023 18:41:08.859,49.881,0.000,2476.489506
19 Sep 2023 20:10:26.407,318.004,0.000,2477.448466
19 Sep 2023 20:11:26.000,324.297,3.217,2144.958053
19 Sep 2023 20:12:26.000,332.823,6.716,1840.621212
19 Sep 2023 20:13:26.000,344.480,10.294,1586.071096
19 Sep 2023 20:14:26.000,0.026,13.310,1409.894933
19 Sep 2023 20:15:26.000,18.736,14.586,1344.172333
19 Sep 2023 20:16:26.000,37.522,13.382,1404.839761
19 Sep 2023 20:17:26.000,53.223,10.392,1577.240881
19 Sep 2023 20:18:26.000,65.018,6.805,1829.559744
19 Sep 2023 20:19:26.000,73.634,3.284,2132.865660
19 Sep 2023 20:20:26.000,80.015,0.025,2467.491518
19 Sep 2023 20:20:26.484,80.059,0.000,2470.278834
19 Sep 2023 21:47:48.573,312.336,0.000,2476.784042
19 Sep 2023 21:48:48.000,313.773,3.964,2073.774073
19 Sep 2023 21:49:48.000,315.849,8.999,1670.418172
19 Sep 2023 21:50:48.000,319.217,15.998,1276.493762
19 Sep 2023 21:51:48.000,325.918,27.190,907.159323
19 Sep 2023 21:52:48.000,345.700,47.233,611.817748
19 Sep 2023 21:53:48.000,61.573,58.469,534.438776
19 Sep 2023 21:54:48.000,103.222,35.508,746.596627
19 Sep 2023 21:55:48.000,113.831,20.595,1090.284075
19 Sep 2023 21:56:48.000,118.363,11.945,1475.503025
19 Sep 2023 21:57:48.000,120.904,6.107,1875.801939
19 Sep 2023 21:58:48.000,122.560,1.668,2282.074558
19 Sep 2023 21:59:14.152,123.120,0.000,2459.931671
19 Sep 2023 23:25:45.334,292.295,0.000,2473.035509
19 Sep 2023 23:26:45.000,286.185,3.269,2134.181031
19 Sep 2023 23:27:45.000,277.723,6.816,1825.898702
19 Sep 2023 23:28:45.000,265.949,10.409,1571.009194
19 Sep 2023 23:29:45.000,250.140,13.331,1400.227228
19 Sep 2023 23:30:45.000,231.286,14.343,1346.662485
19 Sep 2023 23:31:45.000,212.797,12.826,1423.735627
19 Sep 2023 23:32:45.000,197.735,9.651,1612.461299
19 Sep 2023 23:33:45.000,186.634,6.006,1878.780056
19 Sep 2023 23:34:45.000,178.635,2.487,2193.658447
19 Sep 2023 23:35:30.554,174.036,0.000,2453.098639
20 Sep 2023 13:03:46.102,162.910,0.000,2451.140700
20 Sep 2023 13:04:46.000,154.061,2.268,2214.130598
20 Sep 2023 13:05:46.000,143.317,4.172,2035.395546
20 Sep 2023 13:06:46.000,130.922,5.372,1932.718772
20 Sep 2023 13:07:46.000,117.726,5.563,1918.935423
20 Sep 2023 13:08:46.000,104.974,4.690,1996.067609
20 Sep 2023 13:09:46.000,93.689,2.997,2154.184623
20 Sep 2023 13:10:46.000,84.287,0.830,2376.690584
20 Sep 2023 13:11:07.347,81.389,0.000,2468.101772
20 Sep 2023 14:38:32.864,220.712,0.000,2454.211787
20 Sep 2023 14:39:32.000,219.677,4.004,2050.951403
20 Sep 2023 14:40:32.000,218.035,9.146,1645.410757
20 Sep 2023 14:41:32.000,215.146,16.369,1249.530527
20 Sep 2023 14:42:32.000,208.940,28.143,879.207179
20 Sep 2023 14:43:32.000,188.650,49.781,587.929742
20 Sep 2023 14:44:32.000,105.378,59.065,530.120377
20 Sep 2023 14:45:32.000,68.534,34.583,761.133008
20 Sep 2023 14:46:32.000,59.677,20.012,1113.211524
20 Sep 2023 14:47:32.000,56.021,11.584,1502.645952
20 Sep 2023 14:48:32.000,54.087,5.864,1905.546779
20 Sep 2023 14:49:32.000,52.927,1.494,2313.637103
20 Sep 2023 14:49:55.624,52.595,0.000,2474.868152
20 Sep 2023 16:16:40.595,266.056,0.000,2464.760745
20 Sep 2023 16:17:40.000,271.103,3.541,2103.596989
20 Sep 2023 16:18:40.000,278.249,7.659,1759.886933
20 Sep 2023 16:19:40.000,288.764,12.394,1454.188729
20 Sep 2023 16:20:40.000,304.569,17.316,1217.074477
20 Sep 2023 16:21:40.000,326.656,20.573,1095.148162
20 Sep 2023 16:22:40.000,350.953,19.694,1126.853132
20 Sep 2023 16:23:40.000,10.657,15.474,1300.796965
20 Sep 2023 16:24:40.000,24.123,10.532,1569.774873
20 Sep 2023 16:25:40.000,33.116,6.053,1892.815685
20 Sep 2023 16:26:40.000,39.352,2.181,2245.646548
20 Sep 2023 16:27:17.795,42.367,0.000,2476.965767
20 Sep 2023 17:56:04.101,302.171,0.000,2473.670195
20 Sep 2023 17:57:04.000,309.771,2.812,2181.062323
20 Sep 2023 17:58:04.000,319.533,5.590,1930.385971
20 Sep 2023 17:59:04.000,331.843,8.003,1741.767466
20 Sep 2023 18:00:04.000,346.491,9.499,1637.628471
20 Sep 2023 18:01:04.000,2.174,9.548,1634.608661
20 Sep 2023 18:02:04.000,16.929,8.133,1733.226506
20 Sep 2023 18:03:04.000,29.391,5.762,1917.499867
20 Sep 2023 18:04:04.000,39.295,3.001,2165.032615
20 Sep 2023 18:05:04.000,47.023,0.186,2455.936870
20 Sep 2023 18:05:08.004,47.474,0.000,2476.506992
20 Sep 2023 19:34:33.392,317.606,0.000,2476.887294
20 Sep 2023 19:35:33.000,324.289,3.101,2155.555194
20 Sep 2023 19:36:33.000,333.218,6.393,1865.978347
20 Sep 2023 19:37:33.000,345.141,9.616,1630.064054
20 Sep 2023 19:38:33.000,0.485,12.126,1475.007897
20 Sep 2023 19:39:33.000,18.242,12.960,1428.160764
20 Sep 2023 19:40:33.000,35.670,11.677,1499.950568
20 Sep 2023 19:41:33.000,50.294,8.920,1675.002608
20 Sep 2023 19:42:33.000,61.505,5.633,1924.824443
20 Sep 2023 19:43:33.000,69.880,2.356,2223.592475
20 Sep 2023 19:44:18.463,74.821,0.000,2471.249808
20 Sep 2023 21:11:58.208,313.897,0.000,2476.622261
20 Sep 2023 21:12:58.000,316.223,3.931,2076.754179
20 Sep 2023 21:13:58.000,319.602,8.842,1681.401693
20 Sep 2023 21:14:58.000,325.067,15.492,1299.815063
20 Sep 2023 21:15:58.000,335.496,25.410,951.329560
20 Sep 2023 21:16:58.000,0.469,39.705,690.713684
20 Sep 2023 21:17:58.000,52.752,44.330,638.490737
20 Sep 2023 21:18:58.000,88.546,30.429,835.037908
20 Sep 2023 21:19:58.000,102.724,18.687,1159.720891
20 Sep 2023 21:20:58.000,109.538,10.997,1532.378199
20 Sep 2023 21:21:58.000,113.502,5.531,1924.322577
20 Sep 2023 21:22:58.000,116.115,1.269,2324.656722
20 Sep 2023 21:23:18.328,116.814,0.000,2461.231362
20 Sep 2023 22:49:42.690,296.294,0.000,2473.560106
20 Sep 2023 22:50:42.000,291.307,3.508,2112.304496
20 Sep 2023 22:51:42.000,284.110,7.555,1770.105939
20 Sep 2023 22:52:42.000,273.434,12.113,1469.538189
20 Sep 2023 22:53:42.000,257.508,16.639,1242.807991
20 Sep 2023 22:54:42.000,235.881,19.274,1136.126872
20 Sep 2023 22:55:42.000,212.906,18.013,1182.824141
20 Sep 2023 22:56:42.000,194.547,13.889,1367.038273
20 Sep 2023 22:57:42.000,181.965,9.191,1642.486724
20 Sep 2023 22:58:42.000,173.534,4.910,1970.346274
20 Sep 2023 22:59:42.000,167.701,1.169,2327.459353
20 Sep 2023 23:00:02.449,166.118,0.000,2453.374472
21 Sep 2023 12:28:53.371,150.659,0.000,2451.764665
21 Sep 2023 12:29:53.000,140.986,1.599,2282.665283
21 Sep 2023 12:30:53.000,129.999,2.645,2179.913847
21 Sep 2023 12:31:53.000,118.333,2.925,2155.027680
21 Sep 2023 12:32:53.000,106.837,2.379,2210.874797
21 Sep 2023 12:33:53.000,96.291,1.126,2341.585976
21 Sep 2023 12:34:33.206,89.990,0.000,2465.235407
21 Sep 2023 14:02:46.296,213.920,0.000,2452.370969
21 Sep 2023 14:03:46.000,211.804,3.988,2050.741423
21 Sep 2023 14:04:46.000,208.558,9.002,1653.639704
21 Sep 2023 14:05:46.000,203.045,15.843,1271.653341
21 Sep 2023 14:06:46.000,192.047,26.097,926.273804
21 Sep 2023 14:07:46.000,164.994,40.360,678.498776
21 Sep 2023 14:08:46.000,112.662,42.731,652.615997
21 Sep 2023 14:09:46.000,80.243,28.743,868.777032
21 Sep 2023 14:10:46.000,67.386,17.639,1202.319571
21 Sep 2023 14:11:46.000,61.215,10.309,1579.680440
21 Sep 2023 14:12:46.000,57.702,5.033,1974.792346
21 Sep 2023 14:13:46.000,55.472,0.878,2377.584656
21 Sep 2023 14:14:00.249,55.061,0.000,2473.806291
21 Sep 2023 15:40:34.452,260.164,0.000,2462.547327
21 Sep 2023 15:41:34.000,264.594,3.675,2089.044309
21 Sep 2023 15:42:34.000,270.951,8.047,1729.520044
21 Sep 2023 15:43:34.000,280.607,13.326,1401.819100
21 Sep 2023 15:44:34.000,296.052,19.368,1135.621179
21 Sep 2023 15:45:34.000,319.825,24.150,983.549937
21 Sep 2023 15:46:34.000,347.915,23.610,999.684244
21 Sep 2023 15:47:34.000,10.186,18.353,1176.964526
21 Sep 2023 15:48:34.000,24.380,12.412,1457.108361
21 Sep 2023 15:49:34.000,33.323,7.325,1791.604726
21 Sep 2023 15:50:34.000,39.295,3.104,2154.202743
21 Sep 2023 15:51:25.305,43.008,0.000,2476.349056
21 Sep 2023 17:19:55.303,298.192,0.000,2472.191107
21 Sep 2023 17:20:55.000,305.632,2.859,2175.174007
21 Sep 2023 17:21:55.000,315.279,5.727,1917.727490
21 Sep 2023 17:22:55.000,327.561,8.273,1721.216786
21 Sep 2023 17:23:55.000,342.357,9.920,1608.994342
21 Sep 2023 17:24:55.000,358.375,10.075,1599.340285
21 Sep 2023 17:25:55.000,13.525,8.675,1694.011403
21 Sep 2023 17:26:55.000,26.302,6.253,1876.925606
21 Sep 2023 17:27:55.000,36.404,3.420,2124.776308
21 Sep 2023 17:28:55.000,44.236,0.541,2416.826139
21 Sep 2023 17:29:06.478,45.523,0.000,2476.383873
21 Sep 2023 18:58:36.541,316.844,0.000,2476.227310
21 Sep 2023 18:59:36.000,323.829,2.988,2165.902633
21 Sep 2023 19:00:36.000,333.068,6.097,1889.512385
21 Sep 2023 19:01:36.000,345.155,9.023,1669.838002
21 Sep 2023 19:02:36.000,0.267,11.145,1532.566351
21 Sep 2023 19:03:36.000,17.246,11.666,1501.134747
21 Sep 2023 19:04:36.000,33.642,10.334,1582.042734
21 Sep 2023 19:05:36.000,47.444,7.742,1759.628758
21 Sep 2023 19:06:36.000,58.182,4.670,2007.857243
21 Sep 2023 19:07:36.000,66.341,1.577,2303.226165
21 Sep 2023 19:08:07.647,69.837,0.000,2472.056726
21 Sep 2023 20:36:05.649,315.228,0.000,2476.391077
21 Sep 2023 20:37:05.000,318.346,3.817,2087.140859
21 Sep 2023 20:38:05.000,322.887,8.538,1702.722593
21 Sep 2023 20:39:05.000,330.084,14.699,1337.644199
21 Sep 2023 20:40:05.000,342.978,23.103,1015.397843
21 Sep 2023 20:41:05.000,8.473,32.830,792.360560
21 Sep 2023 20:42:05.000,48.147,34.570,762.623230
21 Sep 2023 20:43:05.000,78.116,25.571,944.849030
21 Sep 2023 20:44:05.000,93.389,16.510,1249.088796
21 Sep 2023 20:45:05.000,101.617,9.831,1606.709265
21 Sep 2023 20:46:05.000,106.640,4.797,1988.118847
21 Sep 2023 20:47:05.000,110.025,0.750,2380.772489
21 Sep 2023 20:47:17.371,110.592,0.000,2462.516492
21 Sep 2023 22:13:40.851,299.777,0.000,2473.925523
21 Sep 2023 22:14:40.000,295.893,3.694,2095.472504
21 Sep 2023 22:15:40.000,290.103,8.147,1727.116590
21 Sep 2023 22:16:40.000,281.013,13.604,1388.972942
21 Sep 2023 22:17:40.000,265.903,20.029,1110.984127
21 Sep 2023 22:18:40.000,241.581,25.321,949.143685
21 Sep 2023 22:19:40.000,212.166,24.691,964.525613
21 Sep 2023 22:20:40.000,189.423,18.844,1149.939386
21 Sep 2023 22:21:40.000,175.536,12.493,1440.574016
21 Sep 2023 22:22:40.000,167.100,7.203,1784.847402
21 Sep 2023 22:23:40.000,161.640,2.878,2156.110333
21 Sep 2023 22:24:26.505,158.609,0.000,2453.875757
22 Sep 2023 11:54:41.947,131.711,0.000,2454.331073
22 Sep 2023 11:55:41.000,121.544,0.499,2401.796152
22 Sep 2023 11:56:41.000,111.061,0.359,2419.519773
22 Sep 2023 11:57:14.653,105.343,0.000,2460.537914
22 Sep 2023 13:27:01.054,206.900,0.000,2450.693125
22 Sep 2023 13:28:01.000,203.668,3.899,2057.321168
22 Sep 2023 13:29:01.000,198.827,8.674,1674.927685
22 Sep 2023 13:30:01.000,190.930,14.862,1316.131485
22 Sep 2023 13:31:01.000,176.648,23.015,1008.776923
22 Sep 2023 13:32:01.000,149.761,31.241,815.322068
22 Sep 2023 13:33:01.000,113.112,30.971,821.653647
22 Sep 2023 13:34:01.000,87.044,22.645,1024.083686
22 Sep 2023 13:35:01.000,73.264,14.630,1335.713767
22 Sep 2023 13:36:01.000,65.628,8.553,1696.531230
22 Sep 2023 13:37:01.000,60.951,3.844,2080.011191
22 Sep 2023 13:38:00.726,57.855,0.000,2472.603618
22 Sep 2023 15:04:27.649,254.124,-0.000,2460.315493
22 Sep 2023 15:05:27.000,257.833,3.776,2077.493416
22 Sep 2023 15:06:27.000,263.243,8.388,1703.058122
22 Sep 2023 15:07:27.000,271.719,14.228,1353.826426
22 Sep 2023 15:08:27.000,286.235,21.616,1057.096696
22 Sep 2023 15:09:27.000,311.634,28.733,870.016034
22 Sep 2023 15:10:27.000,345.273,28.892,867.472370
22 Sep 2023 15:11:27.000,11.014,21.912,1050.699931
22 Sep 2023 15:12:27.000,25.772,14.520,1345.222237
22 Sep 2023 15:13:27.000,34.388,8.659,1693.019995
22 Sep 2023 15:14:27.000,39.894,4.033,2066.267770
22 Sep 2023 15:15:27.000,43.715,0.211,2452.153399
22 Sep 2023 15:15:30.610,43.909,0.000,2475.616062
22 Sep 2023 16:43:42.985,293.804,0.000,2470.538126
22 Sep 2023 16:44:42.000,300.954,2.904,2169.357836
22 Sep 2023 16:45:42.000,310.404,5.901,1902.042313
22 Sep 2023 16:46:42.000,322.608,8.644,1693.752749
22 Sep 2023 16:47:42.000,337.585,10.528,1569.099080
22 Sep 2023 16:48:42.000,354.092,10.862,1548.892112
22 Sep 2023 16:49:42.000,9.853,9.496,1637.034289
22 Sep 2023 16:50:42.000,23.129,6.997,1817.479128
22 Sep 2023 16:51:42.000,33.543,4.054,2065.538915
22 Sep 2023 16:52:42.000,41.540,1.076,2359.134111
22 Sep 2023 16:53:04.237,44.015,-0.000,2476.132843
22 Sep 2023 18:22:35.627,315.681,0.000,2475.471679
22 Sep 2023 18:23:35.000,322.911,2.893,2174.400320
22 Sep 2023 18:24:35.000,332.386,5.850,1909.296492
22 Sep 2023 18:25:35.000,344.576,8.539,1703.276074
22 Sep 2023 18:26:35.000,359.475,10.366,1580.618113
22 Sep 2023 18:27:35.000,15.845,10.663,1561.661200
22 Sep 2023 18:28:35.000,31.466,9.296,1650.099298
22 Sep 2023 18:29:35.000,44.645,6.818,1830.158217
22 Sep 2023 18:30:35.000,55.007,3.899,2077.584671
22 Sep 2023 18:31:35.000,62.980,0.939,2370.592571
22 Sep 2023 18:31:54.477,65.156,0.000,2472.716481
22 Sep 2023 20:00:10.673,316.325,0.000,2476.076963
22 Sep 2023 20:01:10.000,320.192,3.715,2096.382123
22 Sep 2023 20:02:10.000,325.772,8.220,1725.324053
22 Sep 2023 20:03:10.000,334.390,13.853,1379.977656
22 Sep 2023 20:04:10.000,348.833,20.830,1087.309415
22 Sep 2023 20:05:10.000,13.351,27.401,902.029883
22 Sep 2023 20:06:10.000,45.448,27.691,894.622131
22 Sep 2023 20:07:10.000,70.789,21.308,1068.934929
22 Sep 2023 20:08:10.000,85.809,14.228,1356.214925
22 Sep 2023 20:09:10.000,94.710,8.481,1699.357433
22 Sep 2023 20:10:10.000,100.421,3.895,2069.790235
22 Sep 2023 20:11:10.000,104.375,0.088,2454.067978
22 Sep 2023 20:11:11.500,104.459,-0.000,2463.784470
22 Sep 2023 21:37:39.039,302.844,0.000,2474.138567
22 Sep 2023 21:38:39.000,299.997,3.892,2077.466119
22 Sep 2023 21:39:39.000,295.683,8.671,1690.209878
22 Sep 2023 21:40:39.000,288.567,14.924,1323.469492
22 Sep 2023 21:41:39.000,275.413,23.441,1002.375872
22 Sep 2023 21:42:39.000,249.084,32.968,787.060873
22 Sep 2023 21:43:39.000,209.579,33.748,772.835760
22 Sep 2023 21:44:39.000,181.163,24.514,968.629932
22 Sep 2023 21:45:39.000,166.877,15.674,1280.971933
22 Sep 2023 21:46:39.000,159.234,9.175,1643.834899
22 Sep 2023 21:47:39.000,154.629,4.250,2029.191389
22 Sep 2023 21:48:39.000,151.584,0.268,2425.103019
22 Sep 2023 21:48:43.432,151.399,0.000,2454.588223
22 Sep 2023 23:17:56.552,259.962,0.000,2464.802151
22 Sep 2023 23:18:56.000,249.886,0.864,2368.311015
22 Sep 2023 23:19:56.000,239.167,1.091,2342.019639
22 Sep 2023 23:20:56.000,228.547,0.626,2389.463376
22 Sep 2023 23:21:34.370,222.098,0.000,2456.623284
23 Sep 2023 12:51:17.599,199.593,0.000,2449.218148
23 Sep 2023 12:52:17.000,195.281,3.701,2074.107893
23 Sep 2023 12:53:17.000,188.940,8.119,1713.060962
23 Sep 2023 12:54:17.000,179.117,13.442,1386.143467
23 Sep 2023 12:55:17.000,163.224,19.428,1125.523046
23 Sep 2023 12:56:17.000,139.012,23.798,986.768475
23 Sep 2023 12:57:17.000,111.489,22.657,1021.518917
23 Sep 2023 12:58:17.000,90.452,17.255,1214.910693
23 Sep 2023 12:59:17.000,77.266,11.445,1506.496271
23 Sep 2023 13:00:17.000,69.049,6.501,1849.550023
23 Sep 2023 13:01:17.000,63.648,2.381,2219.272515
23 Sep 2023 13:01:56.556,61.035,0.000,2471.245979
23 Sep 2023 14:28:20.487,247.951,-0.000,2458.060905
23 Sep 2023 14:29:20.000,250.890,3.889,2065.020796
23 Sep 2023 14:30:20.000,255.219,8.723,1677.533966
23 Sep 2023 14:31:20.000,262.194,15.118,1308.893666
23 Sep 2023 14:32:20.000,275.023,24.054,982.796301
23 Sep 2023 14:33:20.000,301.578,34.713,758.312677
23 Sep 2023 14:34:20.000,343.927,36.218,736.232971
23 Sep 2023 14:35:20.000,14.149,26.136,931.023230
23 Sep 2023 14:36:20.000,28.780,16.689,1244.092302
23 Sep 2023 14:37:20.000,36.537,9.916,1606.823410
23 Sep 2023 14:38:20.000,41.267,4.863,1991.144243
23 Sep 2023 14:39:20.000,44.473,0.816,2385.405949
23 Sep 2023 14:39:33.498,45.060,0.000,2474.839311
23 Sep 2023 16:07:27.545,289.045,0.000,2468.751731
23 Sep 2023 16:08:27.000,295.993,3.023,2156.226046
23 Sep 2023 16:09:27.000,305.222,6.183,1877.538780
23 Sep 2023 16:10:27.000,317.355,9.175,1655.711615
23 Sep 2023 16:11:27.000,332.599,11.363,1516.895029
23 Sep 2023 16:12:27.000,349.773,11.916,1485.095131
23 Sep 2023 16:13:27.000,6.345,10.566,1566.903886
23 Sep 2023 16:14:27.000,20.246,7.934,1746.085672
23 Sep 2023 16:15:27.000,31.017,4.826,1995.947608
23 Sep 2023 16:16:27.000,39.179,1.709,2292.641522
23 Sep 2023 16:17:01.160,42.928,0.000,2475.760400
23 Sep 2023 17:46:30.464,314.084,0.000,2474.565612
23 Sep 2023 17:47:30.000,321.530,2.830,2179.776755
23 Sep 2023 17:48:30.000,331.186,5.668,1923.796913
23 Sep 2023 17:49:30.000,343.447,8.177,1728.714453
23 Sep 2023 17:50:30.000,358.179,9.787,1617.641084
23 Sep 2023 17:51:30.000,14.100,9.924,1608.575398
23 Sep 2023 17:52:30.000,29.160,8.528,1703.211674
23 Sep 2023 17:53:30.000,41.878,6.122,1885.696536
23 Sep 2023 17:54:30.000,51.950,3.307,2133.013791
23 Sep 2023 17:55:30.000,59.769,0.442,2424.607649
23 Sep 2023 17:55:39.390,60.825,0.000,2473.199029
23 Sep 2023 19:24:13.049,317.178,0.000,2475.707669
23 Sep 2023 19:25:13.000,321.785,3.642,2102.920163
23 Sep 2023 19:26:13.000,328.297,7.918,1747.153780
23 Sep 2023 19:27:13.000,338.070,13.019,1423.836919
23 Sep 2023 19:28:13.000,353.428,18.741,1162.326866
23 Sep 2023 19:29:13.000,16.550,23.160,1013.231606
23 Sep 2023 19:30:13.000,43.632,22.658,1027.520309
23 Sep 2023 19:31:13.000,65.466,17.737,1199.425635
23 Sep 2023 19:32:13.000,79.686,12.031,1474.379914
23 Sep 2023 19:33:13.000,88.761,7.058,1805.147011
23 Sep 2023 19:34:13.000,94.853,2.891,2165.339074
23 Sep 2023 19:35:00.949,98.422,0.000,2464.986278
23 Sep 2023 21:01:36.683,305.563,0.000,2474.240602
23 Sep 2023 21:02:36.000,303.822,3.937,2073.472134
23 Sep 2023 21:03:36.000,301.088,8.916,1673.444052
23 Sep 2023 21:04:36.000,296.393,15.726,1286.267893
23 Sep 2023 21:05:36.000,286.897,26.123,930.760262
23 Sep 2023 21:06:36.000,262.145,41.909,662.742060
23 Sep 2023 21:07:36.000,205.055,46.888,612.399794
23 Sep 2023 21:08:36.000,169.085,31.009,820.993357
23 Sep 2023 21:09:36.000,156.199,18.700,1155.413226
23 Sep 2023 21:10:36.000,150.293,10.883,1534.637567
23 Sep 2023 21:11:36.000,146.987,5.384,1931.357066
23 Sep 2023 21:12:36.000,144.893,1.111,2335.439093
23 Sep 2023 21:12:53.712,144.416,0.000,2455.393438
23 Sep 2023 22:40:51.775,272.449,0.000,2467.506853
23 Sep 2023 22:41:51.000,263.159,1.770,2276.362320
23 Sep 2023 22:42:51.000,252.288,3.050,2147.340674
23 Sep 2023 22:43:51.000,240.436,3.572,2095.790040
23 Sep 2023 22:44:51.000,228.469,3.213,2127.439286
23 Sep 2023 22:45:51.000,217.298,2.057,2238.509116
23 Sep 2023 22:46:51.000,207.511,0.335,2417.532872
23 Sep 2023 22:47:01.318,205.985,0.000,2454.109597
24 Sep 2023 12:15:36.564,191.909,0.000,2447.936892
24 Sep 2023 12:16:36.000,186.473,3.484,2093.111326
24 Sep 2023 12:17:36.000,178.730,7.452,1761.088534
24 Sep 2023 12:18:36.000,167.438,11.807,1475.096584
24 Sep 2023 12:19:36.000,151.106,15.885,1268.343164
24 Sep 2023 12:20:36.000,129.946,17.910,1184.233782
24 Sep 2023 12:21:36.000,108.364,16.417,1248.256544
24 Sep 2023 12:22:36.000,91.255,12.551,1440.640883
24 Sep 2023 12:23:36.000,79.350,8.201,1718.232075
24 Sep 2023 12:24:36.000,71.230,4.183,2045.787407
24 Sep 2023 12:25:36.000,65.543,0.615,2401.912162
24 Sep 2023 12:25:47.085,64.682,0.000,2469.761291
24 Sep 2023 13:52:13.245,241.649,0.000,2455.800187
24 Sep 2023 13:53:13.000,243.746,3.988,2053.792368
24 Sep 2023 13:54:13.000,246.843,9.010,1655.763428
24 Sep 2023 13:55:13.000,251.943,15.903,1271.024229
24 Sep 2023 13:56:13.000,261.970,26.457,918.906819
24 Sep 2023 13:57:13.000,287.713,42.358,656.668450
24 Sep 2023 13:58:13.000,345.357,46.718,614.398526
24 Sep 2023 13:59:13.000,20.737,30.854,826.579376
24 Sep 2023 14:00:13.000,33.678,18.719,1160.598630
24 Sep 2023 14:01:13.000,39.819,10.987,1538.114218
24 Sep 2023 14:02:13.000,43.408,5.532,1932.674589
24 Sep 2023 14:03:13.000,45.800,1.287,2334.400131
24 Sep 2023 14:03:33.726,46.458,0.000,2473.941136
24 Sep 2023 15:31:09.433,283.959,0.000,2466.783783
24 Sep 2023 15:32:09.000,290.590,3.142,2143.028790
24 Sep 2023 15:33:09.000,299.503,6.497,1850.696004
24 Sep 2023 15:34:09.000,311.481,9.806,1612.172207
24 Sep 2023 15:35:09.000,326.995,12.407,1455.255069
24 Sep 2023 15:36:09.000,345.024,13.286,1408.122489
24 Sep 2023 15:37:09.000,2.698,11.973,1481.402073
24 Sep 2023 15:38:09.000,17.451,9.154,1658.892049
24 Sep 2023 15:39:09.000,28.693,5.814,1911.138355
24 Sep 2023 15:40:09.000,37.058,2.504,2211.849053
24 Sep 2023 15:40:57.071,42.235,0.000,2475.269500
24 Sep 2023 17:10:20.906,312.024,0.000,2473.527432
24 Sep 2023 17:11:20.000,319.537,2.760,2185.688592
24 Sep 2023 17:12:20.000,329.289,5.519,1935.587222
24 Sep 2023 17:13:20.000,341.569,7.912,1747.387653
24 Sep 2023 17:14:20.000,356.166,9.394,1643.370937
24 Sep 2023 17:15:20.000,11.791,9.442,1640.086609
24 Sep 2023 17:16:20.000,26.503,8.039,1738.135334
24 Sep 2023 17:17:20.000,38.944,5.684,1921.741140
24 Sep 2023 17:18:20.000,48.845,2.935,2168.678912
24 Sep 2023 17:19:20.000,56.575,0.130,2459.136554
24 Sep 2023 17:19:22.801,56.892,0.000,2473.496489
24 Sep 2023 18:48:12.556,317.771,0.000,2475.226464
24 Sep 2023 18:49:12.000,322.951,3.486,2117.170151
24 Sep 2023 18:50:12.000,330.218,7.509,1777.290567
24 Sep 2023 18:51:12.000,340.795,12.079,1475.928967
24 Sep 2023 18:52:12.000,356.457,16.746,1243.165606
24 Sep 2023 18:53:12.000,17.995,19.766,1123.776532
24 Sep 2023 18:54:12.000,41.573,18.923,1154.128168
24 Sep 2023 18:55:12.000,60.920,14.922,1323.952051
24 Sep 2023 18:56:12.000,74.350,10.154,1588.684892
24 Sep 2023 18:57:12.000,83.412,5.773,1908.486586
24 Sep 2023 18:58:12.000,89.726,1.952,2259.141961
24 Sep 2023 18:58:45.997,92.498,0.000,2466.146036
24 Sep 2023 20:25:33.357,307.978,0.000,2474.173506
24 Sep 2023 20:26:33.000,307.273,4.010,2066.941283
24 Sep 2023 20:27:33.000,306.101,9.110,1660.268290
24 Sep 2023 20:28:33.000,303.974,16.270,1262.040669
24 Sep 2023 20:29:33.000,299.318,28.005,886.534484
24 Sep 2023 20:30:33.000,283.464,50.667,582.687024
24 Sep 2023 20:31:33.000,189.587,64.636,505.400231
24 Sep 2023 20:32:33.000,150.930,36.451,730.817647
24 Sep 2023 20:33:33.000,143.383,20.716,1083.710443
24 Sep 2023 20:34:33.000,140.396,11.912,1474.385152
24 Sep 2023 20:35:33.000,138.833,6.034,1878.327987
24 Sep 2023 20:36:33.000,137.890,1.583,2287.293814
24 Sep 2023 20:36:57.720,137.605,0.000,2456.338496
24 Sep 2023 22:04:13.298,280.383,0.000,2469.006669
24 Sep 2023 22:05:13.000,271.944,2.391,2215.393284
24 Sep 2023 22:06:13.000,261.466,4.491,2015.886517
24 Sep 2023 22:07:13.000,249.076,5.936,1890.355433
24 Sep 2023 22:08:13.000,235.530,6.356,1854.329715
24 Sep 2023 22:09:13.000,222.157,5.615,1912.902422
24 Sep 2023 22:10:13.000,210.186,3.936,2057.668943
24 Sep 2023 22:11:13.000,200.189,1.710,2271.568341
24 Sep 2023 22:11:55.083,194.349,0.000,2452.904142
25 Sep 2023 11:39:58.859,183.714,0.000,2446.899975
25 Sep 2023 11:40:58.000,177.207,3.179,2120.970623
25 Sep 2023 11:41:58.000,168.251,6.598,1825.994039
25 Sep 2023 11:42:58.000,156.050,9.939,1588.676865
25 Sep 2023 11:43:58.000,140.181,12.463,1439.161868
25 Sep 2023 11:44:58.000,121.962,13.097,1406.540839
25 Sep 2023 11:45:58.000,104.561,11.492,1498.697296
25 Sep 2023 11:46:58.000,90.446,8.489,1695.153169
25 Sep 2023 11:47:58.000,79.940,5.077,1964.260579
25 Sep 2023 11:48:58.000,72.275,1.753,2279.584249
25 Sep 2023 11:49:31.355,68.925,-0.000,2468.059588
25 Sep 2023 13:16:06.178,235.217,0.000,2453.630601
25 Sep 2023 13:17:06.000,236.390,4.050,2046.104564
25 Sep 2023 13:18:06.000,238.109,9.202,1640.818576
25 Sep 2023 13:19:06.000,240.952,16.460,1244.809711
25 Sep 2023 13:20:06.000,246.795,28.373,873.464364
25 Sep 2023 13:21:06.000,265.837,50.856,579.277446
25 Sep 2023 13:22:06.000,355.379,61.343,518.681340
25 Sep 2023 13:23:06.000,32.140,35.201,750.640825
25 Sep 2023 13:24:06.000,40.549,20.259,1103.388088
25 Sep 2023 13:25:06.000,44.174,11.728,1492.697998
25 Sep 2023 13:26:06.000,46.251,5.972,1895.029508
25 Sep 2023 13:27:06.000,47.642,1.585,2302.303150
25 Sep 2023 13:27:31.068,48.105,0.000,2473.005586
25 Sep 2023 14:54:49.087,278.588,0.000,2464.696271
25 Sep 2023 14:55:49.000,284.857,3.286,2127.393297
25 Sep 2023 14:56:49.000,293.368,6.865,1820.015790
25 Sep 2023 14:57:49.000,305.104,10.554,1562.656271
25 Sep 2023 14:58:49.000,320.890,13.693,1384.705091
25 Sep 2023 14:59:49.000,339.990,15.024,1319.426496
25 Sep 2023 15:00:49.000,359.118,13.758,1383.041966
25 Sep 2023 15:01:49.000,14.965,10.662,1559.559993
25 Sep 2023 15:02:49.000,26.764,6.994,1815.711009
25 Sep 2023 15:03:49.000,35.331,3.427,2121.979704
25 Sep 2023 15:04:49.000,41.658,0.144,2458.673632
25 Sep 2023 15:04:51.769,41.909,0.000,2474.727198
25 Sep 2023 16:34:06.889,309.479,0.000,2472.361285
25 Sep 2023 16:35:06.000,317.063,2.737,2186.960195
25 Sep 2023 16:36:06.000,326.876,5.455,1940.113075
25 Sep 2023 16:37:06.000,339.178,7.788,1755.800164
25 Sep 2023 16:38:06.000,353.718,9.200,1655.875831
25 Sep 2023 16:39:06.000,9.199,9.199,1656.107157
25 Sep 2023 16:40:06.000,23.732,7.785,1756.457821
25 Sep 2023 16:41:06.000,36.023,5.451,1941.114352
25 Sep 2023 16:42:06.000,45.825,2.734,2188.220160
25 Sep 2023 16:43:05.074,53.395,0.000,2473.622266
25 Sep 2023 18:12:08.952,318.085,0.000,2474.661798
25 Sep 2023 18:13:08.000,323.769,3.335,2130.925736
25 Sep 2023 18:14:08.000,331.670,7.110,1807.281682
25 Sep 2023 18:15:08.000,342.833,11.196,1527.669473
25 Sep 2023 18:16:08.000,358.526,15.010,1321.887872
25 Sep 2023 18:17:08.000,18.653,17.072,1228.710999
25 Sep 2023 18:18:08.000,39.678,16.027,1273.583342
25 Sep 2023 18:19:08.000,57.118,12.607,1443.616377
25 Sep 2023 18:20:08.000,69.765,8.492,1701.215589
25 Sep 2023 18:21:08.000,78.666,4.569,2012.280458
25 Sep 2023 18:22:08.000,85.063,1.037,2354.775662
25 Sep 2023 18:22:26.943,86.714,0.000,2467.188596
25 Sep 2023 19:49:28.693,310.120,0.000,2474.030047
25 Sep 2023 19:50:28.000,310.423,3.993,2068.442113
25 Sep 2023 19:51:28.000,310.782,9.108,1660.439607
25 Sep 2023 19:52:28.000,311.260,16.329,1259.592472
25 Sep 2023 19:53:28.000,312.068,28.370,878.624333
25 Sep 2023 19:54:28.000,314.532,53.533,562.843792
25 Sep 2023 19:55:28.000,118.227,76.616,472.258891
25 Sep 2023 19:56:28.000,128.361,38.659,700.863668
25 Sep 2023 19:57:28.000,129.613,21.498,1058.462683
25 Sep 2023 19:58:28.000,130.183,12.322,1451.865640
25 Sep 2023 19:59:28.000,130.549,6.305,1857.392187
25 Sep 2023 20:00:28.000,130.823,1.787,2267.335392
25 Sep 2023 20:00:55.745,130.932,0.000,2457.397810
25 Sep 2023 21:27:44.573,286.447,0.000,2469.979678
25 Sep 2023 21:28:44.000,279.070,2.839,2172.489214
25 Sep 2023 21:29:44.000,269.355,5.654,1916.837753
25 Sep 2023 21:30:44.000,256.947,8.063,1727.289526
25 Sep 2023 21:31:44.000,242.130,9.463,1627.903677
25 Sep 2023 21:32:44.000,226.397,9.322,1635.524385
25 Sep 2023 21:33:44.000,211.855,7.694,1748.615354
25 Sep 2023 21:34:44.000,199.821,5.165,1948.384772
25 Sep 2023 21:35:44.000,190.431,2.308,2210.666020
25 Sep 2023 21:36:32.151,184.499,0.000,2452.328895
26 Sep 2023 11:04:25.907,174.793,0.000,2446.259695
26 Sep 2023 11:05:25.000,167.222,2.807,2156.132924
26 Sep 2023 11:06:25.000,157.269,5.585,1907.678195
26 Sep 2023 11:07:25.000,144.673,7.921,1727.125111
26 Sep 2023 11:08:25.000,129.812,9.218,1638.070164
26 Sep 2023 11:09:25.000,114.246,8.988,1655.849283
26 Sep 2023 11:10:25.000,100.009,7.334,1777.295109
26 Sep 2023 11:11:25.000,88.291,4.832,1983.100694
26 Sep 2023 11:12:25.000,79.164,2.024,2249.584216
26 Sep 2023 11:13:07.896,73.973,0.000,2466.098024
26 Sep 2023 12:39:59.558,228.646,0.000,2451.514740
26 Sep 2023 12:40:59.000,228.828,4.047,2044.345318
26 Sep 2023 12:41:59.000,229.045,9.247,1635.917932
26 Sep 2023 12:42:59.000,229.327,16.648,1235.121063
26 Sep 2023 12:43:59.000,229.778,29.156,855.529745
26 Sep 2023 12:44:59.000,231.100,55.708,546.482902
26 Sep 2023 12:45:59.000,44.698,73.760,476.809821
26 Sep 2023 12:46:59.000,48.381,37.242,719.878860
26 Sep 2023 12:47:59.000,49.015,20.864,1081.637297
26 Sep 2023 12:48:59.000,49.375,11.991,1476.358936
26 Sep 2023 12:49:59.000,49.655,6.113,1882.278367
26 Sep 2023 12:50:59.000,49.905,1.672,2292.190117
26 Sep 2023 12:51:25.257,50.009,0.000,2471.958369
26 Sep 2023 14:18:26.946,272.974,0.000,2462.508214
26 Sep 2023 14:19:26.000,278.664,3.366,2117.752270
26 Sep 2023 14:20:26.000,286.610,7.183,1793.594342
26 Sep 2023 14:21:26.000,297.884,11.318,1514.307570
26 Sep 2023 14:22:26.000,313.774,15.168,1310.276554
26 Sep 2023 14:23:26.000,334.120,17.204,1220.722670
26 Sep 2023 14:24:26.000,355.224,16.077,1270.359304
26 Sep 2023 14:25:26.000,12.588,12.598,1444.649929
26 Sep 2023 14:26:26.000,25.120,8.470,1705.164153
26 Sep 2023 14:27:26.000,33.931,4.554,2017.903372
26 Sep 2023 14:28:26.000,40.274,1.036,2361.159302
26 Sep 2023 14:28:45.011,41.919,0.000,2474.073465
26 Sep 2023 15:57:48.453,306.442,0.000,2471.044127
26 Sep 2023 15:58:48.000,314.094,2.758,2183.663502
26 Sep 2023 15:59:48.000,323.932,5.476,1937.266128
26 Sep 2023 16:00:48.000,336.264,7.806,1753.669892
26 Sep 2023 16:01:48.000,350.829,9.207,1654.734287
26 Sep 2023 16:02:48.000,6.316,9.190,1656.104815
26 Sep 2023 16:03:48.000,20.834,7.764,1757.532844
26 Sep 2023 16:04:48.000,33.100,5.424,1943.049436
26 Sep 2023 16:05:48.000,42.878,2.706,2190.765913
26 Sep 2023 16:06:46.493,50.363,0.000,2473.599543
26 Sep 2023 17:36:01.991,318.091,0.000,2473.982886
26 Sep 2023 17:37:01.000,324.247,3.208,2142.462470
26 Sep 2023 17:38:01.000,332.683,6.749,1834.968728
26 Sep 2023 17:39:01.000,344.277,10.402,1576.421391
26 Sep 2023 17:40:01.000,359.861,13.532,1395.678707
26 Sep 2023 17:41:01.000,18.788,14.914,1325.878918
26 Sep 2023 17:42:01.000,37.893,13.732,1384.272353
26 Sep 2023 17:43:01.000,53.840,10.689,1556.364672
26 Sep 2023 17:44:01.000,65.763,7.033,1809.505576
26 Sep 2023 17:45:01.000,74.425,3.460,2114.022448
26 Sep 2023 17:46:01.000,80.812,0.165,2449.892908
26 Sep 2023 17:46:04.145,81.099,0.000,2468.106167
26 Sep 2023 19:13:22.390,312.008,0.000,2473.801398
26 Sep 2023 19:14:22.000,313.274,3.989,2068.670648
26 Sep 2023 19:15:22.000,315.090,9.054,1664.124920
26 Sep 2023 19:16:22.000,318.030,16.131,1268.465030
26 Sep 2023 19:17:22.000,323.922,27.588,896.348681
26 Sep 2023 19:18:22.000,342.110,48.898,596.762820
26 Sep 2023 19:19:22.000,65.894,61.529,518.726996
26 Sep 2023 19:20:22.000,106.966,36.089,736.770257
26 Sep 2023 19:21:22.000,116.308,20.721,1084.624917
26 Sep 2023 19:22:22.000,120.242,11.976,1472.187932
26 Sep 2023 19:23:22.000,122.446,6.110,1873.935636
26 Sep 2023 19:24:22.000,123.885,1.662,2281.193740
26 Sep 2023 19:24:48.014,124.371,0.000,2458.447589
26 Sep 2023 20:51:20.665,291.408,0.000,2470.593766
26 Sep 2023 20:52:20.000,285.116,3.192,2139.243099
26 Sep 2023 20:53:20.000,276.428,6.629,1838.499752
26 Sep 2023 20:54:20.000,264.501,10.030,1593.374594
26 Sep 2023 20:55:20.000,248.797,12.677,1433.853040
26 Sep 2023 20:56:20.000,230.467,13.456,1390.368336
26 Sep 2023 20:57:20.000,212.702,11.914,1473.311082
26 Sep 2023 20:58:20.000,198.187,8.874,1663.489110
26 Sep 2023 20:59:20.000,187.372,5.388,1928.714173
26 Sep 2023 21:00:20.000,179.487,1.995,2241.542511
26 Sep 2023 21:00:57.399,175.658,-0.000,2452.173194
27 Sep 2023 10:29:00.285,164.748,0.000,2446.039081
27 Sep 2023 10:30:00.000,156.066,2.355,2200.373036
27 Sep 2023 10:31:00.000,145.380,4.393,2010.622260
27 Sep 2023 10:32:00.000,132.882,5.748,1896.353710
27 Sep 2023 10:33:00.000,119.396,6.071,1872.083437
27 Sep 2023 10:34:00.000,106.243,5.266,1941.412389
27 Sep 2023 10:35:00.000,94.570,3.571,2094.909952
27 Sep 2023 10:36:00.000,84.868,1.364,2315.426282
27 Sep 2023 10:36:34.108,80.218,0.000,2463.749389
27 Sep 2023 12:03:53.664,221.917,0.000,2449.494666
27 Sep 2023 12:04:53.000,221.062,4.029,2044.118971
27 Sep 2023 12:05:53.000,219.695,9.198,1637.527256
27 Sep 2023 12:06:53.000,217.262,16.500,1240.061887
27 Sep 2023 12:07:53.000,211.944,28.561,867.138367
27 Sep 2023 12:08:53.000,193.505,51.648,572.055578
27 Sep 2023 12:09:53.000,100.481,61.838,515.187044
27 Sep 2023 12:10:53.000,65.578,34.957,752.750448
27 Sep 2023 12:11:53.000,58.038,20.043,1108.854411
27 Sep 2023 12:12:53.000,54.984,11.557,1500.443988
27 Sep 2023 12:13:53.000,53.388,5.827,1904.625095
27 Sep 2023 12:14:53.000,52.445,1.455,2313.548925
27 Sep 2023 12:15:16.007,52.186,0.000,2470.812341
27 Sep 2023 13:42:03.417,267.151,0.000,2460.273889
27 Sep 2023 13:43:03.000,272.343,3.530,2100.208226
27 Sep 2023 13:44:03.000,279.661,7.606,1759.674018
27 Sep 2023 13:45:03.000,290.375,12.248,1458.585045
27 Sep 2023 13:46:03.000,306.313,16.979,1227.855539
27 Sep 2023 13:47:03.000,328.206,19.965,1113.193656
27 Sep 2023 13:48:03.000,351.927,18.975,1150.225038
27 Sep 2023 13:49:03.000,11.139,14.870,1326.076061
27 Sep 2023 13:50:03.000,24.379,10.082,1594.847634
27 Sep 2023 13:51:03.000,33.300,5.716,1916.959424
27 Sep 2023 13:52:03.000,39.529,1.916,2268.740538
27 Sep 2023 13:52:36.560,42.241,0.000,2473.322401
27 Sep 2023 15:21:25.751,302.918,0.000,2469.547681
27 Sep 2023 15:22:25.000,310.468,2.773,2180.945598
27 Sep 2023 15:23:25.000,320.252,5.535,1931.154783
27 Sep 2023 15:24:25.000,332.574,7.928,1743.649144
27 Sep 2023 15:25:25.000,347.212,9.401,1640.753929
27 Sep 2023 15:26:25.000,2.857,9.434,1638.890971
27 Sep 2023 15:27:25.000,17.561,8.017,1738.370388
27 Sep 2023 15:28:25.000,29.977,5.655,1923.162240
27 Sep 2023 15:29:25.000,39.850,2.906,2170.952653
27 Sep 2023 15:30:25.000,47.558,0.103,2461.956552
27 Sep 2023 15:30:27.232,47.810,0.000,2473.409615
27 Sep 2023 16:59:51.411,317.759,0.000,2473.235150
27 Sep 2023 17:00:51.000,324.396,3.120,2150.238000
27 Sep 2023 17:01:51.000,333.288,6.446,1858.472700
27 Sep 2023 17:02:51.000,345.210,9.722,1620.013371
27 Sep 2023 17:03:51.000,0.632,12.300,1462.408329
27 Sep 2023 17:04:51.000,18.564,13.180,1413.743066
27 Sep 2023 17:05:51.000,36.190,11.889,1485.027728
27 Sep 2023 17:06:51.000,50.949,9.091,1660.698763
27 Sep 2023 17:07:51.000,62.220,5.760,1911.667909
27 Sep 2023 17:08:51.000,70.610,2.452,2211.682007
27 Sep 2023 17:09:38.001,75.696,0.000,2468.876187
27 Sep 2023 18:37:14.186,313.653,0.000,2473.452032
27 Sep 2023 18:38:14.000,315.836,3.948,2072.218357
27 Sep 2023 18:39:14.000,319.007,8.892,1675.190713
27 Sep 2023 18:40:14.000,324.153,15.630,1291.131579
27 Sep 2023 18:41:14.000,334.086,25.833,938.751462
27 Sep 2023 18:42:14.000,358.823,41.108,672.611323
27 Sep 2023 18:43:14.000,54.322,46.320,618.421748
27 Sep 2023 18:44:14.000,90.947,31.155,819.674389
27 Sep 2023 18:45:14.000,104.617,18.934,1148.767362
27 Sep 2023 18:46:14.000,111.062,11.102,1524.253448
27 Sep 2023 18:47:14.000,114.788,5.585,1918.053789
27 Sep 2023 18:48:14.000,117.238,1.300,2319.690206
27 Sep 2023 18:48:34.767,117.906,0.000,2459.586444
27 Sep 2023 20:14:59.236,295.613,0.000,2470.927766
27 Sep 2023 20:15:59.000,290.379,3.498,2110.829534
27 Sep 2023 20:16:59.000,282.914,7.469,1774.316283
27 Sep 2023 20:17:59.000,271.953,11.865,1481.825878
27 Sep 2023 20:18:59.000,255.912,16.077,1265.804057
27 Sep 2023 20:19:59.000,234.718,18.329,1170.412122
27 Sep 2023 20:20:59.000,212.660,16.960,1224.500639
27 Sep 2023 20:21:59.000,195.015,13.027,1410.714024
27 Sep 2023 20:22:59.000,182.753,8.553,1685.142187
27 Sep 2023 20:23:59.000,174.416,4.431,2011.055549
27 Sep 2023 20:24:59.000,168.585,0.793,2366.155555
27 Sep 2023 20:25:13.092,167.470,0.000,2452.298306
28 Sep 2023 09:53:47.632,152.682,0.000,2446.571651
28 Sep 2023 09:54:47.000,143.147,1.704,2266.662882
28 Sep 2023 09:55:47.000,132.142,2.888,2151.142441
28 Sep 2023 09:56:47.000,120.305,3.303,2113.833060
28 Sep 2023 09:57:47.000,108.513,2.855,2159.083428
28 Sep 2023 09:58:47.000,97.626,1.649,2281.928699
28 Sep 2023 09:59:44.319,88.546,0.000,2460.833606
28 Sep 2023 11:27:48.808,215.001,0.000,2447.595566
28 Sep 2023 11:28:48.000,213.070,3.965,2048.087219
28 Sep 2023 11:29:48.000,210.073,9.005,1649.041275
28 Sep 2023 11:30:48.000,204.950,15.926,1264.039516
28 Sep 2023 11:31:48.000,194.579,26.485,913.647370
28 Sep 2023 11:32:48.000,167.817,41.904,658.335099
28 Sep 2023 11:33:48.000,111.860,44.843,628.834133
28 Sep 2023 11:34:48.000,78.608,29.542,849.108042
28 Sep 2023 11:35:48.000,66.212,17.934,1186.876319
28 Sep 2023 11:36:48.000,60.398,10.446,1567.031701
28 Sep 2023 11:37:48.000,57.123,5.109,1964.001278
28 Sep 2023 11:38:48.000,55.059,0.927,2368.099941
28 Sep 2023 11:39:02.989,54.661,0.000,2469.586201
28 Sep 2023 13:05:38.895,261.150,0.000,2457.945335
28 Sep 2023 13:06:38.000,265.664,3.628,2088.891379
28 Sep 2023 13:07:38.000,272.171,7.958,1731.745706
28 Sep 2023 13:08:38.000,282.009,13.146,1407.548627
28 Sep 2023 13:09:38.000,297.590,18.988,1146.357649
28 Sep 2023 13:10:38.000,321.147,23.459,1000.123257
28 Sep 2023 13:11:38.000,348.548,22.813,1020.074215
28 Sep 2023 13:12:38.000,10.314,17.748,1197.758360
28 Sep 2023 13:13:38.000,24.355,12.004,1476.682057
28 Sep 2023 13:14:38.000,33.294,7.038,1809.730878
28 Sep 2023 13:15:38.000,39.305,2.889,2171.056901
28 Sep 2023 13:16:26.184,42.854,0.000,2472.528345
28 Sep 2023 14:44:59.037,298.926,0.000,2467.904182
28 Sep 2023 14:45:59.000,306.456,2.860,2170.939410
28 Sep 2023 14:46:59.000,316.170,5.706,1915.499081
28 Sep 2023 14:47:59.000,328.511,8.215,1721.645213
28 Sep 2023 14:48:59.000,343.322,9.810,1612.597251
28 Sep 2023 14:49:59.000,359.285,9.917,1606.145147
28 Sep 2023 14:50:59.000,14.332,8.492,1703.444842
28 Sep 2023 14:51:59.000,27.003,6.072,1888.153465
28 Sep 2023 14:52:59.000,37.023,3.254,2137.080945
28 Sep 2023 14:53:59.000,44.799,0.393,2429.722972
28 Sep 2023 14:54:07.365,45.737,0.000,2473.081649
28 Sep 2023 16:23:36.958,317.051,0.000,2472.395970
28 Sep 2023 16:24:36.000,323.958,2.981,2162.850781
28 Sep 2023 16:25:36.000,333.166,6.115,1884.611857
28 Sep 2023 16:26:36.000,345.249,9.079,1662.790716
28 Sep 2023 16:27:36.000,0.414,11.248,1523.350150
28 Sep 2023 16:28:36.000,17.510,11.803,1490.266022
28 Sep 2023 16:29:36.000,34.043,10.473,1570.458693
