xian_to_starlink-1032_Access_AER.csv

"Time (UTCG)","Azimuth (deg)","Elevation (deg)","Range (km)"
14 Sep 2023 14:19:14.971,147.955,0.000,2705.007489
14 Sep 2023 14:19:15.000,147.951,0.001,2704.917128
14 Sep 2023 14:19:16.000,147.814,0.029,2701.788999
14 Sep 2023 14:19:17.000,147.677,0.058,2698.674166
14 Sep 2023 14:19:18.000,147.540,0.086,2695.572680
14 Sep 2023 14:19:19.000,147.402,0.114,2692.484591
14 Sep 2023 14:19:20.000,147.264,0.142,2689.409948
14 Sep 2023 14:19:21.000,147.126,0.170,2686.348804
14 Sep 2023 14:19:22.000,146.987,0.198,2683.301207
14 Sep 2023 14:19:23.000,146.848,0.226,2680.267208
14 Sep 2023 14:19:24.000,146.709,0.253,2677.246858
14 Sep 2023 14:19:25.000,146.569,0.281,2674.240206
14 Sep 2023 14:19:26.000,146.429,0.308,2671.247304
14 Sep 2023 14:19:27.000,146.289,0.336,2668.268201
14 Sep 2023 14:19:28.000,146.148,0.363,2665.302948
14 Sep 2023 14:19:29.000,146.007,0.390,2662.351595
14 Sep 2023 14:19:30.000,145.866,0.417,2659.414193
14 Sep 2023 14:19:31.000,145.725,0.444,2656.490791
14 Sep 2023 14:19:32.000,145.583,0.471,2653.581441
14 Sep 2023 14:19:33.000,145.441,0.498,2650.686192
14 Sep 2023 14:19:34.000,145.298,0.525,2647.805094
14 Sep 2023 14:19:35.000,145.155,0.551,2644.938198
14 Sep 2023 14:19:36.000,145.012,0.578,2642.085553
14 Sep 2023 14:19:37.000,144.869,0.604,2639.247211
14 Sep 2023 14:19:38.000,144.725,0.631,2636.423221
14 Sep 2023 14:19:39.000,144.581,0.657,2633.613633
14 Sep 2023 14:19:40.000,144.437,0.683,2630.818494
14 Sep 2023 14:19:41.000,144.292,0.709,2628.037861
14 Sep 2023 14:19:42.000,144.147,0.735,2625.271779
14 Sep 2023 14:19:43.000,144.002,0.761,2622.520299
14 Sep 2023 14:19:44.000,143.856,0.786,2619.783470
14 Sep 2023 14:19:45.000,143.710,0.812,2617.061343
14 Sep 2023 14:19:46.000,143.564,0.837,2614.353968
14 Sep 2023 14:19:47.000,143.418,0.863,2611.661393
14 Sep 2023 14:19:48.000,143.271,0.888,2608.983668
14 Sep 2023 14:19:49.000,143.124,0.913,2606.320843
14 Sep 2023 14:19:50.000,142.976,0.938,2603.672968
14 Sep 2023 14:19:51.000,142.829,0.963,2601.040089
14 Sep 2023 14:19:52.000,142.681,0.988,2598.422259
14 Sep 2023 14:19:53.000,142.532,1.013,2595.819527
14 Sep 2023 14:19:54.000,142.384,1.037,2593.231942
14 Sep 2023 14:19:55.000,142.235,1.061,2590.659551
14 Sep 2023 14:19:56.000,142.086,1.086,2588.102404
14 Sep 2023 14:19:57.000,141.936,1.110,2585.560550
14 Sep 2023 14:19:58.000,141.786,1.134,2583.034036
14 Sep 2023 14:19:59.000,141.636,1.158,2580.522914
14 Sep 2023 14:20:00.000,141.486,1.182,2578.027231
14 Sep 2023 14:20:01.000,141.335,1.206,2575.547035
14 Sep 2023 14:20:02.000,141.184,1.229,2573.082374
14 Sep 2023 14:20:03.000,141.033,1.253,2570.633297
14 Sep 2023 14:20:04.000,140.881,1.276,2568.199850
14 Sep 2023 14:20:05.000,140.729,1.299,2565.782084
14 Sep 2023 14:20:06.000,140.577,1.322,2563.380046
14 Sep 2023 14:20:07.000,140.424,1.345,2560.993782
14 Sep 2023 14:20:08.000,140.272,1.368,2558.623342
14 Sep 2023 14:20:09.000,140.119,1.391,2556.268769
14 Sep 2023 14:20:10.000,139.965,1.414,2553.930116
14 Sep 2023 14:20:11.000,139.812,1.436,2551.607427
14 Sep 2023 14:20:12.000,139.658,1.458,2549.300749
14 Sep 2023 14:20:13.000,139.504,1.480,2547.010130
14 Sep 2023 14:20:14.000,139.349,1.503,2544.735613
14 Sep 2023 14:20:15.000,139.194,1.524,2542.477249
14 Sep 2023 14:20:16.000,139.039,1.546,2540.235084
14 Sep 2023 14:20:17.000,138.884,1.568,2538.009162
14 Sep 2023 14:20:18.000,138.728,1.589,2535.799528
14 Sep 2023 14:20:19.000,138.572,1.611,2533.606231
14 Sep 2023 14:20:20.000,138.416,1.632,2531.429316
14 Sep 2023 14:20:21.000,138.260,1.653,2529.268826
14 Sep 2023 14:20:22.000,138.103,1.674,2527.124810
14 Sep 2023 14:20:23.000,137.946,1.695,2524.997311
14 Sep 2023 14:20:24.000,137.789,1.716,2522.886374
14 Sep 2023 14:20:25.000,137.632,1.736,2520.792041
14 Sep 2023 14:20:26.000,137.474,1.757,2518.714362
14 Sep 2023 14:20:27.000,137.316,1.777,2516.653379
14 Sep 2023 14:20:28.000,137.157,1.797,2514.609132
14 Sep 2023 14:20:29.000,136.999,1.817,2512.581672
14 Sep 2023 14:20:30.000,136.840,1.837,2510.571039
14 Sep 2023 14:20:31.000,136.681,1.857,2508.577274
14 Sep 2023 14:20:32.000,136.522,1.876,2506.600426
14 Sep 2023 14:20:33.000,136.362,1.895,2504.640534
14 Sep 2023 14:20:34.000,136.202,1.915,2502.697640
14 Sep 2023 14:20:35.000,136.042,1.934,2500.771790
14 Sep 2023 14:20:36.000,135.882,1.953,2498.863024
14 Sep 2023 14:20:37.000,135.721,1.971,2496.971383
14 Sep 2023 14:20:38.000,135.560,1.990,2495.096912
14 Sep 2023 14:20:39.000,135.399,2.009,2493.239651
14 Sep 2023 14:20:40.000,135.238,2.027,2491.399639
14 Sep 2023 14:20:41.000,135.076,2.045,2489.576921
14 Sep 2023 14:20:42.000,134.914,2.063,2487.771534
14 Sep 2023 14:20:43.000,134.752,2.081,2485.983523
14 Sep 2023 14:20:44.000,134.590,2.099,2484.212926
14 Sep 2023 14:20:45.000,134.428,2.116,2482.459779
14 Sep 2023 14:20:46.000,134.265,2.134,2480.724129
14 Sep 2023 14:20:47.000,134.102,2.151,2479.006009
14 Sep 2023 14:20:48.000,133.939,2.168,2477.305464
14 Sep 2023 14:20:49.000,133.775,2.185,2475.622526
14 Sep 2023 14:20:50.000,133.611,2.202,2473.957241
14 Sep 2023 14:20:51.000,133.447,2.218,2472.309644
14 Sep 2023 14:20:52.000,133.283,2.235,2470.679769
14 Sep 2023 14:20:53.000,133.119,2.251,2469.067660
14 Sep 2023 14:20:54.000,132.954,2.267,2467.473349
14 Sep 2023 14:20:55.000,132.790,2.283,2465.896879
14 Sep 2023 14:20:56.000,132.625,2.299,2464.338280
14 Sep 2023 14:20:57.000,132.459,2.314,2462.797595
14 Sep 2023 14:20:58.000,132.294,2.330,2461.274854
14 Sep 2023 14:20:59.000,132.128,2.345,2459.770098
14 Sep 2023 14:21:00.000,131.962,2.360,2458.283357
14 Sep 2023 14:21:01.000,131.796,2.375,2456.814673
14 Sep 2023 14:21:02.000,131.630,2.390,2455.364074
14 Sep 2023 14:21:03.000,131.464,2.404,2453.931600
14 Sep 2023 14:21:04.000,131.297,2.419,2452.517279
14 Sep 2023 14:21:05.000,131.130,2.433,2451.121152
14 Sep 2023 14:21:06.000,130.963,2.447,2449.743245
14 Sep 2023 14:21:07.000,130.796,2.461,2448.383598
14 Sep 2023 14:21:08.000,130.628,2.474,2447.042238
14 Sep 2023 14:21:09.000,130.461,2.488,2445.719199
14 Sep 2023 14:21:10.000,130.293,2.501,2444.414517
14 Sep 2023 14:21:11.000,130.125,2.515,2443.128217
14 Sep 2023 14:21:12.000,129.957,2.528,2441.860336
14 Sep 2023 14:21:13.000,129.788,2.540,2440.610900
14 Sep 2023 14:21:14.000,129.620,2.553,2439.379944
14 Sep 2023 14:21:15.000,129.451,2.566,2438.167494
14 Sep 2023 14:21:16.000,129.282,2.578,2436.973581
14 Sep 2023 14:21:17.000,129.113,2.590,2435.798238
14 Sep 2023 14:21:18.000,128.944,2.602,2434.641487
14 Sep 2023 14:21:19.000,128.775,2.614,2433.503365
14 Sep 2023 14:21:20.000,128.605,2.625,2432.383891
14 Sep 2023 14:21:21.000,128.435,2.637,2431.283098
14 Sep 2023 14:21:22.000,128.266,2.648,2430.201016
14 Sep 2023 14:21:23.000,128.096,2.659,2429.137665
14 Sep 2023 14:21:24.000,127.925,2.670,2428.093076
14 Sep 2023 14:21:25.000,127.755,2.680,2427.067276
14 Sep 2023 14:21:26.000,127.585,2.691,2426.060287
14 Sep 2023 14:21:27.000,127.414,2.701,2425.072135
14 Sep 2023 14:21:28.000,127.243,2.711,2424.102850
14 Sep 2023 14:21:29.000,127.073,2.721,2423.152450
14 Sep 2023 14:21:30.000,126.901,2.731,2422.220960
14 Sep 2023 14:21:31.000,126.730,2.740,2421.308410
14 Sep 2023 14:21:32.000,126.559,2.750,2420.414814
14 Sep 2023 14:21:33.000,126.388,2.759,2419.540199
14 Sep 2023 14:21:34.000,126.216,2.768,2418.684591
14 Sep 2023 14:21:35.000,126.044,2.777,2417.848005
14 Sep 2023 14:21:36.000,125.873,2.785,2417.030466
14 Sep 2023 14:21:37.000,125.701,2.794,2416.231994
14 Sep 2023 14:21:38.000,125.529,2.802,2415.452613
14 Sep 2023 14:21:39.000,125.357,2.810,2414.692338
14 Sep 2023 14:21:40.000,125.184,2.818,2413.951190
14 Sep 2023 14:21:41.000,125.012,2.825,2413.229189
14 Sep 2023 14:21:42.000,124.840,2.833,2412.526358
14 Sep 2023 14:21:43.000,124.667,2.840,2411.842707
14 Sep 2023 14:21:44.000,124.494,2.847,2411.178258
14 Sep 2023 14:21:45.000,124.322,2.854,2410.533027
14 Sep 2023 14:21:46.000,124.149,2.861,2409.907037
14 Sep 2023 14:21:47.000,123.976,2.867,2409.300295
14 Sep 2023 14:21:48.000,123.803,2.873,2408.712822
14 Sep 2023 14:21:49.000,123.630,2.880,2408.144632
14 Sep 2023 14:21:50.000,123.456,2.885,2407.595742
14 Sep 2023 14:21:51.000,123.283,2.891,2407.066165
14 Sep 2023 14:21:52.000,123.110,2.897,2406.555918
14 Sep 2023 14:21:53.000,122.936,2.902,2406.065010
14 Sep 2023 14:21:54.000,122.763,2.907,2405.593455
14 Sep 2023 14:21:55.000,122.589,2.912,2405.141268
14 Sep 2023 14:21:56.000,122.416,2.917,2404.708459
14 Sep 2023 14:21:57.000,122.242,2.921,2404.295041
14 Sep 2023 14:21:58.000,122.068,2.926,2403.901028
14 Sep 2023 14:21:59.000,121.894,2.930,2403.526424
14 Sep 2023 14:22:00.000,121.721,2.934,2403.171243
14 Sep 2023 14:22:01.000,121.547,2.937,2402.835494
14 Sep 2023 14:22:02.000,121.373,2.941,2402.519187
14 Sep 2023 14:22:03.000,121.199,2.944,2402.222330
14 Sep 2023 14:22:04.000,121.025,2.947,2401.944932
14 Sep 2023 14:22:05.000,120.850,2.950,2401.687001
14 Sep 2023 14:22:06.000,120.676,2.953,2401.448543
14 Sep 2023 14:22:07.000,120.502,2.956,2401.229565
14 Sep 2023 14:22:08.000,120.328,2.958,2401.030078
14 Sep 2023 14:22:09.000,120.154,2.960,2400.850080
14 Sep 2023 14:22:10.000,119.979,2.962,2400.689579
14 Sep 2023 14:22:11.000,119.805,2.964,2400.548582
14 Sep 2023 14:22:12.000,119.631,2.965,2400.427091
14 Sep 2023 14:22:13.000,119.457,2.967,2400.325111
14 Sep 2023 14:22:14.000,119.282,2.968,2400.242645
14 Sep 2023 14:22:15.000,119.108,2.969,2400.179696
14 Sep 2023 14:22:16.000,118.934,2.970,2400.136266
14 Sep 2023 14:22:17.000,118.759,2.970,2400.112357
14 Sep 2023 14:22:18.000,118.585,2.970,2400.107971
14 Sep 2023 14:22:19.000,118.410,2.971,2400.123107
14 Sep 2023 14:22:20.000,118.236,2.971,2400.157768
14 Sep 2023 14:22:21.000,118.062,2.970,2400.211951
14 Sep 2023 14:22:22.000,117.887,2.970,2400.285657
14 Sep 2023 14:22:23.000,117.713,2.969,2400.378884
14 Sep 2023 14:22:24.000,117.539,2.968,2400.491631
14 Sep 2023 14:22:25.000,117.364,2.967,2400.623896
14 Sep 2023 14:22:26.000,117.190,2.966,2400.775675
14 Sep 2023 14:22:27.000,117.016,2.965,2400.946967
14 Sep 2023 14:22:28.000,116.842,2.963,2401.137766
14 Sep 2023 14:22:29.000,116.668,2.961,2401.348069
14 Sep 2023 14:22:30.000,116.493,2.959,2401.577868
14 Sep 2023 14:22:31.000,116.319,2.957,2401.827164
14 Sep 2023 14:22:32.000,116.145,2.954,2402.095949
14 Sep 2023 14:22:33.000,115.971,2.952,2402.384216
14 Sep 2023 14:22:34.000,115.797,2.949,2402.691959
14 Sep 2023 14:22:35.000,115.623,2.946,2403.019170
14 Sep 2023 14:22:36.000,115.449,2.943,2403.365842
14 Sep 2023 14:22:37.000,115.275,2.939,2403.731967
14 Sep 2023 14:22:38.000,115.102,2.936,2404.117536
14 Sep 2023 14:22:39.000,114.928,2.932,2404.522537
14 Sep 2023 14:22:40.000,114.754,2.928,2404.946966
14 Sep 2023 14:22:41.000,114.581,2.923,2405.390811
14 Sep 2023 14:22:42.000,114.407,2.919,2405.854061
14 Sep 2023 14:22:43.000,114.234,2.914,2406.336705
14 Sep 2023 14:22:44.000,114.060,2.910,2406.838731
14 Sep 2023 14:22:45.000,113.887,2.905,2407.360127
14 Sep 2023 14:22:46.000,113.714,2.899,2407.900877
14 Sep 2023 14:22:47.000,113.541,2.894,2408.460976
14 Sep 2023 14:22:48.000,113.367,2.888,2409.040406
14 Sep 2023 14:22:49.000,113.194,2.882,2409.639154
14 Sep 2023 14:22:50.000,113.022,2.876,2410.257205
14 Sep 2023 14:22:51.000,112.849,2.870,2410.894541
14 Sep 2023 14:22:52.000,112.676,2.864,2411.551153
14 Sep 2023 14:22:53.000,112.503,2.857,2412.227022
14 Sep 2023 14:22:54.000,112.331,2.851,2412.922133
14 Sep 2023 14:22:55.000,112.159,2.844,2413.636467
14 Sep 2023 14:22:56.000,111.986,2.836,2414.370005
14 Sep 2023 14:22:57.000,111.814,2.829,2415.122736
14 Sep 2023 14:22:58.000,111.642,2.822,2415.894638
14 Sep 2023 14:22:59.000,111.470,2.814,2416.685692
14 Sep 2023 14:23:00.000,111.298,2.806,2417.495877
14 Sep 2023 14:23:01.000,111.126,2.798,2418.325180
14 Sep 2023 14:23:02.000,110.955,2.789,2419.173577
14 Sep 2023 14:23:03.000,110.783,2.781,2420.041044
14 Sep 2023 14:23:04.000,110.612,2.772,2420.927568
14 Sep 2023 14:23:05.000,110.441,2.763,2421.833124
14 Sep 2023 14:23:06.000,110.270,2.754,2422.757690
14 Sep 2023 14:23:07.000,110.099,2.745,2423.701241
14 Sep 2023 14:23:08.000,109.928,2.736,2424.663760
14 Sep 2023 14:23:09.000,109.757,2.726,2425.645223
14 Sep 2023 14:23:10.000,109.587,2.716,2426.645601
14 Sep 2023 14:23:11.000,109.416,2.706,2427.664877
14 Sep 2023 14:23:12.000,109.246,2.696,2428.703025
14 Sep 2023 14:23:13.000,109.076,2.686,2429.760016
14 Sep 2023 14:23:14.000,108.906,2.675,2430.835831
14 Sep 2023 14:23:15.000,108.736,2.664,2431.930439
14 Sep 2023 14:23:16.000,108.567,2.653,2433.043820
14 Sep 2023 14:23:17.000,108.397,2.642,2434.175944
14 Sep 2023 14:23:18.000,108.228,2.631,2435.326782
14 Sep 2023 14:23:19.000,108.059,2.619,2436.496312
14 Sep 2023 14:23:20.000,107.890,2.608,2437.684505
14 Sep 2023 14:23:21.000,107.721,2.596,2438.891328
14 Sep 2023 14:23:22.000,107.552,2.584,2440.116761
14 Sep 2023 14:23:23.000,107.384,2.572,2441.360767
14 Sep 2023 14:23:24.000,107.216,2.559,2442.623324
14 Sep 2023 14:23:25.000,107.048,2.547,2443.904400
14 Sep 2023 14:23:26.000,106.880,2.534,2445.203960
14 Sep 2023 14:23:27.000,106.712,2.521,2446.521983
14 Sep 2023 14:23:28.000,106.545,2.508,2447.858429
14 Sep 2023 14:23:29.000,106.377,2.495,2449.213275
14 Sep 2023 14:23:30.000,106.210,2.481,2450.586483
14 Sep 2023 14:23:31.000,106.043,2.468,2451.978029
14 Sep 2023 14:23:32.000,105.876,2.454,2453.387871
14 Sep 2023 14:23:33.000,105.710,2.440,2454.815987
14 Sep 2023 14:23:34.000,105.544,2.426,2456.262335
14 Sep 2023 14:23:35.000,105.377,2.411,2457.726889
14 Sep 2023 14:23:36.000,105.211,2.397,2459.209609
14 Sep 2023 14:23:37.000,105.046,2.382,2460.710468
14 Sep 2023 14:23:38.000,104.880,2.367,2462.229425
14 Sep 2023 14:23:39.000,104.715,2.352,2463.766452
14 Sep 2023 14:23:40.000,104.550,2.337,2465.321507
14 Sep 2023 14:23:41.000,104.385,2.322,2466.894563
14 Sep 2023 14:23:42.000,104.220,2.306,2468.485576
14 Sep 2023 14:23:43.000,104.056,2.291,2470.094519
14 Sep 2023 14:23:44.000,103.892,2.275,2471.721346
14 Sep 2023 14:23:45.000,103.728,2.259,2473.366030
14 Sep 2023 14:23:46.000,103.564,2.243,2475.028527
14 Sep 2023 14:23:47.000,103.400,2.226,2476.708805
14 Sep 2023 14:23:48.000,103.237,2.210,2478.406821
14 Sep 2023 14:23:49.000,103.074,2.193,2480.122545
14 Sep 2023 14:23:50.000,102.911,2.176,2481.855931
14 Sep 2023 14:23:51.000,102.748,2.159,2483.606944
14 Sep 2023 14:23:52.000,102.586,2.142,2485.375549
14 Sep 2023 14:23:53.000,102.424,2.125,2487.161700
14 Sep 2023 14:23:54.000,102.262,2.107,2488.965366
14 Sep 2023 14:23:55.000,102.100,2.090,2490.786500
14 Sep 2023 14:23:56.000,101.939,2.072,2492.625065
14 Sep 2023 14:23:57.000,101.778,2.054,2494.481025
14 Sep 2023 14:23:58.000,101.617,2.036,2496.354333
14 Sep 2023 14:23:59.000,101.456,2.018,2498.244952
14 Sep 2023 14:24:00.000,101.296,1.999,2500.152844
14 Sep 2023 14:24:01.000,101.136,1.981,2502.077962
14 Sep 2023 14:24:02.000,100.976,1.962,2504.020272
14 Sep 2023 14:24:03.000,100.816,1.943,2505.979723
14 Sep 2023 14:24:04.000,100.657,1.924,2507.956280
14 Sep 2023 14:24:05.000,100.497,1.905,2509.949902
14 Sep 2023 14:24:06.000,100.339,1.886,2511.960541
14 Sep 2023 14:24:07.000,100.180,1.866,2513.988158
14 Sep 2023 14:24:08.000,100.022,1.847,2516.032714
14 Sep 2023 14:24:09.000,99.863,1.827,2518.094158
14 Sep 2023 14:24:10.000,99.706,1.807,2520.172451
14 Sep 2023 14:24:11.000,99.548,1.787,2522.267553
14 Sep 2023 14:24:12.000,99.391,1.767,2524.379414
14 Sep 2023 14:24:13.000,99.234,1.747,2526.507992
14 Sep 2023 14:24:14.000,99.077,1.726,2528.653245
14 Sep 2023 14:24:15.000,98.921,1.705,2530.815132
14 Sep 2023 14:24:16.000,98.764,1.685,2532.993601
14 Sep 2023 14:24:17.000,98.608,1.664,2535.188611
14 Sep 2023 14:24:18.000,98.453,1.643,2537.400117
14 Sep 2023 14:24:19.000,98.297,1.622,2539.628078
14 Sep 2023 14:24:20.000,98.142,1.600,2541.872441
14 Sep 2023 14:24:21.000,97.988,1.579,2544.133165
14 Sep 2023 14:24:22.000,97.833,1.557,2546.410205
14 Sep 2023 14:24:23.000,97.679,1.536,2548.703518
14 Sep 2023 14:24:24.000,97.525,1.514,2551.013051
14 Sep 2023 14:24:25.000,97.371,1.492,2553.338761
14 Sep 2023 14:24:26.000,97.218,1.470,2555.680603
14 Sep 2023 14:24:27.000,97.065,1.447,2558.038535
14 Sep 2023 14:24:28.000,96.912,1.425,2560.412501
14 Sep 2023 14:24:29.000,96.759,1.402,2562.802459
14 Sep 2023 14:24:30.000,96.607,1.380,2565.208363
14 Sep 2023 14:24:31.000,96.455,1.357,2567.630165
14 Sep 2023 14:24:32.000,96.304,1.334,2570.067822
14 Sep 2023 14:24:33.000,96.152,1.311,2572.521279
14 Sep 2023 14:24:34.000,96.001,1.288,2574.990493
14 Sep 2023 14:24:35.000,95.851,1.265,2577.475417
14 Sep 2023 14:24:36.000,95.700,1.241,2579.976002
14 Sep 2023 14:24:37.000,95.550,1.218,2582.492201
14 Sep 2023 14:24:38.000,95.400,1.194,2585.023970
14 Sep 2023 14:24:39.000,95.251,1.170,2587.571254
14 Sep 2023 14:24:40.000,95.101,1.146,2590.134008
14 Sep 2023 14:24:41.000,94.953,1.122,2592.712183
14 Sep 2023 14:24:42.000,94.804,1.098,2595.305733
14 Sep 2023 14:24:43.000,94.656,1.074,2597.914608
14 Sep 2023 14:24:44.000,94.508,1.049,2600.538759
14 Sep 2023 14:24:45.000,94.360,1.025,2603.178143
14 Sep 2023 14:24:46.000,94.212,1.000,2605.832703
14 Sep 2023 14:24:47.000,94.065,0.976,2608.502393
14 Sep 2023 14:24:48.000,93.919,0.951,2611.187166
14 Sep 2023 14:24:49.000,93.772,0.926,2613.886972
14 Sep 2023 14:24:50.000,93.626,0.901,2616.601762
14 Sep 2023 14:24:51.000,93.480,0.876,2619.331487
14 Sep 2023 14:24:52.000,93.335,0.850,2622.076098
14 Sep 2023 14:24:53.000,93.189,0.825,2624.835546
14 Sep 2023 14:24:54.000,93.044,0.799,2627.609781
14 Sep 2023 14:24:55.000,92.900,0.774,2630.398758
14 Sep 2023 14:24:56.000,92.755,0.748,2633.202421
14 Sep 2023 14:24:57.000,92.611,0.722,2636.020722
14 Sep 2023 14:24:58.000,92.468,0.696,2638.853614
14 Sep 2023 14:24:59.000,92.324,0.670,2641.701045
14 Sep 2023 14:25:00.000,92.181,0.644,2644.562968
14 Sep 2023 14:25:01.000,92.039,0.618,2647.439331
14 Sep 2023 14:25:02.000,91.896,0.591,2650.330086
14 Sep 2023 14:25:03.000,91.754,0.565,2653.235182
14 Sep 2023 14:25:04.000,91.612,0.538,2656.154570
14 Sep 2023 14:25:05.000,91.471,0.512,2659.088201
14 Sep 2023 14:25:06.000,91.330,0.485,2662.036023
14 Sep 2023 14:25:07.000,91.189,0.458,2664.997988
14 Sep 2023 14:25:08.000,91.049,0.431,2667.974045
14 Sep 2023 14:25:09.000,90.908,0.404,2670.964145
14 Sep 2023 14:25:10.000,90.769,0.377,2673.968238
14 Sep 2023 14:25:11.000,90.629,0.350,2676.986274
14 Sep 2023 14:25:12.000,90.490,0.322,2680.018202
14 Sep 2023 14:25:13.000,90.351,0.295,2683.063973
14 Sep 2023 14:25:14.000,90.212,0.267,2686.123537
14 Sep 2023 14:25:15.000,90.074,0.240,2689.196844
14 Sep 2023 14:25:16.000,89.936,0.212,2692.283844
14 Sep 2023 14:25:17.000,89.799,0.184,2695.384488
14 Sep 2023 14:25:18.000,89.661,0.156,2698.498724
14 Sep 2023 14:25:19.000,89.524,0.128,2701.626503
14 Sep 2023 14:25:20.000,89.388,0.100,2704.767775
14 Sep 2023 14:25:21.000,89.251,0.072,2707.922491
14 Sep 2023 14:25:22.000,89.116,0.044,2711.090600
14 Sep 2023 14:25:23.000,88.980,0.015,2714.272052
14 Sep 2023 14:25:23.537,88.907,0.000,2715.986047
14 Sep 2023 15:54:51.324,211.269,0.000,2704.869533
14 Sep 2023 15:54:52.000,211.252,0.041,2700.386435
14 Sep 2023 15:54:53.000,211.228,0.101,2693.756922
14 Sep 2023 15:54:54.000,211.204,0.161,2687.127880
14 Sep 2023 15:54:55.000,211.179,0.221,2680.499323
14 Sep 2023 15:54:56.000,211.155,0.281,2673.871260
14 Sep 2023 15:54:57.000,211.130,0.342,2667.243702
14 Sep 2023 15:54:58.000,211.105,0.403,2660.616662
14 Sep 2023 15:54:59.000,211.080,0.464,2653.990147
14 Sep 2023 15:55:00.000,211.055,0.525,2647.364175
14 Sep 2023 15:55:01.000,211.030,0.586,2640.738753
14 Sep 2023 15:55:02.000,211.004,0.647,2634.113894
14 Sep 2023 15:55:03.000,210.979,0.708,2627.489609
14 Sep 2023 15:55:04.000,210.953,0.770,2620.865911
14 Sep 2023 15:55:05.000,210.927,0.832,2614.242813
14 Sep 2023 15:55:06.000,210.901,0.894,2607.620325
14 Sep 2023 15:55:07.000,210.875,0.956,2600.998459
14 Sep 2023 15:55:08.000,210.849,1.018,2594.377227
14 Sep 2023 15:55:09.000,210.823,1.081,2587.756645
14 Sep 2023 15:55:10.000,210.796,1.143,2581.136722
14 Sep 2023 15:55:11.000,210.770,1.206,2574.517472
14 Sep 2023 15:55:12.000,210.743,1.269,2567.898908
14 Sep 2023 15:55:13.000,210.716,1.332,2561.281039
14 Sep 2023 15:55:14.000,210.689,1.395,2554.663884
14 Sep 2023 15:55:15.000,210.662,1.459,2548.047453
14 Sep 2023 15:55:16.000,210.634,1.522,2541.431759
14 Sep 2023 15:55:17.000,210.607,1.586,2534.816816
14 Sep 2023 15:55:18.000,210.579,1.650,2528.202635
14 Sep 2023 15:55:19.000,210.551,1.714,2521.589234
14 Sep 2023 15:55:20.000,210.523,1.778,2514.976623
14 Sep 2023 15:55:21.000,210.495,1.843,2508.364818
14 Sep 2023 15:55:22.000,210.467,1.907,2501.753832
14 Sep 2023 15:55:23.000,210.438,1.972,2495.143676
14 Sep 2023 15:55:24.000,210.410,2.037,2488.534369
14 Sep 2023 15:55:25.000,210.381,2.102,2481.925924
14 Sep 2023 15:55:26.000,210.352,2.168,2475.318355
14 Sep 2023 15:55:27.000,210.323,2.233,2468.711675
14 Sep 2023 15:55:28.000,210.294,2.299,2462.105899
14 Sep 2023 15:55:29.000,210.264,2.365,2455.501044
14 Sep 2023 15:55:30.000,210.235,2.431,2448.897124
14 Sep 2023 15:55:31.000,210.205,2.497,2442.294154
14 Sep 2023 15:55:32.000,210.175,2.564,2435.692146
14 Sep 2023 15:55:33.000,210.145,2.630,2429.091121
14 Sep 2023 15:55:34.000,210.115,2.697,2422.491092
14 Sep 2023 15:55:35.000,210.084,2.764,2415.892074
14 Sep 2023 15:55:36.000,210.053,2.831,2409.294084
14 Sep 2023 15:55:37.000,210.023,2.899,2402.697134
14 Sep 2023 15:55:38.000,209.992,2.967,2396.101247
14 Sep 2023 15:55:39.000,209.961,3.034,2389.506434
14 Sep 2023 15:55:40.000,209.929,3.103,2382.912714
14 Sep 2023 15:55:41.000,209.898,3.171,2376.320103
14 Sep 2023 15:55:42.000,209.866,3.239,2369.728615
14 Sep 2023 15:55:43.000,209.834,3.308,2363.138271
14 Sep 2023 15:55:44.000,209.802,3.377,2356.549086
14 Sep 2023 15:55:45.000,209.770,3.446,2349.961078
14 Sep 2023 15:55:46.000,209.737,3.515,2343.374264
14 Sep 2023 15:55:47.000,209.704,3.585,2336.788662
14 Sep 2023 15:55:48.000,209.671,3.655,2330.204287
14 Sep 2023 15:55:49.000,209.638,3.725,2323.621161
14 Sep 2023 15:55:50.000,209.605,3.795,2317.039301
14 Sep 2023 15:55:51.000,209.572,3.865,2310.458724
14 Sep 2023 15:55:52.000,209.538,3.936,2303.879450
14 Sep 2023 15:55:53.000,209.504,4.007,2297.301494
14 Sep 2023 15:55:54.000,209.470,4.078,2290.724880
14 Sep 2023 15:55:55.000,209.436,4.149,2284.149625
14 Sep 2023 15:55:56.000,209.401,4.221,2277.575747
14 Sep 2023 15:55:57.000,209.366,4.293,2271.003267
14 Sep 2023 15:55:58.000,209.331,4.365,2264.432202
14 Sep 2023 15:55:59.000,209.296,4.437,2257.862576
14 Sep 2023 15:56:00.000,209.261,4.510,2251.294406
14 Sep 2023 15:56:01.000,209.225,4.582,2244.727714
14 Sep 2023 15:56:02.000,209.189,4.655,2238.162519
14 Sep 2023 15:56:03.000,209.153,4.729,2231.598841
14 Sep 2023 15:56:04.000,209.117,4.802,2225.036704
14 Sep 2023 15:56:05.000,209.080,4.876,2218.476127
14 Sep 2023 15:56:06.000,209.044,4.950,2211.917132
14 Sep 2023 15:56:07.000,209.007,5.024,2205.359740
14 Sep 2023 15:56:08.000,208.969,5.099,2198.803971
14 Sep 2023 15:56:09.000,208.932,5.173,2192.249851
14 Sep 2023 15:56:10.000,208.894,5.249,2185.697400
14 Sep 2023 15:56:11.000,208.856,5.324,2179.146641
14 Sep 2023 15:56:12.000,208.818,5.399,2172.597596
14 Sep 2023 15:56:13.000,208.780,5.475,2166.050289
14 Sep 2023 15:56:14.000,208.741,5.551,2159.504741
14 Sep 2023 15:56:15.000,208.702,5.628,2152.960979
14 Sep 2023 15:56:16.000,208.663,5.704,2146.419025
14 Sep 2023 15:56:17.000,208.623,5.781,2139.878904
14 Sep 2023 15:56:18.000,208.583,5.859,2133.340638
14 Sep 2023 15:56:19.000,208.543,5.936,2126.804252
14 Sep 2023 15:56:20.000,208.503,6.014,2120.269773
14 Sep 2023 15:56:21.000,208.463,6.092,2113.737225
14 Sep 2023 15:56:22.000,208.422,6.170,2107.206633
14 Sep 2023 15:56:23.000,208.381,6.249,2100.678022
14 Sep 2023 15:56:24.000,208.339,6.328,2094.151420
14 Sep 2023 15:56:25.000,208.298,6.407,2087.626850
14 Sep 2023 15:56:26.000,208.256,6.487,2081.104343
14 Sep 2023 15:56:27.000,208.214,6.566,2074.583922
14 Sep 2023 15:56:28.000,208.171,6.647,2068.065617
14 Sep 2023 15:56:29.000,208.128,6.727,2061.549453
14 Sep 2023 15:56:30.000,208.085,6.808,2055.035460
14 Sep 2023 15:56:31.000,208.042,6.889,2048.523662
14 Sep 2023 15:56:32.000,207.998,6.970,2042.014093
14 Sep 2023 15:56:33.000,207.954,7.052,2035.506779
14 Sep 2023 15:56:34.000,207.910,7.134,2029.001749
14 Sep 2023 15:56:35.000,207.865,7.216,2022.499033
14 Sep 2023 15:56:36.000,207.820,7.299,2015.998659
14 Sep 2023 15:56:37.000,207.775,7.382,2009.500660
14 Sep 2023 15:56:38.000,207.729,7.465,2003.005065
14 Sep 2023 15:56:39.000,207.684,7.549,1996.511905
14 Sep 2023 15:56:40.000,207.637,7.633,1990.021211
14 Sep 2023 15:56:41.000,207.591,7.717,1983.533015
14 Sep 2023 15:56:42.000,207.544,7.802,1977.047347
14 Sep 2023 15:56:43.000,207.497,7.887,1970.564243
14 Sep 2023 15:56:44.000,207.449,7.972,1964.083733
14 Sep 2023 15:56:45.000,207.401,8.058,1957.605852
14 Sep 2023 15:56:46.000,207.353,8.144,1951.130632
14 Sep 2023 15:56:47.000,207.304,8.231,1944.658107
14 Sep 2023 15:56:48.000,207.255,8.318,1938.188313
14 Sep 2023 15:56:49.000,207.206,8.405,1931.721281
14 Sep 2023 15:56:50.000,207.156,8.492,1925.257051
14 Sep 2023 15:56:51.000,207.106,8.580,1918.795656
14 Sep 2023 15:56:52.000,207.056,8.669,1912.337133
14 Sep 2023 15:56:53.000,207.005,8.757,1905.881517
14 Sep 2023 15:56:54.000,206.954,8.846,1899.428847
14 Sep 2023 15:56:55.000,206.902,8.936,1892.979158
14 Sep 2023 15:56:56.000,206.850,9.026,1886.532491
14 Sep 2023 15:56:57.000,206.798,9.116,1880.088883
14 Sep 2023 15:56:58.000,206.745,9.207,1873.648372
14 Sep 2023 15:56:59.000,206.692,9.298,1867.210999
14 Sep 2023 15:57:00.000,206.639,9.389,1860.776803
14 Sep 2023 15:57:01.000,206.585,9.481,1854.345824
14 Sep 2023 15:57:02.000,206.530,9.573,1847.918102
14 Sep 2023 15:57:03.000,206.476,9.666,1841.493681
14 Sep 2023 15:57:04.000,206.420,9.759,1835.072602
14 Sep 2023 15:57:05.000,206.365,9.853,1828.654907
14 Sep 2023 15:57:06.000,206.309,9.947,1822.240639
14 Sep 2023 15:57:07.000,206.252,10.041,1815.829843
14 Sep 2023 15:57:08.000,206.195,10.136,1809.422561
14 Sep 2023 15:57:09.000,206.138,10.231,1803.018838
14 Sep 2023 15:57:10.000,206.080,10.327,1796.618721
14 Sep 2023 15:57:11.000,206.021,10.423,1790.222256
14 Sep 2023 15:57:12.000,205.963,10.520,1783.829488
14 Sep 2023 15:57:13.000,205.903,10.617,1777.440465
14 Sep 2023 15:57:14.000,205.843,10.715,1771.055235
14 Sep 2023 15:57:15.000,205.783,10.813,1764.673846
14 Sep 2023 15:57:16.000,205.723,10.911,1758.296345
14 Sep 2023 15:57:17.000,205.661,11.010,1751.922786
14 Sep 2023 15:57:18.000,205.600,11.110,1745.553217
14 Sep 2023 15:57:19.000,205.537,11.210,1739.187690
14 Sep 2023 15:57:20.000,205.475,11.310,1732.826256
14 Sep 2023 15:57:21.000,205.411,11.411,1726.468968
14 Sep 2023 15:57:22.000,205.348,11.512,1720.115878
14 Sep 2023 15:57:23.000,205.283,11.614,1713.767042
14 Sep 2023 15:57:24.000,205.218,11.717,1707.422513
14 Sep 2023 15:57:25.000,205.153,11.820,1701.082345
14 Sep 2023 15:57:26.000,205.087,11.923,1694.746598
14 Sep 2023 15:57:27.000,205.020,12.027,1688.415327
14 Sep 2023 15:57:28.000,204.953,12.132,1682.088589
14 Sep 2023 15:57:29.000,204.886,12.237,1675.766444
14 Sep 2023 15:57:30.000,204.817,12.342,1669.448951
14 Sep 2023 15:57:31.000,204.749,12.449,1663.136170
14 Sep 2023 15:57:32.000,204.679,12.555,1656.828162
14 Sep 2023 15:57:33.000,204.609,12.663,1650.524988
14 Sep 2023 15:57:34.000,204.539,12.770,1644.226711
14 Sep 2023 15:57:35.000,204.467,12.879,1637.933396
14 Sep 2023 15:57:36.000,204.395,12.988,1631.645108
14 Sep 2023 15:57:37.000,204.323,13.097,1625.361911
14 Sep 2023 15:57:38.000,204.250,13.207,1619.083871
14 Sep 2023 15:57:39.000,204.176,13.318,1612.811057
14 Sep 2023 15:57:40.000,204.101,13.429,1606.543537
14 Sep 2023 15:57:41.000,204.026,13.541,1600.281379
14 Sep 2023 15:57:42.000,203.951,13.654,1594.024654
14 Sep 2023 15:57:43.000,203.874,13.767,1587.773434
14 Sep 2023 15:57:44.000,203.797,13.881,1581.527791
14 Sep 2023 15:57:45.000,203.719,13.995,1575.287797
14 Sep 2023 15:57:46.000,203.640,14.110,1569.053530
14 Sep 2023 15:57:47.000,203.561,14.226,1562.825063
14 Sep 2023 15:57:48.000,203.481,14.342,1556.602473
14 Sep 2023 15:57:49.000,203.400,14.459,1550.385838
14 Sep 2023 15:57:50.000,203.319,14.577,1544.175237
14 Sep 2023 15:57:51.000,203.236,14.695,1537.970751
14 Sep 2023 15:57:52.000,203.153,14.814,1531.772460
14 Sep 2023 15:57:53.000,203.070,14.934,1525.580448
14 Sep 2023 15:57:54.000,202.985,15.054,1519.394798
14 Sep 2023 15:57:55.000,202.899,15.175,1513.215594
14 Sep 2023 15:57:56.000,202.813,15.297,1507.042925
14 Sep 2023 15:57:57.000,202.726,15.419,1500.876876
14 Sep 2023 15:57:58.000,202.638,15.542,1494.717537
14 Sep 2023 15:57:59.000,202.549,15.666,1488.564998
14 Sep 2023 15:58:00.000,202.460,15.790,1482.419351
14 Sep 2023 15:58:01.000,202.369,15.916,1476.280690
14 Sep 2023 15:58:02.000,202.278,16.042,1470.149109
14 Sep 2023 15:58:03.000,202.185,16.168,1464.024703
14 Sep 2023 15:58:04.000,202.092,16.296,1457.907570
14 Sep 2023 15:58:05.000,201.998,16.424,1451.797809
14 Sep 2023 15:58:06.000,201.903,16.553,1445.695521
14 Sep 2023 15:58:07.000,201.807,16.683,1439.600806
14 Sep 2023 15:58:08.000,201.710,16.814,1433.513770
14 Sep 2023 15:58:09.000,201.612,16.945,1427.434516
14 Sep 2023 15:58:10.000,201.513,17.077,1421.363153
14 Sep 2023 15:58:11.000,201.413,17.210,1415.299787
14 Sep 2023 15:58:12.000,201.312,17.344,1409.244530
14 Sep 2023 15:58:13.000,201.210,17.479,1403.197493
14 Sep 2023 15:58:14.000,201.107,17.615,1397.158790
14 Sep 2023 15:58:15.000,201.003,17.751,1391.128537
14 Sep 2023 15:58:16.000,200.898,17.888,1385.106850
14 Sep 2023 15:58:17.000,200.791,18.026,1379.093849
14 Sep 2023 15:58:18.000,200.684,18.165,1373.089654
14 Sep 2023 15:58:19.000,200.575,18.305,1367.094389
14 Sep 2023 15:58:20.000,200.466,18.445,1361.108178
14 Sep 2023 15:58:21.000,200.355,18.587,1355.131148
14 Sep 2023 15:58:22.000,200.243,18.729,1349.163428
14 Sep 2023 15:58:23.000,200.129,18.873,1343.205149
14 Sep 2023 15:58:24.000,200.015,19.017,1337.256444
14 Sep 2023 15:58:25.000,199.899,19.162,1331.317448
14 Sep 2023 15:58:26.000,199.782,19.309,1325.388298
14 Sep 2023 15:58:27.000,199.664,19.456,1319.469134
14 Sep 2023 15:58:28.000,199.544,19.604,1313.560097
14 Sep 2023 15:58:29.000,199.423,19.753,1307.661332
14 Sep 2023 15:58:30.000,199.301,19.903,1301.772985
14 Sep 2023 15:58:31.000,199.177,20.054,1295.895204
14 Sep 2023 15:58:32.000,199.052,20.206,1290.028142
14 Sep 2023 15:58:33.000,198.926,20.359,1284.171950
14 Sep 2023 15:58:34.000,198.798,20.512,1278.326786
14 Sep 2023 15:58:35.000,198.669,20.667,1272.492808
14 Sep 2023 15:58:36.000,198.538,20.823,1266.670178
14 Sep 2023 15:58:37.000,198.406,20.980,1260.859058
14 Sep 2023 15:58:38.000,198.272,21.139,1255.059618
14 Sep 2023 15:58:39.000,198.136,21.298,1249.272023
14 Sep 2023 15:58:40.000,197.999,21.458,1243.496447
14 Sep 2023 15:58:41.000,197.861,21.619,1237.733065
14 Sep 2023 15:58:42.000,197.721,21.781,1231.982055
14 Sep 2023 15:58:43.000,197.579,21.945,1226.243596
14 Sep 2023 15:58:44.000,197.435,22.109,1220.517874
14 Sep 2023 15:58:45.000,197.290,22.275,1214.805074
14 Sep 2023 15:58:46.000,197.143,22.442,1209.105385
14 Sep 2023 15:58:47.000,196.994,22.610,1203.419002
14 Sep 2023 15:58:48.000,196.844,22.779,1197.746120
14 Sep 2023 15:58:49.000,196.691,22.949,1192.086938
14 Sep 2023 15:58:50.000,196.537,23.120,1186.441659
14 Sep 2023 15:58:51.000,196.381,23.293,1180.810487
14 Sep 2023 15:58:52.000,196.223,23.466,1175.193633
14 Sep 2023 15:58:53.000,196.063,23.641,1169.591310
14 Sep 2023 15:58:54.000,195.901,23.817,1164.003733
14 Sep 2023 15:58:55.000,195.737,23.994,1158.431123
14 Sep 2023 15:58:56.000,195.571,24.173,1152.873702
14 Sep 2023 15:58:57.000,195.403,24.352,1147.331699
14 Sep 2023 15:58:58.000,195.232,24.533,1141.805343
14 Sep 2023 15:58:59.000,195.060,24.715,1136.294869
14 Sep 2023 15:59:00.000,194.885,24.899,1130.800516
14 Sep 2023 15:59:01.000,194.708,25.083,1125.322526
14 Sep 2023 15:59:02.000,194.529,25.269,1119.861145
14 Sep 2023 15:59:03.000,194.347,25.456,1114.416625
14 Sep 2023 15:59:04.000,194.163,25.645,1108.989219
14 Sep 2023 15:59:05.000,193.977,25.834,1103.579186
14 Sep 2023 15:59:06.000,193.788,26.025,1098.186790
14 Sep 2023 15:59:07.000,193.596,26.218,1092.812296
14 Sep 2023 15:59:08.000,193.403,26.411,1087.455979
14 Sep 2023 15:59:09.000,193.206,26.606,1082.118111
14 Sep 2023 15:59:10.000,193.007,26.802,1076.798976
14 Sep 2023 15:59:11.000,192.805,27.000,1071.498856
14 Sep 2023 15:59:12.000,192.600,27.198,1066.218043
14 Sep 2023 15:59:13.000,192.393,27.399,1060.956832
14 Sep 2023 15:59:14.000,192.182,27.600,1055.715519
14 Sep 2023 15:59:15.000,191.969,27.803,1050.494409
14 Sep 2023 15:59:16.000,191.753,28.007,1045.293812
14 Sep 2023 15:59:17.000,191.534,28.212,1040.114041
14 Sep 2023 15:59:18.000,191.312,28.419,1034.955414
14 Sep 2023 15:59:19.000,191.086,28.627,1029.818255
14 Sep 2023 15:59:20.000,190.858,28.837,1024.702893
14 Sep 2023 15:59:21.000,190.626,29.048,1019.609662
14 Sep 2023 15:59:22.000,190.391,29.260,1014.538900
14 Sep 2023 15:59:23.000,190.152,29.474,1009.490953
14 Sep 2023 15:59:24.000,189.910,29.688,1004.466170
14 Sep 2023 15:59:25.000,189.665,29.905,999.464906
14 Sep 2023 15:59:26.000,189.416,30.122,994.487522
14 Sep 2023 15:59:27.000,189.163,30.341,989.534384
14 Sep 2023 15:59:28.000,188.907,30.561,984.605863
14 Sep 2023 15:59:29.000,188.647,30.783,979.702337
14 Sep 2023 15:59:30.000,188.383,31.006,974.824187
14 Sep 2023 15:59:31.000,188.115,31.230,969.971804
14 Sep 2023 15:59:32.000,187.843,31.456,965.145581
14 Sep 2023 15:59:33.000,187.567,31.683,960.345917
14 Sep 2023 15:59:34.000,187.286,31.911,955.573219
14 Sep 2023 15:59:35.000,187.002,32.140,950.827899
14 Sep 2023 15:59:36.000,186.713,32.371,946.110372
14 Sep 2023 15:59:37.000,186.420,32.603,941.421064
14 Sep 2023 15:59:38.000,186.122,32.836,936.760402
14 Sep 2023 15:59:39.000,185.820,33.071,932.128823
14 Sep 2023 15:59:40.000,185.513,33.307,927.526767
14 Sep 2023 15:59:41.000,185.201,33.543,922.954680
14 Sep 2023 15:59:42.000,184.885,33.781,918.413016
14 Sep 2023 15:59:43.000,184.563,34.021,913.902234
14 Sep 2023 15:59:44.000,184.237,34.261,909.422797
14 Sep 2023 15:59:45.000,183.905,34.502,904.975178
14 Sep 2023 15:59:46.000,183.568,34.745,900.559852
14 Sep 2023 15:59:47.000,183.226,34.989,896.177301
14 Sep 2023 15:59:48.000,182.878,35.233,891.828015
14 Sep 2023 15:59:49.000,182.525,35.479,887.512486
14 Sep 2023 15:59:50.000,182.166,35.725,883.231215
14 Sep 2023 15:59:51.000,181.801,35.973,878.984708
14 Sep 2023 15:59:52.000,181.430,36.221,874.773475
14 Sep 2023 15:59:53.000,181.054,36.470,870.598032
14 Sep 2023 15:59:54.000,180.671,36.720,866.458904
14 Sep 2023 15:59:55.000,180.282,36.971,862.356616
14 Sep 2023 15:59:56.000,179.887,37.222,858.291702
14 Sep 2023 15:59:57.000,179.485,37.474,854.264700
14 Sep 2023 15:59:58.000,179.077,37.727,850.276154
14 Sep 2023 15:59:59.000,178.662,37.980,846.326612
14 Sep 2023 16:00:00.000,178.240,38.234,842.416626
14 Sep 2023 16:00:01.000,177.811,38.488,838.546755
14 Sep 2023 16:00:02.000,177.375,38.742,834.717562
14 Sep 2023 16:00:03.000,176.932,38.997,830.929612
14 Sep 2023 16:00:04.000,176.482,39.252,827.183477
14 Sep 2023 16:00:05.000,176.025,39.507,823.479732
14 Sep 2023 16:00:06.000,175.559,39.762,819.818955
14 Sep 2023 16:00:07.000,175.086,40.017,816.201730
14 Sep 2023 16:00:08.000,174.606,40.272,812.628642
14 Sep 2023 16:00:09.000,174.117,40.527,809.100279
14 Sep 2023 16:00:10.000,173.621,40.781,805.617233
14 Sep 2023 16:00:11.000,173.116,41.036,802.180100
14 Sep 2023 16:00:12.000,172.603,41.289,798.789474
14 Sep 2023 16:00:13.000,172.081,41.542,795.445956
14 Sep 2023 16:00:14.000,171.551,41.795,792.150145
14 Sep 2023 16:00:15.000,171.012,42.046,788.902643
14 Sep 2023 16:00:16.000,170.465,42.297,785.704053
14 Sep 2023 16:00:17.000,169.909,42.547,782.554979
14 Sep 2023 16:00:18.000,169.343,42.795,779.456023
14 Sep 2023 16:00:19.000,168.769,43.042,776.407791
14 Sep 2023 16:00:20.000,168.185,43.288,773.410885
14 Sep 2023 16:00:21.000,167.592,43.533,770.465907
14 Sep 2023 16:00:22.000,166.990,43.775,767.573459
14 Sep 2023 16:00:23.000,166.378,44.016,764.734140
14 Sep 2023 16:00:24.000,165.757,44.255,761.948547
14 Sep 2023 16:00:25.000,165.126,44.492,759.217275
14 Sep 2023 16:00:26.000,164.485,44.726,756.540916
14 Sep 2023 16:00:27.000,163.835,44.958,753.920058
14 Sep 2023 16:00:28.000,163.175,45.188,751.355284
14 Sep 2023 16:00:29.000,162.505,45.414,748.847173
14 Sep 2023 16:00:30.000,161.825,45.638,746.396300
14 Sep 2023 16:00:31.000,161.135,45.859,744.003233
14 Sep 2023 16:00:32.000,160.435,46.077,741.668534
14 Sep 2023 16:00:33.000,159.725,46.291,739.392760
14 Sep 2023 16:00:34.000,159.006,46.502,737.176459
14 Sep 2023 16:00:35.000,158.276,46.709,735.020171
14 Sep 2023 16:00:36.000,157.537,46.912,732.924427
14 Sep 2023 16:00:37.000,156.788,47.111,730.889753
14 Sep 2023 16:00:38.000,156.029,47.305,728.916662
14 Sep 2023 16:00:39.000,155.260,47.495,727.005656
14 Sep 2023 16:00:40.000,154.482,47.681,725.157230
14 Sep 2023 16:00:41.000,153.694,47.862,723.371865
14 Sep 2023 16:00:42.000,152.897,48.037,721.650032
14 Sep 2023 16:00:43.000,152.091,48.208,719.992188
14 Sep 2023 16:00:44.000,151.276,48.373,718.398778
14 Sep 2023 16:00:45.000,150.452,48.533,716.870234
14 Sep 2023 16:00:46.000,149.620,48.687,715.406973
14 Sep 2023 16:00:47.000,148.779,48.835,714.009400
14 Sep 2023 16:00:48.000,147.930,48.977,712.677900
14 Sep 2023 16:00:49.000,147.073,49.113,711.412849
14 Sep 2023 16:00:50.000,146.209,49.243,710.214600
14 Sep 2023 16:00:51.000,145.337,49.366,709.083495
14 Sep 2023 16:00:52.000,144.458,49.482,708.019859
14 Sep 2023 16:00:53.000,143.573,49.592,707.023995
14 Sep 2023 16:00:54.000,142.681,49.695,706.096192
14 Sep 2023 16:00:55.000,141.783,49.790,705.236721
14 Sep 2023 16:00:56.000,140.880,49.879,704.445831
14 Sep 2023 16:00:57.000,139.971,49.960,703.723755
14 Sep 2023 16:00:58.000,139.058,50.034,703.070706
14 Sep 2023 16:00:59.000,138.141,50.100,702.486879
14 Sep 2023 16:01:00.000,137.220,50.159,701.972445
14 Sep 2023 16:01:01.000,136.295,50.210,701.527558
14 Sep 2023 16:01:02.000,135.367,50.254,701.152352
14 Sep 2023 16:01:03.000,134.437,50.290,700.846938
14 Sep 2023 16:01:04.000,133.505,50.317,700.611409
14 Sep 2023 16:01:05.000,132.572,50.337,700.445836
14 Sep 2023 16:01:06.000,131.638,50.350,700.350268
14 Sep 2023 16:01:07.000,130.703,50.354,700.324734
14 Sep 2023 16:01:08.000,129.768,50.350,700.369243
14 Sep 2023 16:01:09.000,128.833,50.339,700.483780
14 Sep 2023 16:01:10.000,127.900,50.319,700.668312
14 Sep 2023 16:01:11.000,126.968,50.292,700.922783
14 Sep 2023 16:01:12.000,126.038,50.257,701.247116
14 Sep 2023 16:01:13.000,125.111,50.214,701.641215
14 Sep 2023 16:01:14.000,124.186,50.163,702.104962
14 Sep 2023 16:01:15.000,123.265,50.105,702.638219
14 Sep 2023 16:01:16.000,122.348,50.039,703.240826
14 Sep 2023 16:01:17.000,121.435,49.966,703.912604
14 Sep 2023 16:01:18.000,120.527,49.886,704.653358
14 Sep 2023 16:01:19.000,119.624,49.798,705.462867
14 Sep 2023 16:01:20.000,118.727,49.703,706.340895
14 Sep 2023 16:01:21.000,117.835,49.600,707.287183
14 Sep 2023 16:01:22.000,116.950,49.491,708.301462
14 Sep 2023 16:01:23.000,116.072,49.376,709.383436
14 Sep 2023 16:01:24.000,115.200,49.253,710.532792
14 Sep 2023 16:01:25.000,114.336,49.124,711.749208
14 Sep 2023 16:01:26.000,113.480,48.989,713.032335
14 Sep 2023 16:01:27.000,112.631,48.848,714.381817
14 Sep 2023 16:01:28.000,111.791,48.700,715.797273
14 Sep 2023 16:01:29.000,110.959,48.547,717.278311
14 Sep 2023 16:01:30.000,110.136,48.388,718.824528
14 Sep 2023 16:01:31.000,109.321,48.223,720.435497
14 Sep 2023 16:01:32.000,108.515,48.054,722.110786
14 Sep 2023 16:01:33.000,107.719,47.879,723.849950
14 Sep 2023 16:01:34.000,106.932,47.699,725.652522
14 Sep 2023 16:01:35.000,106.154,47.514,727.518033
14 Sep 2023 16:01:36.000,105.386,47.325,729.445995
14 Sep 2023 16:01:37.000,104.628,47.131,731.435913
14 Sep 2023 16:01:38.000,103.880,46.933,733.487284
14 Sep 2023 16:01:39.000,103.141,46.730,735.599586
14 Sep 2023 16:01:40.000,102.412,46.524,737.772297
14 Sep 2023 16:01:41.000,101.693,46.315,740.004884
14 Sep 2023 16:01:42.000,100.984,46.101,742.296799
14 Sep 2023 16:01:43.000,100.284,45.884,744.647496
14 Sep 2023 16:01:44.000,99.595,45.664,747.056416
14 Sep 2023 16:01:45.000,98.916,45.441,749.522995
14 Sep 2023 16:01:46.000,98.246,45.215,752.046667
14 Sep 2023 16:01:47.000,97.587,44.987,754.626850
14 Sep 2023 16:01:48.000,96.937,44.756,757.262967
14 Sep 2023 16:01:49.000,96.297,44.522,759.954432
14 Sep 2023 16:01:50.000,95.667,44.286,762.700657
14 Sep 2023 16:01:51.000,95.046,44.048,765.501050
14 Sep 2023 16:01:52.000,94.435,43.808,768.355014
14 Sep 2023 16:01:53.000,93.833,43.567,771.261953
14 Sep 2023 16:01:54.000,93.241,43.323,774.221266
14 Sep 2023 16:01:55.000,92.658,43.078,777.232352
14 Sep 2023 16:01:56.000,92.084,42.832,780.294609
14 Sep 2023 16:01:57.000,91.519,42.585,783.407432
14 Sep 2023 16:01:58.000,90.964,42.336,786.570219
14 Sep 2023 16:01:59.000,90.417,42.086,789.782365
14 Sep 2023 16:02:00.000,89.879,41.835,793.043267
14 Sep 2023 16:02:01.000,89.349,41.584,796.352323
14 Sep 2023 16:02:02.000,88.829,41.332,799.708932
14 Sep 2023 16:02:03.000,88.316,41.079,803.112493
14 Sep 2023 16:02:04.000,87.812,40.826,806.562408
14 Sep 2023 16:02:05.000,87.316,40.572,810.058078
14 Sep 2023 16:02:06.000,86.828,40.319,813.598916
14 Sep 2023 16:02:07.000,86.348,40.064,817.184328
14 Sep 2023 16:02:08.000,85.875,39.810,820.813725
14 Sep 2023 16:02:09.000,85.411,39.556,824.486523
14 Sep 2023 16:02:10.000,84.954,39.302,828.202137
14 Sep 2023 16:02:11.000,84.504,39.048,831.959996
14 Sep 2023 16:02:12.000,84.062,38.794,835.759523
14 Sep 2023 16:02:13.000,83.627,38.541,839.600147
14 Sep 2023 16:02:14.000,83.198,38.288,843.481300
14 Sep 2023 16:02:15.000,82.777,38.035,847.402428
14 Sep 2023 16:02:16.000,82.363,37.783,851.362970
14 Sep 2023 16:02:17.000,81.955,37.531,855.362371
14 Sep 2023 16:02:18.000,81.554,37.280,859.400091
14 Sep 2023 16:02:19.000,81.159,37.029,863.475585
14 Sep 2023 16:02:20.000,80.771,36.780,867.588312
14 Sep 2023 16:02:21.000,80.389,36.531,871.737748
14 Sep 2023 16:02:22.000,80.013,36.282,875.923363
14 Sep 2023 16:02:23.000,79.643,36.035,880.144633
14 Sep 2023 16:02:24.000,79.279,35.788,884.401049
14 Sep 2023 16:02:25.000,78.920,35.543,888.692095
14 Sep 2023 16:02:26.000,78.567,35.298,893.017274
14 Sep 2023 16:02:27.000,78.220,35.054,897.376081
14 Sep 2023 16:02:28.000,77.878,34.812,901.768030
14 Sep 2023 16:02:29.000,77.542,34.570,906.192631
14 Sep 2023 16:02:30.000,77.211,34.329,910.649400
14 Sep 2023 16:02:31.000,76.885,34.090,915.137869
14 Sep 2023 16:02:32.000,76.564,33.852,919.657561
14 Sep 2023 16:02:33.000,76.248,33.614,924.208021
14 Sep 2023 16:02:34.000,75.937,33.378,928.788784
14 Sep 2023 16:02:35.000,75.630,33.143,933.399404
14 Sep 2023 16:02:36.000,75.329,32.910,938.039436
14 Sep 2023 16:02:37.000,75.031,32.677,942.708437
14 Sep 2023 16:02:38.000,74.739,32.446,947.405978
14 Sep 2023 16:02:39.000,74.451,32.216,952.131625
14 Sep 2023 16:02:40.000,74.167,31.988,956.884965
14 Sep 2023 16:02:41.000,73.887,31.760,961.665573
14 Sep 2023 16:02:42.000,73.612,31.534,966.473044
14 Sep 2023 16:02:43.000,73.340,31.309,971.306976
14 Sep 2023 16:02:44.000,73.073,31.086,976.166965
14 Sep 2023 16:02:45.000,72.809,30.864,981.052624
14 Sep 2023 16:02:46.000,72.550,30.643,985.963560
14 Sep 2023 16:02:47.000,72.294,30.423,990.899395
14 Sep 2023 16:02:48.000,72.042,30.205,995.859757
14 Sep 2023 16:02:49.000,71.793,29.988,1000.844268
14 Sep 2023 16:02:50.000,71.548,29.773,1005.852568
14 Sep 2023 16:02:51.000,71.307,29.558,1010.884301
14 Sep 2023 16:02:52.000,71.069,29.345,1015.939106
14 Sep 2023 16:02:53.000,70.835,29.134,1021.016639
14 Sep 2023 16:02:54.000,70.603,28.924,1026.116559
14 Sep 2023 16:02:55.000,70.375,28.715,1031.238523
14 Sep 2023 16:02:56.000,70.151,28.507,1036.382201
14 Sep 2023 16:02:57.000,69.929,28.301,1041.547269
14 Sep 2023 16:02:58.000,69.710,28.097,1046.733398
14 Sep 2023 16:02:59.000,69.495,27.893,1051.940275
14 Sep 2023 16:03:00.000,69.282,27.691,1057.167586
14 Sep 2023 16:03:01.000,69.072,27.490,1062.415028
14 Sep 2023 16:03:02.000,68.865,27.291,1067.682291
14 Sep 2023 16:03:03.000,68.661,27.092,1072.969082
14 Sep 2023 16:03:04.000,68.460,26.896,1078.275106
14 Sep 2023 16:03:05.000,68.261,26.700,1083.600080
14 Sep 2023 16:03:06.000,68.065,26.506,1088.943711
14 Sep 2023 16:03:07.000,67.872,26.313,1094.305726
14 Sep 2023 16:03:08.000,67.681,26.121,1099.685848
14 Sep 2023 16:03:09.000,67.493,25.931,1105.083807
14 Sep 2023 16:03:10.000,67.307,25.742,1110.499340
14 Sep 2023 16:03:11.000,67.124,25.554,1115.932180
14 Sep 2023 16:03:12.000,66.943,25.367,1121.382071
14 Sep 2023 16:03:13.000,66.764,25.182,1126.848760
14 Sep 2023 16:03:14.000,66.588,24.998,1132.331999
14 Sep 2023 16:03:15.000,66.413,24.815,1137.831540
14 Sep 2023 16:03:16.000,66.241,24.634,1143.347148
14 Sep 2023 16:03:17.000,66.072,24.453,1148.878577
14 Sep 2023 16:03:18.000,65.904,24.274,1154.425597
14 Sep 2023 16:03:19.000,65.739,24.096,1159.987978
14 Sep 2023 16:03:20.000,65.575,23.920,1165.565495
14 Sep 2023 16:03:21.000,65.414,23.744,1171.157924
14 Sep 2023 16:03:22.000,65.254,23.570,1176.765048
14 Sep 2023 16:03:23.000,65.097,23.397,1182.386653
14 Sep 2023 16:03:24.000,64.941,23.225,1188.022523
14 Sep 2023 16:03:25.000,64.788,23.054,1193.672451
14 Sep 2023 16:03:26.000,64.636,22.884,1199.336232
14 Sep 2023 16:03:27.000,64.486,22.716,1205.013666
14 Sep 2023 16:03:28.000,64.338,22.548,1210.704554
14 Sep 2023 16:03:29.000,64.192,22.382,1216.408700
14 Sep 2023 16:03:30.000,64.047,22.217,1222.125913
14 Sep 2023 16:03:31.000,63.904,22.053,1227.856003
14 Sep 2023 16:03:32.000,63.763,21.890,1233.598789
14 Sep 2023 16:03:33.000,63.623,21.728,1239.354081
14 Sep 2023 16:03:34.000,63.485,21.567,1245.121702
14 Sep 2023 16:03:35.000,63.349,21.407,1250.901475
14 Sep 2023 16:03:36.000,63.214,21.249,1256.693227
14 Sep 2023 16:03:37.000,63.081,21.091,1262.496786
14 Sep 2023 16:03:38.000,62.950,20.934,1268.311983
14 Sep 2023 16:03:39.000,62.819,20.779,1274.138653
14 Sep 2023 16:03:40.000,62.691,20.624,1279.976633
14 Sep 2023 16:03:41.000,62.564,20.471,1285.825761
14 Sep 2023 16:03:42.000,62.438,20.318,1291.685881
14 Sep 2023 16:03:43.000,62.313,20.167,1297.556836
14 Sep 2023 16:03:44.000,62.190,20.016,1303.438474
14 Sep 2023 16:03:45.000,62.069,19.866,1309.330645
14 Sep 2023 16:03:46.000,61.949,19.718,1315.233199
14 Sep 2023 16:03:47.000,61.830,19.570,1321.145992
14 Sep 2023 16:03:48.000,61.712,19.423,1327.068880
14 Sep 2023 16:03:49.000,61.596,19.278,1333.001722
14 Sep 2023 16:03:50.000,61.481,19.133,1338.944379
14 Sep 2023 16:03:51.000,61.367,18.989,1344.896714
14 Sep 2023 16:03:52.000,61.254,18.846,1350.858593
14 Sep 2023 16:03:53.000,61.143,18.704,1356.829883
14 Sep 2023 16:03:54.000,61.033,18.563,1362.810454
14 Sep 2023 16:03:55.000,60.924,18.422,1368.800178
14 Sep 2023 16:03:56.000,60.816,18.283,1374.798928
14 Sep 2023 16:03:57.000,60.709,18.144,1380.806581
14 Sep 2023 16:03:58.000,60.603,18.006,1386.823013
14 Sep 2023 16:03:59.000,60.499,17.870,1392.848104
14 Sep 2023 16:04:00.000,60.395,17.734,1398.881736
14 Sep 2023 16:04:01.000,60.293,17.598,1404.923792
14 Sep 2023 16:04:02.000,60.192,17.464,1410.974158
14 Sep 2023 16:04:03.000,60.091,17.331,1417.032719
14 Sep 2023 16:04:04.000,59.992,17.198,1423.099364
14 Sep 2023 16:04:05.000,59.894,17.066,1429.173984
14 Sep 2023 16:04:06.000,59.797,16.935,1435.256472
14 Sep 2023 16:04:07.000,59.700,16.804,1441.346719
14 Sep 2023 16:04:08.000,59.605,16.675,1447.444623
14 Sep 2023 16:04:09.000,59.511,16.546,1453.550079
14 Sep 2023 16:04:10.000,59.417,16.418,1459.662986
14 Sep 2023 16:04:11.000,59.325,16.291,1465.783244
14 Sep 2023 16:04:12.000,59.233,16.164,1471.910754
14 Sep 2023 16:04:13.000,59.143,16.039,1478.045420
14 Sep 2023 16:04:14.000,59.053,15.914,1484.187147
14 Sep 2023 16:04:15.000,58.964,15.789,1490.335839
14 Sep 2023 16:04:16.000,58.876,15.666,1496.491404
14 Sep 2023 16:04:17.000,58.789,15.543,1502.653751
14 Sep 2023 16:04:18.000,58.703,15.421,1508.822790
14 Sep 2023 16:04:19.000,58.617,15.299,1514.998432
14 Sep 2023 16:04:20.000,58.532,15.179,1521.180591
14 Sep 2023 16:04:21.000,58.449,15.059,1527.369180
14 Sep 2023 16:04:22.000,58.365,14.939,1533.564114
14 Sep 2023 16:04:23.000,58.283,14.821,1539.765309
14 Sep 2023 16:04:24.000,58.202,14.703,1545.972682
14 Sep 2023 16:04:25.000,58.121,14.585,1552.186156
14 Sep 2023 16:04:26.000,58.041,14.469,1558.405649
14 Sep 2023 16:04:27.000,57.962,14.353,1564.631081
14 Sep 2023 16:04:28.000,57.883,14.237,1570.862377
14 Sep 2023 16:04:29.000,57.805,14.122,1577.099458
14 Sep 2023 16:04:30.000,57.728,14.008,1583.342251
14 Sep 2023 16:04:31.000,57.652,13.895,1589.590680
14 Sep 2023 16:04:32.000,57.576,13.782,1595.844672
14 Sep 2023 16:04:33.000,57.501,13.669,1602.104156
14 Sep 2023 16:04:34.000,57.427,13.558,1608.369060
14 Sep 2023 16:04:35.000,57.353,13.447,1614.639314
14 Sep 2023 16:04:36.000,57.280,13.336,1620.914846
14 Sep 2023 16:04:37.000,57.208,13.226,1627.195594
14 Sep 2023 16:04:38.000,57.136,13.117,1633.481489
14 Sep 2023 16:04:39.000,57.065,13.008,1639.772463
14 Sep 2023 16:04:40.000,56.995,12.900,1646.068451
14 Sep 2023 16:04:41.000,56.925,12.792,1652.369390
14 Sep 2023 16:04:42.000,56.856,12.685,1658.675216
14 Sep 2023 16:04:43.000,56.787,12.579,1664.985866
14 Sep 2023 16:04:44.000,56.719,12.473,1671.301279
14 Sep 2023 16:04:45.000,56.652,12.367,1677.621393
14 Sep 2023 16:04:46.000,56.585,12.263,1683.946146
14 Sep 2023 16:04:47.000,56.519,12.158,1690.275485
14 Sep 2023 16:04:48.000,56.453,12.054,1696.609348
14 Sep 2023 16:04:49.000,56.388,11.951,1702.947678
14 Sep 2023 16:04:50.000,56.324,11.848,1709.290419
14 Sep 2023 16:04:51.000,56.260,11.746,1715.637513
14 Sep 2023 16:04:52.000,56.196,11.644,1721.988906
14 Sep 2023 16:04:53.000,56.133,11.543,1728.344544
14 Sep 2023 16:04:54.000,56.071,11.442,1734.704373
14 Sep 2023 16:04:55.000,56.009,11.342,1741.068336
14 Sep 2023 16:04:56.000,55.948,11.242,1747.436388
14 Sep 2023 16:04:57.000,55.887,11.143,1753.808474
14 Sep 2023 16:04:58.000,55.827,11.044,1760.184543
14 Sep 2023 16:04:59.000,55.767,10.946,1766.564544
14 Sep 2023 16:05:00.000,55.708,10.848,1772.948429
14 Sep 2023 16:05:01.000,55.649,10.751,1779.336148
14 Sep 2023 16:05:02.000,55.590,10.654,1785.727650
14 Sep 2023 16:05:03.000,55.532,10.557,1792.122894
14 Sep 2023 16:05:04.000,55.475,10.461,1798.521829
14 Sep 2023 16:05:05.000,55.418,10.366,1804.924409
14 Sep 2023 16:05:06.000,55.362,10.270,1811.330589
14 Sep 2023 16:05:07.000,55.306,10.176,1817.740323
14 Sep 2023 16:05:08.000,55.250,10.081,1824.153566
14 Sep 2023 16:05:09.000,55.195,9.988,1830.570275
14 Sep 2023 16:05:10.000,55.140,9.894,1836.990403
14 Sep 2023 16:05:11.000,55.086,9.801,1843.413913
14 Sep 2023 16:05:12.000,55.032,9.709,1849.840760
14 Sep 2023 16:05:13.000,54.979,9.617,1856.270902
14 Sep 2023 16:05:14.000,54.926,9.525,1862.704298
14 Sep 2023 16:05:15.000,54.873,9.434,1869.140907
14 Sep 2023 16:05:16.000,54.821,9.343,1875.580688
14 Sep 2023 16:05:17.000,54.769,9.252,1882.023600
14 Sep 2023 16:05:18.000,54.718,9.162,1888.469608
14 Sep 2023 16:05:19.000,54.667,9.072,1894.918671
14 Sep 2023 16:05:20.000,54.616,8.983,1901.370752
14 Sep 2023 16:05:21.000,54.566,8.894,1907.825811
14 Sep 2023 16:05:22.000,54.516,8.805,1914.283812
14 Sep 2023 16:05:23.000,54.467,8.717,1920.744714
14 Sep 2023 16:05:24.000,54.418,8.629,1927.208489
14 Sep 2023 16:05:25.000,54.369,8.542,1933.675095
14 Sep 2023 16:05:26.000,54.321,8.455,1940.144499
14 Sep 2023 16:05:27.000,54.273,8.368,1946.616664
14 Sep 2023 16:05:28.000,54.225,8.282,1953.091557
14 Sep 2023 16:05:29.000,54.178,8.196,1959.569143
14 Sep 2023 16:05:30.000,54.131,8.110,1966.049384
14 Sep 2023 16:05:31.000,54.084,8.025,1972.532255
14 Sep 2023 16:05:32.000,54.038,7.940,1979.017718
14 Sep 2023 16:05:33.000,53.992,7.856,1985.505742
14 Sep 2023 16:05:34.000,53.947,7.771,1991.996293
14 Sep 2023 16:05:35.000,53.902,7.687,1998.489340
14 Sep 2023 16:05:36.000,53.857,7.604,2004.984849
14 Sep 2023 16:05:37.000,53.812,7.521,2011.482794
14 Sep 2023 16:05:38.000,53.768,7.438,2017.983142
14 Sep 2023 16:05:39.000,53.724,7.355,2024.485862
14 Sep 2023 16:05:40.000,53.681,7.273,2030.990925
14 Sep 2023 16:05:41.000,53.638,7.191,2037.498300
14 Sep 2023 16:05:42.000,53.595,7.110,2044.007955
14 Sep 2023 16:05:43.000,53.552,7.028,2050.519868
14 Sep 2023 16:05:44.000,53.510,6.947,2057.034006
14 Sep 2023 16:05:45.000,53.468,6.867,2063.550342
14 Sep 2023 16:05:46.000,53.426,6.786,2070.068847
14 Sep 2023 16:05:47.000,53.385,6.706,2076.589491
14 Sep 2023 16:05:48.000,53.343,6.627,2083.112252
14 Sep 2023 16:05:49.000,53.303,6.547,2089.637100
14 Sep 2023 16:05:50.000,53.262,6.468,2096.164009
14 Sep 2023 16:05:51.000,53.222,6.389,2102.692951
14 Sep 2023 16:05:52.000,53.182,6.311,2109.223902
14 Sep 2023 16:05:53.000,53.142,6.232,2115.756831
14 Sep 2023 16:05:54.000,53.103,6.154,2122.291720
14 Sep 2023 16:05:55.000,53.063,6.077,2128.828540
14 Sep 2023 16:05:56.000,53.025,5.999,2135.367266
14 Sep 2023 16:05:57.000,52.986,5.922,2141.907873
14 Sep 2023 16:05:58.000,52.948,5.845,2148.450338
14 Sep 2023 16:05:59.000,52.910,5.769,2154.994632
14 Sep 2023 16:06:00.000,52.872,5.693,2161.540738
14 Sep 2023 16:06:01.000,52.834,5.617,2168.088629
14 Sep 2023 16:06:02.000,52.797,5.541,2174.638282
14 Sep 2023 16:06:03.000,52.760,5.465,2181.189673
14 Sep 2023 16:06:04.000,52.723,5.390,2187.742777
14 Sep 2023 16:06:05.000,52.686,5.315,2194.297577
14 Sep 2023 16:06:06.000,52.650,5.241,2200.854047
14 Sep 2023 16:06:07.000,52.614,5.166,2207.412166
14 Sep 2023 16:06:08.000,52.578,5.092,2213.971912
14 Sep 2023 16:06:09.000,52.543,5.018,2220.533259
14 Sep 2023 16:06:10.000,52.507,4.944,2227.096192
14 Sep 2023 16:06:11.000,52.472,4.871,2233.660687
14 Sep 2023 16:06:12.000,52.437,4.798,2240.226723
14 Sep 2023 16:06:13.000,52.403,4.725,2246.794279
14 Sep 2023 16:06:14.000,52.368,4.652,2253.363335
14 Sep 2023 16:06:15.000,52.334,4.580,2259.933867
14 Sep 2023 16:06:16.000,52.300,4.508,2266.505861
14 Sep 2023 16:06:17.000,52.266,4.436,2273.079293
14 Sep 2023 16:06:18.000,52.233,4.364,2279.654145
14 Sep 2023 16:06:19.000,52.199,4.292,2286.230397
14 Sep 2023 16:06:20.000,52.166,4.221,2292.808026
14 Sep 2023 16:06:21.000,52.133,4.150,2299.387019
14 Sep 2023 16:06:22.000,52.101,4.079,2305.967354
14 Sep 2023 16:06:23.000,52.068,4.009,2312.549012
14 Sep 2023 16:06:24.000,52.036,3.938,2319.131975
14 Sep 2023 16:06:25.000,52.004,3.868,2325.716222
14 Sep 2023 16:06:26.000,51.972,3.798,2332.301739
14 Sep 2023 16:06:27.000,51.940,3.729,2338.888507
14 Sep 2023 16:06:28.000,51.909,3.659,2345.476507
14 Sep 2023 16:06:29.000,51.878,3.590,2352.065722
14 Sep 2023 16:06:30.000,51.847,3.521,2358.656130
14 Sep 2023 16:06:31.000,51.816,3.452,2365.247721
14 Sep 2023 16:06:32.000,51.785,3.383,2371.840475
14 Sep 2023 16:06:33.000,51.755,3.315,2378.434374
14 Sep 2023 16:06:34.000,51.724,3.247,2385.029402
14 Sep 2023 16:06:35.000,51.694,3.179,2391.625539
14 Sep 2023 16:06:36.000,51.664,3.111,2398.222774
14 Sep 2023 16:06:37.000,51.635,3.043,2404.821088
14 Sep 2023 16:06:38.000,51.605,2.976,2411.420465
14 Sep 2023 16:06:39.000,51.576,2.909,2418.020889
14 Sep 2023 16:06:40.000,51.546,2.842,2424.622341
14 Sep 2023 16:06:41.000,51.517,2.775,2431.224812
14 Sep 2023 16:06:42.000,51.489,2.708,2437.828281
14 Sep 2023 16:06:43.000,51.460,2.642,2444.432735
14 Sep 2023 16:06:44.000,51.432,2.576,2451.038158
14 Sep 2023 16:06:45.000,51.403,2.510,2457.644531
14 Sep 2023 16:06:46.000,51.375,2.444,2464.251846
14 Sep 2023 16:06:47.000,51.347,2.378,2470.860085
14 Sep 2023 16:06:48.000,51.319,2.313,2477.469233
14 Sep 2023 16:06:49.000,51.292,2.247,2484.079275
14 Sep 2023 16:06:50.000,51.264,2.182,2490.690194
14 Sep 2023 16:06:51.000,51.237,2.117,2497.301982
14 Sep 2023 16:06:52.000,51.210,2.053,2503.914621
14 Sep 2023 16:06:53.000,51.183,1.988,2510.528097
14 Sep 2023 16:06:54.000,51.156,1.924,2517.142397
14 Sep 2023 16:06:55.000,51.130,1.859,2523.757503
14 Sep 2023 16:06:56.000,51.103,1.795,2530.373408
14 Sep 2023 16:06:57.000,51.077,1.732,2536.990094
14 Sep 2023 16:06:58.000,51.051,1.668,2543.607550
14 Sep 2023 16:06:59.000,51.025,1.604,2550.225761
14 Sep 2023 16:07:00.000,50.999,1.541,2556.844711
14 Sep 2023 16:07:01.000,50.973,1.478,2563.464393
14 Sep 2023 16:07:02.000,50.948,1.415,2570.084791
14 Sep 2023 16:07:03.000,50.922,1.352,2576.705892
14 Sep 2023 16:07:04.000,50.897,1.289,2583.327680
14 Sep 2023 16:07:05.000,50.872,1.227,2589.950149
14 Sep 2023 16:07:06.000,50.847,1.164,2596.573283
14 Sep 2023 16:07:07.000,50.822,1.102,2603.197070
14 Sep 2023 16:07:08.000,50.797,1.040,2609.821496
14 Sep 2023 16:07:09.000,50.773,0.978,2616.446548
14 Sep 2023 16:07:10.000,50.748,0.917,2623.072219
14 Sep 2023 16:07:11.000,50.724,0.855,2629.698494
14 Sep 2023 16:07:12.000,50.700,0.794,2636.325361
14 Sep 2023 16:07:13.000,50.676,0.732,2642.952807
14 Sep 2023 16:07:14.000,50.652,0.671,2649.580819
14 Sep 2023 16:07:15.000,50.629,0.610,2656.209391
14 Sep 2023 16:07:16.000,50.605,0.550,2662.838508
14 Sep 2023 16:07:17.000,50.582,0.489,2669.468159
14 Sep 2023 16:07:18.000,50.558,0.428,2676.098332
14 Sep 2023 16:07:19.000,50.535,0.368,2682.729014
14 Sep 2023 16:07:20.000,50.512,0.308,2689.360198
14 Sep 2023 16:07:21.000,50.489,0.248,2695.991872
14 Sep 2023 16:07:22.000,50.466,0.188,2702.624023
14 Sep 2023 16:07:23.000,50.444,0.128,2709.256638
14 Sep 2023 16:07:24.000,50.421,0.068,2715.889713
14 Sep 2023 16:07:25.000,50.399,0.009,2722.523232
14 Sep 2023 16:07:25.151,50.396,0.000,2723.525062
14 Sep 2023 17:35:04.826,259.167,0.000,2713.331464
14 Sep 2023 17:35:05.000,259.178,0.010,2712.285190
14 Sep 2023 17:35:06.000,259.246,0.064,2706.261999
14 Sep 2023 17:35:07.000,259.314,0.119,2700.241864
14 Sep 2023 17:35:08.000,259.383,0.173,2694.224811
14 Sep 2023 17:35:09.000,259.452,0.228,2688.210869
14 Sep 2023 17:35:10.000,259.521,0.283,2682.200063
14 Sep 2023 17:35:11.000,259.590,0.337,2676.192421
14 Sep 2023 17:35:12.000,259.660,0.392,2670.187972
14 Sep 2023 17:35:13.000,259.730,0.447,2664.186742
14 Sep 2023 17:35:14.000,259.800,0.503,2658.188761
14 Sep 2023 17:35:15.000,259.871,0.558,2652.194056
14 Sep 2023 17:35:16.000,259.941,0.613,2646.202656
14 Sep 2023 17:35:17.000,260.013,0.669,2640.214590
14 Sep 2023 17:35:18.000,260.084,0.724,2634.229887
14 Sep 2023 17:35:19.000,260.156,0.780,2628.248576
14 Sep 2023 17:35:20.000,260.228,0.835,2622.270687
14 Sep 2023 17:35:21.000,260.301,0.891,2616.296249
14 Sep 2023 17:35:22.000,260.373,0.947,2610.325292
14 Sep 2023 17:35:23.000,260.447,1.003,2604.357847
14 Sep 2023 17:35:24.000,260.520,1.059,2598.393943
14 Sep 2023 17:35:25.000,260.594,1.116,2592.433613
14 Sep 2023 17:35:26.000,260.668,1.172,2586.476886
14 Sep 2023 17:35:27.000,260.742,1.228,2580.523794
14 Sep 2023 17:35:28.000,260.817,1.285,2574.574368
14 Sep 2023 17:35:29.000,260.892,1.342,2568.628641
14 Sep 2023 17:35:30.000,260.968,1.398,2562.686643
14 Sep 2023 17:35:31.000,261.044,1.455,2556.748408
14 Sep 2023 17:35:32.000,261.120,1.512,2550.813968
14 Sep 2023 17:35:33.000,261.196,1.569,2544.883355
14 Sep 2023 17:35:34.000,261.273,1.627,2538.956602
14 Sep 2023 17:35:35.000,261.350,1.684,2533.033744
14 Sep 2023 17:35:36.000,261.428,1.741,2527.114813
14 Sep 2023 17:35:37.000,261.506,1.799,2521.199843
14 Sep 2023 17:35:38.000,261.584,1.856,2515.288869
14 Sep 2023 17:35:39.000,261.663,1.914,2509.381925
14 Sep 2023 17:35:40.000,261.742,1.972,2503.479046
14 Sep 2023 17:35:41.000,261.821,2.030,2497.580266
14 Sep 2023 17:35:42.000,261.901,2.088,2491.685621
14 Sep 2023 17:35:43.000,261.981,2.146,2485.795147
14 Sep 2023 17:35:44.000,262.062,2.204,2479.908879
14 Sep 2023 17:35:45.000,262.143,2.263,2474.026854
14 Sep 2023 17:35:46.000,262.224,2.321,2468.149108
14 Sep 2023 17:35:47.000,262.306,2.380,2462.275677
14 Sep 2023 17:35:48.000,262.388,2.439,2456.406600
14 Sep 2023 17:35:49.000,262.470,2.497,2450.541913
14 Sep 2023 17:35:50.000,262.553,2.556,2444.681654
14 Sep 2023 17:35:51.000,262.636,2.615,2438.825865
14 Sep 2023 17:35:52.000,262.720,2.675,2432.974577
14 Sep 2023 17:35:53.000,262.804,2.734,2427.127833
14 Sep 2023 17:35:54.000,262.888,2.793,2421.285670
