xian_to_starlink-1136_Access_AER.csv

"Time (UTCG)","Azimuth (deg)","Elevation (deg)","Range (km)"
14 Sep 2023 17:37:53.053,186.778,0.000,2702.188539
14 Sep 2023 17:37:58.000,186.388,0.260,2673.587116
14 Sep 2023 17:38:03.000,185.984,0.524,2644.795225
14 Sep 2023 17:38:08.000,185.571,0.790,2616.122807
14 Sep 2023 17:38:13.000,185.149,1.058,2587.574695
14 Sep 2023 17:38:18.000,184.717,1.328,2559.155909
14 Sep 2023 17:38:23.000,184.275,1.600,2530.871660
14 Sep 2023 17:38:28.000,183.823,1.874,2502.727363
14 Sep 2023 17:38:33.000,183.361,2.150,2474.728642
14 Sep 2023 17:38:38.000,182.888,2.428,2446.881339
14 Sep 2023 17:38:43.000,182.403,2.708,2419.191525
14 Sep 2023 17:38:48.000,181.907,2.989,2391.665505
14 Sep 2023 17:38:53.000,181.399,3.273,2364.309835
14 Sep 2023 17:38:58.000,180.878,3.559,2337.131325
14 Sep 2023 17:39:03.000,180.345,3.847,2310.137051
14 Sep 2023 17:39:08.000,179.799,4.136,2283.334366
14 Sep 2023 17:39:13.000,179.239,4.428,2256.730911
14 Sep 2023 17:39:18.000,178.665,4.721,2230.334623
14 Sep 2023 17:39:23.000,178.077,5.017,2204.153750
14 Sep 2023 17:39:28.000,177.474,5.314,2178.196856
14 Sep 2023 17:39:33.000,176.855,5.613,2152.472835
14 Sep 2023 17:39:38.000,176.221,5.914,2126.990921
14 Sep 2023 17:39:43.000,175.571,6.216,2101.760701
14 Sep 2023 17:39:48.000,174.904,6.520,2076.792118
14 Sep 2023 17:39:53.000,174.220,6.825,2052.095488
14 Sep 2023 17:39:58.000,173.518,7.132,2027.681506
14 Sep 2023 17:40:03.000,172.798,7.440,2003.561254
14 Sep 2023 17:40:08.000,172.060,7.749,1979.746209
14 Sep 2023 17:40:13.000,171.302,8.059,1956.248252
14 Sep 2023 17:40:18.000,170.524,8.370,1933.079672
14 Sep 2023 17:40:23.000,169.727,8.681,1910.253168
14 Sep 2023 17:40:28.000,168.908,8.993,1887.781855
14 Sep 2023 17:40:33.000,168.068,9.305,1865.679266
14 Sep 2023 17:40:38.000,167.207,9.617,1843.959344
14 Sep 2023 17:40:43.000,166.323,9.928,1822.636447
14 Sep 2023 17:40:48.000,165.417,10.238,1801.725335
14 Sep 2023 17:40:53.000,164.488,10.548,1781.241164
14 Sep 2023 17:40:58.000,163.535,10.856,1761.199474
14 Sep 2023 17:41:03.000,162.558,11.162,1741.616168
14 Sep 2023 17:41:08.000,161.557,11.465,1722.507496
14 Sep 2023 17:41:13.000,160.531,11.766,1703.890031
14 Sep 2023 17:41:18.000,159.480,12.064,1685.780636
14 Sep 2023 17:41:23.000,158.405,12.358,1668.196432
14 Sep 2023 17:41:28.000,157.304,12.647,1651.154759
14 Sep 2023 17:41:33.000,156.178,12.932,1634.673130
14 Sep 2023 17:41:38.000,155.026,13.211,1618.769179
14 Sep 2023 17:41:43.000,153.849,13.484,1603.460608
14 Sep 2023 17:41:48.000,152.647,13.750,1588.765123
14 Sep 2023 17:41:53.000,151.420,14.008,1574.700369
14 Sep 2023 17:41:58.000,150.169,14.259,1561.283850
14 Sep 2023 17:42:03.000,148.893,14.500,1548.532856
14 Sep 2023 17:42:08.000,147.594,14.731,1536.464382
14 Sep 2023 17:42:13.000,146.272,14.952,1525.095034
14 Sep 2023 17:42:18.000,144.928,15.162,1514.440942
14 Sep 2023 17:42:23.000,143.562,15.359,1504.517662
14 Sep 2023 17:42:28.000,142.177,15.544,1495.340091
14 Sep 2023 17:42:33.000,140.772,15.716,1486.922350
14 Sep 2023 17:42:38.000,139.350,15.873,1479.277719
14 Sep 2023 17:42:43.000,137.912,16.016,1472.418514
14 Sep 2023 17:42:48.000,136.458,16.144,1466.356009
14 Sep 2023 17:42:53.000,134.992,16.255,1461.100358
14 Sep 2023 17:42:58.000,133.514,16.350,1456.660501
14 Sep 2023 17:43:03.000,132.027,16.429,1453.044106
14 Sep 2023 17:43:08.000,130.532,16.490,1450.257493
14 Sep 2023 17:43:13.000,129.031,16.534,1448.305589
14 Sep 2023 17:43:18.000,127.527,16.560,1447.191893
14 Sep 2023 17:43:23.000,126.021,16.568,1446.918426
14 Sep 2023 17:43:28.000,124.515,16.559,1447.485736
14 Sep 2023 17:43:33.000,123.011,16.532,1448.892910
14 Sep 2023 17:43:38.000,121.512,16.487,1451.137465
14 Sep 2023 17:43:43.000,120.019,16.425,1454.215546
14 Sep 2023 17:43:48.000,118.535,16.346,1458.121846
14 Sep 2023 17:43:53.000,117.060,16.250,1462.849680
14 Sep 2023 17:43:58.000,115.598,16.138,1468.391034
14 Sep 2023 17:44:03.000,114.149,16.010,1474.736642
14 Sep 2023 17:44:08.000,112.716,15.866,1481.876051
14 Sep 2023 17:44:13.000,111.299,15.709,1489.797703
14 Sep 2023 17:44:18.000,109.900,15.537,1498.489028
14 Sep 2023 17:44:23.000,108.521,15.352,1507.936532
14 Sep 2023 17:44:28.000,107.163,15.154,1518.125885
14 Sep 2023 17:44:33.000,105.825,14.945,1529.042029
14 Sep 2023 17:44:38.000,104.511,14.724,1540.669259
14 Sep 2023 17:44:43.000,103.219,14.493,1552.991335
14 Sep 2023 17:44:48.000,101.951,14.252,1565.991564
14 Sep 2023 17:44:53.000,100.708,14.003,1579.652888
14 Sep 2023 17:44:58.000,99.489,13.745,1593.957984
14 Sep 2023 17:45:03.000,98.296,13.480,1608.889335
14 Sep 2023 17:45:08.000,97.127,13.208,1624.429295
14 Sep 2023 17:45:13.000,95.984,12.930,1640.560197
14 Sep 2023 17:45:18.000,94.867,12.647,1657.264381
14 Sep 2023 17:45:23.000,93.775,12.358,1674.524270
14 Sep 2023 17:45:28.000,92.708,12.066,1692.322434
14 Sep 2023 17:45:33.000,91.667,11.770,1710.641622
14 Sep 2023 17:45:38.000,90.650,11.470,1729.464814
14 Sep 2023 17:45:43.000,89.658,11.168,1748.775259
14 Sep 2023 17:45:48.000,88.690,10.863,1768.556500
14 Sep 2023 17:45:53.000,87.746,10.557,1788.792416
14 Sep 2023 17:45:58.000,86.826,10.249,1809.467239
14 Sep 2023 17:46:03.000,85.928,9.941,1830.565558
14 Sep 2023 17:46:08.000,85.054,9.631,1852.072361
14 Sep 2023 17:46:13.000,84.201,9.321,1873.973024
14 Sep 2023 17:46:18.000,83.370,9.011,1896.253341
14 Sep 2023 17:46:23.000,82.561,8.701,1918.899503
14 Sep 2023 17:46:28.000,81.772,8.391,1941.898128
14 Sep 2023 17:46:33.000,81.003,8.082,1965.236236
14 Sep 2023 17:46:38.000,80.254,7.773,1988.901272
14 Sep 2023 17:46:43.000,79.524,7.466,2012.881084
14 Sep 2023 17:46:48.000,78.813,7.160,2037.163931
14 Sep 2023 17:46:53.000,78.120,6.854,2061.738466
14 Sep 2023 17:46:58.000,77.444,6.551,2086.593740
14 Sep 2023 17:47:03.000,76.786,6.248,2111.719186
14 Sep 2023 17:47:08.000,76.144,5.947,2137.104608
14 Sep 2023 17:47:13.000,75.519,5.648,2162.740190
14 Sep 2023 17:47:18.000,74.909,5.350,2188.616458
14 Sep 2023 17:47:23.000,74.314,5.055,2214.724293
14 Sep 2023 17:47:28.000,73.735,4.761,2241.054916
14 Sep 2023 17:47:33.000,73.169,4.468,2267.599861
14 Sep 2023 17:47:38.000,72.618,4.178,2294.350987
14 Sep 2023 17:47:43.000,72.080,3.890,2321.300457
14 Sep 2023 17:47:48.000,71.555,3.603,2348.440725
14 Sep 2023 17:47:53.000,71.043,3.318,2375.764530
14 Sep 2023 17:47:58.000,70.543,3.036,2403.264884
14 Sep 2023 17:48:03.000,70.056,2.755,2430.935058
14 Sep 2023 17:48:08.000,69.579,2.476,2458.768588
14 Sep 2023 17:48:13.000,69.114,2.200,2486.759241
14 Sep 2023 17:48:18.000,68.660,1.925,2514.901023
14 Sep 2023 17:48:23.000,68.217,1.652,2543.188160
14 Sep 2023 17:48:28.000,67.783,1.381,2571.615105
14 Sep 2023 17:48:33.000,67.360,1.112,2600.176503
14 Sep 2023 17:48:38.000,66.947,0.844,2628.867215
14 Sep 2023 17:48:43.000,66.542,0.579,2657.682273
14 Sep 2023 17:48:48.000,66.147,0.315,2686.616908
14 Sep 2023 17:48:53.000,65.761,0.054,2715.666522
14 Sep 2023 17:48:54.025,65.682,0.000,2721.632623
14 Sep 2023 19:16:13.342,235.510,0.000,2708.190370
14 Sep 2023 19:16:18.000,235.584,0.282,2677.102420
14 Sep 2023 19:16:23.000,235.666,0.589,2643.735429
14 Sep 2023 19:16:28.000,235.750,0.899,2610.374356
14 Sep 2023 19:16:33.000,235.835,1.213,2577.020363
14 Sep 2023 19:16:38.000,235.923,1.532,2543.674656
14 Sep 2023 19:16:43.000,236.012,1.855,2510.338491
14 Sep 2023 19:16:48.000,236.104,2.183,2477.013189
14 Sep 2023 19:16:53.000,236.198,2.516,2443.700119
14 Sep 2023 19:16:58.000,236.295,2.853,2410.400716
14 Sep 2023 19:17:03.000,236.394,3.196,2377.116481
14 Sep 2023 19:17:08.000,236.495,3.544,2343.848987
14 Sep 2023 19:17:13.000,236.599,3.898,2310.599884
14 Sep 2023 19:17:18.000,236.706,4.258,2277.370903
14 Sep 2023 19:17:23.000,236.816,4.624,2244.163863
14 Sep 2023 19:17:28.000,236.929,4.996,2210.980675
14 Sep 2023 19:17:33.000,237.046,5.375,2177.823352
14 Sep 2023 19:17:38.000,237.166,5.762,2144.694022
14 Sep 2023 19:17:43.000,237.289,6.155,2111.594919
14 Sep 2023 19:17:48.000,237.416,6.556,2078.528411
14 Sep 2023 19:17:53.000,237.547,6.965,2045.496995
14 Sep 2023 19:17:58.000,237.683,7.383,2012.503321
14 Sep 2023 19:18:03.000,237.822,7.809,1979.550190
14 Sep 2023 19:18:08.000,237.967,8.245,1946.640580
14 Sep 2023 19:18:13.000,238.116,8.690,1913.777649
14 Sep 2023 19:18:18.000,238.270,9.145,1880.964758
14 Sep 2023 19:18:23.000,238.430,9.611,1848.205484
14 Sep 2023 19:18:28.000,238.596,10.089,1815.503641
14 Sep 2023 19:18:33.000,238.768,10.578,1782.863293
14 Sep 2023 19:18:38.000,238.946,11.080,1750.288789
14 Sep 2023 19:18:43.000,239.131,11.595,1717.784779
14 Sep 2023 19:18:48.000,239.324,12.124,1685.356245
14 Sep 2023 19:18:53.000,239.524,12.667,1653.008527
14 Sep 2023 19:18:58.000,239.733,13.226,1620.747362
14 Sep 2023 19:19:03.000,239.951,13.801,1588.578921
14 Sep 2023 19:19:08.000,240.179,14.393,1556.509838
14 Sep 2023 19:19:13.000,240.417,15.004,1524.547276
14 Sep 2023 19:19:18.000,240.666,15.634,1492.698964
14 Sep 2023 19:19:23.000,240.926,16.285,1460.973251
14 Sep 2023 19:19:28.000,241.200,16.957,1429.379184
14 Sep 2023 19:19:33.000,241.487,17.652,1397.926557
14 Sep 2023 19:19:38.000,241.790,18.372,1366.626011
14 Sep 2023 19:19:43.000,242.108,19.118,1335.489097
14 Sep 2023 19:19:48.000,242.444,19.891,1304.528400
14 Sep 2023 19:19:53.000,242.799,20.694,1273.757617
14 Sep 2023 19:19:58.000,243.175,21.528,1243.191703
14 Sep 2023 19:20:03.000,243.574,22.395,1212.846988
14 Sep 2023 19:20:08.000,243.998,23.298,1182.741332
14 Sep 2023 19:20:13.000,244.449,24.239,1152.894291
14 Sep 2023 19:20:18.000,244.931,25.220,1123.327298
14 Sep 2023 19:20:23.000,245.446,26.243,1094.063870
14 Sep 2023 19:20:28.000,245.998,27.312,1065.129832
14 Sep 2023 19:20:33.000,246.591,28.430,1036.553553
14 Sep 2023 19:20:38.000,247.230,29.598,1008.366231
14 Sep 2023 19:20:43.000,247.922,30.822,980.602181
14 Sep 2023 19:20:48.000,248.671,32.103,953.299136
14 Sep 2023 19:20:53.000,249.486,33.444,926.498594
14 Sep 2023 19:20:58.000,250.376,34.850,900.246158
14 Sep 2023 19:21:03.000,251.351,36.322,874.591895
14 Sep 2023 19:21:08.000,252.424,37.864,849.590685
14 Sep 2023 19:21:13.000,253.609,39.478,825.302543
14 Sep 2023 19:21:18.000,254.924,41.165,801.792921
14 Sep 2023 19:21:23.000,256.392,42.925,779.132915
14 Sep 2023 19:21:28.000,258.037,44.757,757.399384
14 Sep 2023 19:21:33.000,259.892,46.658,736.674894
14 Sep 2023 19:21:38.000,261.995,48.622,717.047478
14 Sep 2023 19:21:43.000,264.394,50.640,698.610110
14 Sep 2023 19:21:48.000,267.145,52.695,681.459852
14 Sep 2023 19:21:53.000,270.317,54.769,665.696616
14 Sep 2023 19:21:58.000,273.991,56.832,651.421485
14 Sep 2023 19:22:03.000,278.260,58.846,638.734578
14 Sep 2023 19:22:08.000,283.222,60.762,627.732487
14 Sep 2023 19:22:13.000,288.967,62.518,618.505371
14 Sep 2023 19:22:18.000,295.552,64.039,611.133823
14 Sep 2023 19:22:23.000,302.966,65.247,605.685732
14 Sep 2023 19:22:28.000,311.087,66.062,602.213355
14 Sep 2023 19:22:33.000,319.660,66.422,600.751057
14 Sep 2023 19:22:38.000,328.327,66.298,601.313423
14 Sep 2023 19:22:43.000,336.706,65.701,603.894708
14 Sep 2023 19:22:48.000,344.486,64.679,608.469079
14 Sep 2023 19:22:53.000,351.480,63.303,614.991867
14 Sep 2023 19:22:58.000,357.629,61.656,623.401669
14 Sep 2023 19:23:03.000,2.960,59.814,633.623056
14 Sep 2023 19:23:08.000,7.553,57.846,645.569642
14 Sep 2023 19:23:13.000,11.504,55.807,659.147241
14 Sep 2023 19:23:18.000,14.909,53.740,674.256899
14 Sep 2023 19:23:23.000,17.856,51.678,690.797623
14 Sep 2023 19:23:28.000,20.418,49.645,708.668710
14 Sep 2023 19:23:33.000,22.658,47.660,727.771624
14 Sep 2023 19:23:38.000,24.629,45.732,748.011424
14 Sep 2023 19:23:43.000,26.373,43.872,769.297787
14 Sep 2023 19:23:48.000,27.924,42.081,791.545661
14 Sep 2023 19:23:53.000,29.311,40.364,814.675629
14 Sep 2023 19:23:58.000,30.558,38.719,838.614036
14 Sep 2023 19:24:03.000,31.685,37.147,863.292946
14 Sep 2023 19:24:08.000,32.707,35.645,888.649958
14 Sep 2023 19:24:13.000,33.638,34.211,914.627955
14 Sep 2023 19:24:18.000,34.489,32.843,941.174773
14 Sep 2023 19:24:23.000,35.271,31.536,968.243160
14 Sep 2023 19:24:28.000,35.991,30.288,995.789280
14 Sep 2023 19:24:33.000,36.656,29.097,1023.774049
14 Sep 2023 19:24:38.000,37.273,27.958,1052.161676
14 Sep 2023 19:24:43.000,37.847,26.868,1080.919627
14 Sep 2023 19:24:48.000,38.381,25.825,1110.018308
14 Sep 2023 19:24:53.000,38.880,24.826,1139.430802
14 Sep 2023 19:24:58.000,39.348,23.869,1169.132601
14 Sep 2023 19:25:03.000,39.787,22.950,1199.101376
14 Sep 2023 19:25:08.000,40.199,22.068,1229.316764
14 Sep 2023 19:25:13.000,40.588,21.219,1259.760178
14 Sep 2023 19:25:18.000,40.956,20.403,1290.414629
14 Sep 2023 19:25:23.000,41.303,19.618,1321.264575
14 Sep 2023 19:25:28.000,41.633,18.860,1352.295777
14 Sep 2023 19:25:33.000,41.945,18.129,1383.495173
14 Sep 2023 19:25:38.000,42.242,17.424,1414.850773
14 Sep 2023 19:25:43.000,42.525,16.742,1446.351542
14 Sep 2023 19:25:48.000,42.795,16.082,1477.987327
14 Sep 2023 19:25:53.000,43.052,15.444,1509.748758
14 Sep 2023 19:25:58.000,43.298,14.825,1541.627191
14 Sep 2023 19:26:03.000,43.534,14.225,1573.614627
14 Sep 2023 19:26:08.000,43.759,13.643,1605.703666
14 Sep 2023 19:26:13.000,43.975,13.077,1637.887447
14 Sep 2023 19:26:18.000,44.183,12.527,1670.159604
14 Sep 2023 19:26:23.000,44.383,11.992,1702.514210
14 Sep 2023 19:26:28.000,44.575,11.472,1734.945760
14 Sep 2023 19:26:33.000,44.760,10.965,1767.449120
14 Sep 2023 19:26:38.000,44.939,10.470,1800.019500
14 Sep 2023 19:26:43.000,45.111,9.988,1832.652427
14 Sep 2023 19:26:48.000,45.277,9.517,1865.343710
14 Sep 2023 19:26:53.000,45.438,9.057,1898.089432
14 Sep 2023 19:26:58.000,45.594,8.608,1930.885918
14 Sep 2023 19:27:03.000,45.744,8.168,1963.729716
14 Sep 2023 19:27:08.000,45.890,7.738,1996.617583
14 Sep 2023 19:27:13.000,46.031,7.317,2029.546468
14 Sep 2023 19:27:18.000,46.169,6.905,2062.513496
14 Sep 2023 19:27:23.000,46.302,6.501,2095.515955
14 Sep 2023 19:27:28.000,46.431,6.104,2128.551284
14 Sep 2023 19:27:33.000,46.557,5.715,2161.617065
14 Sep 2023 19:27:38.000,46.680,5.333,2194.711006
14 Sep 2023 19:27:43.000,46.799,4.958,2227.830938
14 Sep 2023 19:27:48.000,46.915,4.590,2260.974805
14 Sep 2023 19:27:53.000,47.028,4.228,2294.140653
14 Sep 2023 19:27:58.000,47.138,3.872,2327.326627
14 Sep 2023 19:28:03.000,47.246,3.521,2360.530961
14 Sep 2023 19:28:08.000,47.351,3.177,2393.751974
14 Sep 2023 19:28:13.000,47.453,2.837,2426.988062
14 Sep 2023 19:28:18.000,47.554,2.503,2460.237701
14 Sep 2023 19:28:23.000,47.652,2.173,2493.499428
14 Sep 2023 19:28:28.000,47.747,1.848,2526.771849
14 Sep 2023 19:28:33.000,47.841,1.528,2560.053628
14 Sep 2023 19:28:38.000,47.933,1.212,2593.343485
14 Sep 2023 19:28:43.000,48.023,0.900,2626.640196
14 Sep 2023 19:28:48.000,48.111,0.592,2659.942584
14 Sep 2023 19:28:53.000,48.197,0.289,2693.249520
14 Sep 2023 19:28:57.806,48.279,0.000,2725.264721
14 Sep 2023 20:57:06.901,277.064,0.000,2717.637983
14 Sep 2023 20:57:11.000,277.384,0.215,2693.921372
14 Sep 2023 20:57:16.000,277.782,0.478,2665.087000
14 Sep 2023 20:57:21.000,278.187,0.744,2636.357444
14 Sep 2023 20:57:26.000,278.602,1.011,2607.736940
14 Sep 2023 20:57:31.000,279.025,1.281,2579.229874
14 Sep 2023 20:57:36.000,279.458,1.552,2550.840815
14 Sep 2023 20:57:41.000,279.900,1.826,2522.574499
14 Sep 2023 20:57:46.000,280.352,2.102,2494.435857
14 Sep 2023 20:57:51.000,280.814,2.380,2466.430004
14 Sep 2023 20:57:56.000,281.287,2.660,2438.562258
14 Sep 2023 20:58:01.000,281.770,2.942,2410.838155
14 Sep 2023 20:58:06.000,282.264,3.226,2383.263442
14 Sep 2023 20:58:11.000,282.770,3.513,2355.844096
14 Sep 2023 20:58:16.000,283.288,3.802,2328.586330
14 Sep 2023 20:58:21.000,283.818,4.093,2301.496616
14 Sep 2023 20:58:26.000,284.360,4.386,2274.581671
14 Sep 2023 20:58:31.000,284.916,4.682,2247.848487
14 Sep 2023 20:58:36.000,285.485,4.979,2221.304336
14 Sep 2023 20:58:41.000,286.068,5.279,2194.956773
14 Sep 2023 20:58:46.000,286.665,5.581,2168.813660
14 Sep 2023 20:58:51.000,287.277,5.885,2142.883171
14 Sep 2023 20:58:56.000,287.904,6.192,2117.173806
14 Sep 2023 20:59:01.000,288.547,6.500,2091.694388
14 Sep 2023 20:59:06.000,289.206,6.810,2066.454101
14 Sep 2023 20:59:11.000,289.882,7.123,2041.462471
14 Sep 2023 20:59:16.000,290.575,7.437,2016.729406
14 Sep 2023 20:59:21.000,291.286,7.753,1992.265180
14 Sep 2023 20:59:26.000,292.015,8.070,1968.080461
14 Sep 2023 20:59:31.000,292.763,8.389,1944.186311
14 Sep 2023 20:59:36.000,293.530,8.710,1920.594199
14 Sep 2023 20:59:41.000,294.317,9.031,1897.316009
14 Sep 2023 20:59:46.000,295.125,9.354,1874.364042
14 Sep 2023 20:59:51.000,295.953,9.678,1851.751029
14 Sep 2023 20:59:56.000,296.803,10.002,1829.490119
14 Sep 2023 21:00:01.000,297.676,10.326,1807.594905
14 Sep 2023 21:00:06.000,298.570,10.651,1786.079397
14 Sep 2023 21:00:11.000,299.488,10.975,1764.958034
14 Sep 2023 21:00:16.000,300.430,11.299,1744.245685
14 Sep 2023 21:00:21.000,301.396,11.622,1723.957624
14 Sep 2023 21:00:26.000,302.387,11.944,1704.109518
14 Sep 2023 21:00:31.000,303.402,12.263,1684.717427
14 Sep 2023 21:00:36.000,304.443,12.581,1665.797774
14 Sep 2023 21:00:41.000,305.510,12.896,1647.367314
14 Sep 2023 21:00:46.000,306.603,13.208,1629.443112
14 Sep 2023 21:00:51.000,307.723,13.516,1612.042508
14 Sep 2023 21:00:56.000,308.869,13.819,1595.183074
14 Sep 2023 21:01:01.000,310.041,14.117,1578.882569
14 Sep 2023 21:01:06.000,311.241,14.410,1563.158878
14 Sep 2023 21:01:11.000,312.467,14.696,1548.029974
14 Sep 2023 21:01:16.000,313.720,14.975,1533.513828
14 Sep 2023 21:01:21.000,314.999,15.246,1519.628357
14 Sep 2023 21:01:26.000,316.305,15.509,1506.391338
14 Sep 2023 21:01:31.000,317.635,15.761,1493.820328
14 Sep 2023 21:01:36.000,318.991,16.004,1481.932572
14 Sep 2023 21:01:41.000,320.371,16.235,1470.744926
14 Sep 2023 21:01:46.000,321.775,16.454,1460.273736
14 Sep 2023 21:01:51.000,323.200,16.661,1450.534762
14 Sep 2023 21:01:56.000,324.648,16.854,1441.543065
14 Sep 2023 21:02:01.000,326.115,17.032,1433.312908
14 Sep 2023 21:02:06.000,327.601,17.195,1425.857656
14 Sep 2023 21:02:11.000,329.104,17.343,1419.189681
14 Sep 2023 21:02:16.000,330.622,17.474,1413.320259
14 Sep 2023 21:02:21.000,332.154,17.587,1408.259489
14 Sep 2023 21:02:26.000,333.698,17.684,1404.016207
14 Sep 2023 21:02:31.000,335.252,17.762,1400.597913
14 Sep 2023 21:02:36.000,336.813,17.821,1398.010704
14 Sep 2023 21:02:41.000,338.381,17.862,1396.259224
14 Sep 2023 21:02:46.000,339.951,17.884,1395.346622
14 Sep 2023 21:02:51.000,341.523,17.887,1395.274522
14 Sep 2023 21:02:56.000,343.095,17.871,1396.043009
14 Sep 2023 21:03:01.000,344.663,17.835,1397.650647
14 Sep 2023 21:03:06.000,346.225,17.781,1400.094434
14 Sep 2023 21:03:11.000,347.781,17.709,1403.369895
14 Sep 2023 21:03:16.000,349.327,17.618,1407.471092
14 Sep 2023 21:03:21.000,350.861,17.509,1412.390676
14 Sep 2023 21:03:26.000,352.382,17.384,1418.119952
14 Sep 2023 21:03:31.000,353.888,17.241,1424.648953
14 Sep 2023 21:03:36.000,355.378,17.083,1431.966520
14 Sep 2023 21:03:41.000,356.848,16.909,1440.060392
14 Sep 2023 21:03:46.000,358.299,16.721,1448.917298
14 Sep 2023 21:03:51.000,359.729,16.519,1458.523057
14 Sep 2023 21:03:56.000,1.137,16.304,1468.862678
14 Sep 2023 21:04:01.000,2.522,16.077,1479.920459
14 Sep 2023 21:04:06.000,3.882,15.838,1491.680091
14 Sep 2023 21:04:11.000,5.218,15.589,1504.124757
14 Sep 2023 21:04:16.000,6.528,15.330,1517.237227
14 Sep 2023 21:04:21.000,7.813,15.063,1530.999951
14 Sep 2023 21:04:26.000,9.071,14.787,1545.395149
14 Sep 2023 21:04:31.000,10.302,14.504,1560.404892
14 Sep 2023 21:04:36.000,11.507,14.214,1576.011182
14 Sep 2023 21:04:41.000,12.685,13.918,1592.196023
14 Sep 2023 21:04:46.000,13.837,13.617,1608.941486
14 Sep 2023 21:04:51.000,14.962,13.312,1626.229768
14 Sep 2023 21:04:56.000,16.060,13.003,1644.043247
14 Sep 2023 21:05:01.000,17.133,12.690,1662.364528
14 Sep 2023 21:05:06.000,18.179,12.374,1681.176486
14 Sep 2023 21:05:11.000,19.200,12.056,1700.462299
14 Sep 2023 21:05:16.000,20.196,11.737,1720.205481
14 Sep 2023 21:05:21.000,21.167,11.415,1740.389907
14 Sep 2023 21:05:26.000,22.114,11.093,1760.999832
14 Sep 2023 21:05:31.000,23.037,10.770,1782.019912
14 Sep 2023 21:05:36.000,23.937,10.447,1803.435213
14 Sep 2023 21:05:41.000,24.814,10.124,1825.231221
14 Sep 2023 21:05:46.000,25.670,9.801,1847.393849
14 Sep 2023 21:05:51.000,26.503,9.479,1869.909441
14 Sep 2023 21:05:56.000,27.316,9.157,1892.764770
14 Sep 2023 21:06:01.000,28.108,8.836,1915.947041
14 Sep 2023 21:06:06.000,28.880,8.517,1939.443884
14 Sep 2023 21:06:11.000,29.632,8.199,1963.243347
14 Sep 2023 21:06:16.000,30.366,7.882,1987.333898
14 Sep 2023 21:06:21.000,31.082,7.567,2011.704409
14 Sep 2023 21:06:26.000,31.779,7.254,2036.344154
14 Sep 2023 21:06:31.000,32.460,6.942,2061.242793
14 Sep 2023 21:06:36.000,33.123,6.633,2086.390370
14 Sep 2023 21:06:41.000,33.771,6.325,2111.777295
14 Sep 2023 21:06:46.000,34.402,6.020,2137.394336
14 Sep 2023 21:06:51.000,35.019,5.716,2163.232613
14 Sep 2023 21:06:56.000,35.620,5.415,2189.283581
14 Sep 2023 21:07:01.000,36.208,5.115,2215.539016
14 Sep 2023 21:07:06.000,36.781,4.818,2241.991014
14 Sep 2023 21:07:11.000,37.341,4.523,2268.631970
14 Sep 2023 21:07:16.000,37.888,4.231,2295.454572
14 Sep 2023 21:07:21.000,38.422,3.940,2322.451793
14 Sep 2023 21:07:26.000,38.944,3.652,2349.616865
14 Sep 2023 21:07:31.000,39.454,3.366,2376.943294
14 Sep 2023 21:07:36.000,39.952,3.082,2404.424826
14 Sep 2023 21:07:41.000,40.439,2.800,2432.055450
14 Sep 2023 21:07:46.000,40.916,2.521,2459.829385
14 Sep 2023 21:07:51.000,41.382,2.243,2487.741071
14 Sep 2023 21:07:56.000,41.838,1.968,2515.785156
14 Sep 2023 21:08:01.000,42.284,1.695,2543.956498
14 Sep 2023 21:08:06.000,42.721,1.424,2572.250141
14 Sep 2023 21:08:11.000,43.149,1.154,2600.661325
14 Sep 2023 21:08:16.000,43.567,0.887,2629.185458
14 Sep 2023 21:08:21.000,43.977,0.622,2657.818130
14 Sep 2023 21:08:26.000,44.378,0.359,2686.555083
14 Sep 2023 21:08:31.000,44.772,0.098,2715.392227
14 Sep 2023 21:08:32.891,44.918,0.000,2726.321654
14 Sep 2023 22:38:32.838,306.542,0.000,2724.118966
14 Sep 2023 22:38:37.000,306.939,0.198,2702.261822
14 Sep 2023 22:38:42.000,307.425,0.435,2676.144508
14 Sep 2023 22:38:47.000,307.921,0.674,2650.182791
14 Sep 2023 22:38:52.000,308.425,0.914,2624.381999
14 Sep 2023 22:38:57.000,308.940,1.155,2598.747630
14 Sep 2023 22:39:02.000,309.464,1.396,2573.285350
14 Sep 2023 22:39:07.000,309.999,1.639,2548.001018
14 Sep 2023 22:39:12.000,310.544,1.882,2522.900665
14 Sep 2023 22:39:17.000,311.100,2.126,2497.990528
14 Sep 2023 22:39:22.000,311.667,2.371,2473.277029
14 Sep 2023 22:39:27.000,312.245,2.616,2448.766795
14 Sep 2023 22:39:32.000,312.834,2.863,2424.466655
14 Sep 2023 22:39:37.000,313.435,3.109,2400.383659
14 Sep 2023 22:39:42.000,314.049,3.356,2376.525060
14 Sep 2023 22:39:47.000,314.675,3.604,2352.898336
14 Sep 2023 22:39:52.000,315.313,3.852,2329.511187
14 Sep 2023 22:39:57.000,315.964,4.101,2306.371535
14 Sep 2023 22:40:02.000,316.628,4.349,2283.487536
14 Sep 2023 22:40:07.000,317.306,4.598,2260.867581
14 Sep 2023 22:40:12.000,317.998,4.846,2238.520285
14 Sep 2023 22:40:17.000,318.703,5.095,2216.454509
14 Sep 2023 22:40:22.000,319.423,5.343,2194.679342
14 Sep 2023 22:40:27.000,320.158,5.591,2173.204119
14 Sep 2023 22:40:32.000,320.907,5.839,2152.038401
14 Sep 2023 22:40:37.000,321.671,6.085,2131.191988
14 Sep 2023 22:40:42.000,322.451,6.331,2110.674910
14 Sep 2023 22:40:47.000,323.246,6.576,2090.497423
14 Sep 2023 22:40:52.000,324.057,6.820,2070.670007
14 Sep 2023 22:40:57.000,324.884,7.062,2051.203351
14 Sep 2023 22:41:02.000,325.727,7.303,2032.108357
14 Sep 2023 22:41:07.000,326.587,7.541,2013.396118
14 Sep 2023 22:41:12.000,327.463,7.778,1995.077919
14 Sep 2023 22:41:17.000,328.356,8.012,1977.165208
14 Sep 2023 22:41:22.000,329.266,8.244,1959.669596
14 Sep 2023 22:41:27.000,330.193,8.473,1942.602829
14 Sep 2023 22:41:32.000,331.137,8.698,1925.976776
14 Sep 2023 22:41:37.000,332.097,8.920,1909.803397
14 Sep 2023 22:41:42.000,333.075,9.139,1894.094734
14 Sep 2023 22:41:47.000,334.070,9.353,1878.862870
14 Sep 2023 22:41:52.000,335.082,9.562,1864.119910
14 Sep 2023 22:41:57.000,336.110,9.767,1849.877946
14 Sep 2023 22:42:02.000,337.156,9.967,1836.149025
14 Sep 2023 22:42:07.000,338.217,10.161,1822.945116
14 Sep 2023 22:42:12.000,339.295,10.349,1810.278067
14 Sep 2023 22:42:17.000,340.389,10.531,1798.159568
14 Sep 2023 22:42:22.000,341.498,10.706,1786.601118
14 Sep 2023 22:42:27.000,342.622,10.874,1775.613969
14 Sep 2023 22:42:32.000,343.761,11.034,1765.209089
14 Sep 2023 22:42:37.000,344.915,11.187,1755.397118
14 Sep 2023 22:42:42.000,346.081,11.331,1746.188321
14 Sep 2023 22:42:47.000,347.261,11.467,1737.592540
14 Sep 2023 22:42:52.000,348.453,11.594,1729.619153
14 Sep 2023 22:42:57.000,349.656,11.712,1722.277022
14 Sep 2023 22:43:02.000,350.870,11.820,1715.574457
14 Sep 2023 22:43:07.000,352.094,11.919,1709.519164
14 Sep 2023 22:43:12.000,353.327,12.007,1704.118213
14 Sep 2023 22:43:17.000,354.568,12.084,1699.377992
14 Sep 2023 22:43:22.000,355.816,12.151,1695.304177
14 Sep 2023 22:43:27.000,357.069,12.208,1691.901697
14 Sep 2023 22:43:32.000,358.328,12.253,1689.174704
14 Sep 2023 22:43:37.000,359.591,12.287,1687.126555
14 Sep 2023 22:43:42.000,0.856,12.310,1685.759783
14 Sep 2023 22:43:47.000,2.124,12.321,1685.076089
14 Sep 2023 22:43:52.000,3.391,12.321,1685.076329
14 Sep 2023 22:43:57.000,4.659,12.310,1685.760508
14 Sep 2023 22:44:02.000,5.924,12.287,1687.127782
14 Sep 2023 22:44:07.000,7.187,12.253,1689.176462
14 Sep 2023 22:44:12.000,8.446,12.208,1691.904023
14 Sep 2023 22:44:17.000,9.700,12.152,1695.307123
14 Sep 2023 22:44:22.000,10.947,12.085,1699.381666
14 Sep 2023 22:44:27.000,12.188,12.008,1704.122646
14 Sep 2023 22:44:32.000,13.421,11.920,1709.524437
14 Sep 2023 22:44:37.000,14.645,11.822,1715.580660
14 Sep 2023 22:44:42.000,15.859,11.713,1722.284257
14 Sep 2023 22:44:47.000,17.062,11.596,1729.627529
14 Sep 2023 22:44:52.000,18.254,11.469,1737.602175
14 Sep 2023 22:44:57.000,19.434,11.333,1746.199341
14 Sep 2023 22:45:02.000,20.601,11.189,1755.409658
14 Sep 2023 22:45:07.000,21.754,11.036,1765.223290
14 Sep 2023 22:45:12.000,22.893,10.876,1775.629980
14 Sep 2023 22:45:17.000,24.017,10.708,1786.619093
14 Sep 2023 22:45:22.000,25.127,10.533,1798.179668
14 Sep 2023 22:45:27.000,26.220,10.351,1810.300455
14 Sep 2023 22:45:32.000,27.298,10.163,1822.969967
14 Sep 2023 22:45:37.000,28.360,9.969,1836.176515
14 Sep 2023 22:45:42.000,29.405,9.770,1849.908254
14 Sep 2023 22:45:47.000,30.434,9.565,1864.153218
14 Sep 2023 22:45:52.000,31.445,9.356,1878.899366
14 Sep 2023 22:45:57.000,32.440,9.141,1894.134608
14 Sep 2023 22:46:02.000,33.418,8.923,1909.846842
14 Sep 2023 22:46:07.000,34.379,8.701,1926.023986
14 Sep 2023 22:46:12.000,35.322,8.476,1942.654001
14 Sep 2023 22:46:17.000,36.249,8.247,1959.724927
14 Sep 2023 22:46:22.000,37.159,8.015,1977.224901
14 Sep 2023 22:46:27.000,38.052,7.781,1995.142171
14 Sep 2023 22:46:32.000,38.928,7.544,2013.465134
14 Sep 2023 22:46:37.000,39.788,7.306,2032.182336
14 Sep 2023 22:46:42.000,40.631,7.065,2051.282495
14 Sep 2023 22:46:47.000,41.458,6.823,2070.754521
14 Sep 2023 22:46:52.000,42.269,6.579,2090.587510
14 Sep 2023 22:46:57.000,43.064,6.334,2110.770773
14 Sep 2023 22:47:02.000,43.843,6.088,2131.293828
14 Sep 2023 22:47:07.000,44.608,5.842,2152.146421
14 Sep 2023 22:47:12.000,45.357,5.594,2173.318520
14 Sep 2023 22:47:17.000,46.091,5.346,2194.800326
14 Sep 2023 22:47:22.000,46.811,5.098,2216.582275
14 Sep 2023 22:47:27.000,47.516,4.849,2238.655031
14 Sep 2023 22:47:32.000,48.207,4.601,2261.009508
14 Sep 2023 22:47:37.000,48.885,4.352,2283.636843
14 Sep 2023 22:47:42.000,49.549,4.104,2306.528417
14 Sep 2023 22:47:47.000,50.200,3.855,2329.675839
14 Sep 2023 22:47:52.000,50.838,3.607,2353.070955
14 Sep 2023 22:47:57.000,51.464,3.359,2376.705838
14 Sep 2023 22:48:02.000,52.077,3.112,2400.572792
14 Sep 2023 22:48:07.000,52.678,2.865,2424.664332
14 Sep 2023 22:48:12.000,53.267,2.619,2448.973200
14 Sep 2023 22:48:17.000,53.845,2.374,2473.492359
14 Sep 2023 22:48:22.000,54.412,2.129,2498.214971
14 Sep 2023 22:48:27.000,54.967,1.885,2523.134408
14 Sep 2023 22:48:32.000,55.512,1.642,2548.244241
14 Sep 2023 22:48:37.000,56.047,1.399,2573.538244
14 Sep 2023 22:48:42.000,56.571,1.158,2599.010376
14 Sep 2023 22:48:47.000,57.085,0.917,2624.654779
14 Sep 2023 22:48:52.000,57.589,0.677,2650.465787
14 Sep 2023 22:48:57.000,58.084,0.438,2676.437897
14 Sep 2023 22:49:02.000,58.570,0.200,2702.565787
14 Sep 2023 22:49:06.217,58.973,0.000,2724.717600
15 Sep 2023 00:18:45.831,315.570,0.000,2726.178519
15 Sep 2023 00:18:50.000,315.847,0.227,2700.999255
15 Sep 2023 00:18:55.000,316.187,0.502,2670.867608
15 Sep 2023 00:19:00.000,316.534,0.779,2640.809766
15 Sep 2023 00:19:05.000,316.888,1.058,2610.829131
15 Sep 2023 00:19:10.000,317.250,1.340,2580.929242
15 Sep 2023 00:19:15.000,317.621,1.625,2551.113787
15 Sep 2023 00:19:20.000,318.000,1.913,2521.386609
15 Sep 2023 00:19:25.000,318.387,2.203,2491.751711
15 Sep 2023 00:19:30.000,318.784,2.497,2462.213267
15 Sep 2023 00:19:35.000,319.190,2.793,2432.775632
15 Sep 2023 00:19:40.000,319.605,3.092,2403.443351
15 Sep 2023 00:19:45.000,320.031,3.394,2374.221158
15 Sep 2023 00:19:50.000,320.467,3.700,2345.114005
15 Sep 2023 00:19:55.000,320.914,4.008,2316.127059
15 Sep 2023 00:20:00.000,321.372,4.320,2287.265722
15 Sep 2023 00:20:05.000,321.842,4.635,2258.535629
15 Sep 2023 00:20:10.000,322.323,4.954,2229.942678
15 Sep 2023 00:20:15.000,322.817,5.276,2201.493028
15 Sep 2023 00:20:20.000,323.325,5.602,2173.193127
15 Sep 2023 00:20:25.000,323.845,5.931,2145.049707
15 Sep 2023 00:20:30.000,324.380,6.264,2117.069823
15 Sep 2023 00:20:35.000,324.929,6.600,2089.260847
15 Sep 2023 00:20:40.000,325.493,6.940,2061.630492
15 Sep 2023 00:20:45.000,326.072,7.284,2034.186837
15 Sep 2023 00:20:50.000,326.668,7.631,2006.938329
15 Sep 2023 00:20:55.000,327.281,7.983,1979.893813
15 Sep 2023 00:21:00.000,327.911,8.338,1953.062543
15 Sep 2023 00:21:05.000,328.559,8.697,1926.454206
15 Sep 2023 00:21:10.000,329.227,9.059,1900.078937
15 Sep 2023 00:21:15.000,329.913,9.426,1873.947343
15 Sep 2023 00:21:20.000,330.620,9.796,1848.070521
15 Sep 2023 00:21:25.000,331.348,10.170,1822.460070
15 Sep 2023 00:21:30.000,332.098,10.547,1797.128129
15 Sep 2023 00:21:35.000,332.871,10.928,1772.087376
15 Sep 2023 00:21:40.000,333.667,11.312,1747.351064
15 Sep 2023 00:21:45.000,334.488,11.700,1722.933027
15 Sep 2023 00:21:50.000,335.334,12.090,1698.847704
15 Sep 2023 00:21:55.000,336.206,12.483,1675.110154
15 Sep 2023 00:22:00.000,337.105,12.879,1651.736066
15 Sep 2023 00:22:05.000,338.032,13.277,1628.741779
15 Sep 2023 00:22:10.000,338.988,13.677,1606.144281
15 Sep 2023 00:22:15.000,339.974,14.078,1583.961224
15 Sep 2023 00:22:20.000,340.991,14.481,1562.210919
15 Sep 2023 00:22:25.000,342.039,14.884,1540.912337
15 Sep 2023 00:22:30.000,343.120,15.287,1520.085098
15 Sep 2023 00:22:35.000,344.235,15.690,1499.749463
15 Sep 2023 00:22:40.000,345.383,16.091,1479.926303
15 Sep 2023 00:22:45.000,346.567,16.491,1460.637078
15 Sep 2023 00:22:50.000,347.786,16.887,1441.903799
15 Sep 2023 00:22:55.000,349.042,17.280,1423.748975
15 Sep 2023 00:23:00.000,350.334,17.668,1406.195560
15 Sep 2023 00:23:05.000,351.664,18.051,1389.266886
15 Sep 2023 00:23:10.000,353.032,18.427,1372.986578
15 Sep 2023 00:23:15.000,354.437,18.794,1357.378465
15 Sep 2023 00:23:20.000,355.880,19.152,1342.466476
15 Sep 2023 00:23:25.000,357.360,19.500,1328.274517
15 Sep 2023 00:23:30.000,358.878,19.836,1314.826348
15 Sep 2023 00:23:35.000,0.432,20.158,1302.145438
15 Sep 2023 00:23:40.000,2.021,20.466,1290.254811
15 Sep 2023 00:23:45.000,3.646,20.757,1279.176886
15 Sep 2023 00:23:50.000,5.303,21.030,1268.933308
15 Sep 2023 00:23:55.000,6.992,21.284,1259.544769
15 Sep 2023 00:24:00.000,8.710,21.518,1251.030833
15 Sep 2023 00:24:05.000,10.456,21.729,1243.409755
15 Sep 2023 00:24:10.000,12.227,21.917,1236.698306
15 Sep 2023 00:24:15.000,14.019,22.081,1230.911607
15 Sep 2023 00:24:20.000,15.832,22.219,1226.062965
15 Sep 2023 00:24:25.000,17.660,22.330,1222.163736
15 Sep 2023 00:24:30.000,19.501,22.414,1219.223191
15 Sep 2023 00:24:35.000,21.351,22.471,1217.248416
15 Sep 2023 00:24:40.000,23.207,22.499,1216.244227
15 Sep 2023 00:24:45.000,25.065,22.499,1216.213124
15 Sep 2023 00:24:50.000,26.921,22.470,1217.155229
15 Sep 2023 00:24:55.000,28.771,22.413,1219.068318
15 Sep 2023 00:25:00.000,30.613,22.328,1221.947836
15 Sep 2023 00:25:05.000,32.442,22.216,1225.786952
15 Sep 2023 00:25:10.000,34.255,22.077,1230.576637
15 Sep 2023 00:25:15.000,36.049,21.913,1236.305775
15 Sep 2023 00:25:20.000,37.821,21.724,1242.961273
15 Sep 2023 00:25:25.000,39.568,21.512,1250.528218
15 Sep 2023 00:25:30.000,41.287,21.278,1258.990030
15 Sep 2023 00:25:35.000,42.978,21.023,1268.328625
15 Sep 2023 00:25:40.000,44.637,20.749,1278.524597
15 Sep 2023 00:25:45.000,46.262,20.457,1289.557389
15 Sep 2023 00:25:50.000,47.854,20.148,1301.405474
15 Sep 2023 00:25:55.000,49.409,19.825,1314.046537
15 Sep 2023 00:26:00.000,50.928,19.488,1327.457637
15 Sep 2023 00:26:05.000,52.410,19.139,1341.615380
15 Sep 2023 00:26:10.000,53.855,18.779,1356.496055
15 Sep 2023 00:26:15.000,55.262,18.410,1372.075796
15 Sep 2023 00:26:20.000,56.630,18.033,1388.330705
15 Sep 2023 00:26:25.000,57.962,17.650,1405.236962
15 Sep 2023 00:26:30.000,59.256,17.260,1422.770951
15 Sep 2023 00:26:35.000,60.513,16.866,1440.909336
15 Sep 2023 00:26:40.000,61.733,16.468,1459.629148
15 Sep 2023 00:26:45.000,62.918,16.067,1478.907857
15 Sep 2023 00:26:50.000,64.067,15.664,1498.723424
15 Sep 2023 00:26:55.000,65.183,15.260,1519.054363
15 Sep 2023 00:27:00.000,66.264,14.855,1539.879759
15 Sep 2023 00:27:05.000,67.313,14.451,1561.179316
15 Sep 2023 00:27:10.000,68.331,14.047,1582.933370
15 Sep 2023 00:27:15.000,69.317,13.644,1605.122902
15 Sep 2023 00:27:20.000,70.274,13.242,1627.729560
15 Sep 2023 00:27:25.000,71.201,12.843,1650.735641
15 Sep 2023 00:27:30.000,72.100,12.446,1674.124108
15 Sep 2023 00:27:35.000,72.972,12.051,1697.878580
15 Sep 2023 00:27:40.000,73.818,11.659,1721.983311
15 Sep 2023 00:27:45.000,74.639,11.271,1746.423199
15 Sep 2023 00:27:50.000,75.435,10.885,1771.183753
15 Sep 2023 00:27:55.000,76.207,10.503,1796.251098
15 Sep 2023 00:28:00.000,76.956,10.124,1821.611935
15 Sep 2023 00:28:05.000,77.684,9.749,1847.253534
15 Sep 2023 00:28:10.000,78.390,9.378,1873.163721
15 Sep 2023 00:28:15.000,79.076,9.010,1899.330853
15 Sep 2023 00:28:20.000,79.743,8.646,1925.743787
15 Sep 2023 00:28:25.000,80.390,8.286,1952.391880
15 Sep 2023 00:28:30.000,81.019,7.930,1979.264959
15 Sep 2023 00:28:35.000,81.631,7.577,2006.353299
15 Sep 2023 00:28:40.000,82.225,7.229,2033.647611
15 Sep 2023 00:28:45.000,82.804,6.884,2061.139016
15 Sep 2023 00:28:50.000,83.366,6.543,2088.819030
15 Sep 2023 00:28:55.000,83.914,6.205,2116.679549
15 Sep 2023 00:29:00.000,84.447,5.871,2144.712821
15 Sep 2023 00:29:05.000,84.966,5.541,2172.911449
15 Sep 2023 00:29:10.000,85.471,5.215,2201.268351
15 Sep 2023 00:29:15.000,85.963,4.891,2229.776767
15 Sep 2023 00:29:20.000,86.443,4.572,2258.430220
15 Sep 2023 00:29:25.000,86.911,4.256,2287.222531
15 Sep 2023 00:29:30.000,87.367,3.943,2316.147773
15 Sep 2023 00:29:35.000,87.811,3.633,2345.200290
15 Sep 2023 00:29:40.000,88.245,3.327,2374.374655
15 Sep 2023 00:29:45.000,88.669,3.023,2403.665682
15 Sep 2023 00:29:50.000,89.082,2.723,2433.068401
15 Sep 2023 00:29:55.000,89.486,2.426,2462.578053
15 Sep 2023 00:30:00.000,89.880,2.132,2492.190079
15 Sep 2023 00:30:05.000,90.265,1.840,2521.900099
15 Sep 2023 00:30:10.000,90.641,1.552,2551.703926
15 Sep 2023 00:30:15.000,91.009,1.266,2581.597538
15 Sep 2023 00:30:20.000,91.368,0.983,2611.577076
15 Sep 2023 00:30:25.000,91.720,0.703,2641.638837
15 Sep 2023 00:30:30.000,92.064,0.425,2671.779266
15 Sep 2023 00:30:35.000,92.400,0.149,2701.995265
15 Sep 2023 00:30:37.731,92.581,0.000,2718.526830
15 Sep 2023 01:58:18.308,308.879,0.000,2725.715022
15 Sep 2023 01:58:23.000,308.861,0.283,2694.280906
15 Sep 2023 01:58:28.000,308.841,0.589,2660.783894
15 Sep 2023 01:58:33.000,308.820,0.899,2627.289174
15 Sep 2023 01:58:38.000,308.798,1.212,2593.797798
15 Sep 2023 01:58:43.000,308.775,1.530,2560.310848
15 Sep 2023 01:58:48.000,308.751,1.853,2526.829456
15 Sep 2023 01:58:53.000,308.726,2.180,2493.354805
15 Sep 2023 01:58:58.000,308.700,2.512,2459.888124
15 Sep 2023 01:59:03.000,308.672,2.849,2426.430698
15 Sep 2023 01:59:08.000,308.643,3.191,2392.983878
15 Sep 2023 01:59:13.000,308.613,3.538,2359.549069
15 Sep 2023 01:59:18.000,308.581,3.891,2326.127746
15 Sep 2023 01:59:23.000,308.548,4.250,2292.721456
15 Sep 2023 01:59:28.000,308.513,4.615,2259.331823
15 Sep 2023 01:59:33.000,308.477,4.987,2225.960555
15 Sep 2023 01:59:38.000,308.439,5.365,2192.609443
15 Sep 2023 01:59:43.000,308.399,5.750,2159.280387
15 Sep 2023 01:59:48.000,308.358,6.143,2125.975376
15 Sep 2023 01:59:53.000,308.314,6.543,2092.696516
15 Sep 2023 01:59:58.000,308.269,6.952,2059.446032
15 Sep 2023 02:00:03.000,308.221,7.368,2026.226276
15 Sep 2023 02:00:08.000,308.171,7.794,1993.039742
15 Sep 2023 02:00:13.000,308.119,8.229,1959.889074
15 Sep 2023 02:00:18.000,308.064,8.674,1926.777078
15 Sep 2023 02:00:23.000,308.007,9.129,1893.706738
15 Sep 2023 02:00:28.000,307.947,9.594,1860.681228
15 Sep 2023 02:00:33.000,307.883,10.071,1827.703935
15 Sep 2023 02:00:38.000,307.817,10.560,1794.778467
15 Sep 2023 02:00:43.000,307.747,11.062,1761.908684
15 Sep 2023 02:00:48.000,307.674,11.577,1729.098712
15 Sep 2023 02:00:53.000,307.597,12.106,1696.352972
15 Sep 2023 02:00:58.000,307.515,12.650,1663.676208
15 Sep 2023 02:01:03.000,307.430,13.209,1631.073511
15 Sep 2023 02:01:08.000,307.340,13.785,1598.550362
15 Sep 2023 02:01:13.000,307.245,14.379,1566.112661
15 Sep 2023 02:01:18.000,307.144,14.991,1533.766774
15 Sep 2023 02:01:23.000,307.038,15.623,1501.519580
15 Sep 2023 02:01:28.000,306.926,16.276,1469.378510
15 Sep 2023 02:01:33.000,306.807,16.952,1437.351625
15 Sep 2023 02:01:38.000,306.681,17.651,1405.447670
15 Sep 2023 02:01:43.000,306.548,18.375,1373.676136
15 Sep 2023 02:01:48.000,306.406,19.126,1342.047363
15 Sep 2023 02:01:53.000,306.255,19.907,1310.572616
15 Sep 2023 02:01:58.000,306.094,20.717,1279.264182
15 Sep 2023 02:02:03.000,305.922,21.561,1248.135503
15 Sep 2023 02:02:08.000,305.738,22.440,1217.201283
15 Sep 2023 02:02:13.000,305.541,23.356,1186.477641
15 Sep 2023 02:02:18.000,305.330,24.312,1155.982279
15 Sep 2023 02:02:23.000,305.103,25.312,1125.734647
15 Sep 2023 02:02:28.000,304.859,26.357,1095.756157
15 Sep 2023 02:02:33.000,304.594,27.452,1066.070403
15 Sep 2023 02:02:38.000,304.308,28.601,1036.703413
15 Sep 2023 02:02:43.000,303.997,29.806,1007.683931
15 Sep 2023 02:02:48.000,303.658,31.072,979.043725
15 Sep 2023 02:02:53.000,303.288,32.404,950.817918
15 Sep 2023 02:02:58.000,302.882,33.806,923.045377
15 Sep 2023 02:03:03.000,302.435,35.284,895.769091
15 Sep 2023 02:03:08.000,301.940,36.841,869.036608
15 Sep 2023 02:03:13.000,301.390,38.485,842.900473
15 Sep 2023 02:03:18.000,300.776,40.219,817.418679
15 Sep 2023 02:03:23.000,300.086,42.050,792.655108
15 Sep 2023 02:03:28.000,299.305,43.982,768.679923
15 Sep 2023 02:03:33.000,298.416,46.019,745.569914
15 Sep 2023 02:03:38.000,297.394,48.167,723.408704
15 Sep 2023 02:03:43.000,296.209,50.426,702.286800
15 Sep 2023 02:03:48.000,294.822,52.797,682.301373
15 Sep 2023 02:03:53.000,293.177,55.277,663.555736
15 Sep 2023 02:03:58.000,291.199,57.859,646.158377
15 Sep 2023 02:04:03.000,288.785,60.530,630.221504
15 Sep 2023 02:04:08.000,285.786,63.269,615.859008
15 Sep 2023 02:04:13.000,281.985,66.040,603.183816
15 Sep 2023 02:04:18.000,277.065,68.790,592.304663
15 Sep 2023 02:04:23.000,270.566,71.435,583.322402
15 Sep 2023 02:04:28.000,261.863,73.842,576.326031
15 Sep 2023 02:04:33.000,250.282,75.813,571.388743
15 Sep 2023 02:04:38.000,235.607,77.080,568.564345
15 Sep 2023 02:04:43.000,218.977,77.390,567.884555
15 Sep 2023 02:04:48.000,202.891,76.667,569.357074
15 Sep 2023 02:04:53.000,189.429,75.078,572.965311
15 Sep 2023 02:04:58.000,179.083,72.899,578.669263
15 Sep 2023 02:05:03.000,171.357,70.372,586.407664
15 Sep 2023 02:05:08.000,165.563,67.668,596.101120
15 Sep 2023 02:05:13.000,161.143,64.896,607.655854
15 Sep 2023 02:05:18.000,157.698,62.127,620.967699
15 Sep 2023 02:05:23.000,154.957,59.407,635.925999
15 Sep 2023 02:05:28.000,152.734,56.765,652.417153
15 Sep 2023 02:05:33.000,150.901,54.217,670.327628
15 Sep 2023 02:05:38.000,149.367,51.776,689.546392
15 Sep 2023 02:05:43.000,148.067,49.445,709.966723
15 Sep 2023 02:05:48.000,146.951,47.226,731.487486
15 Sep 2023 02:05:53.000,145.985,45.119,754.013917
15 Sep 2023 02:05:58.000,145.141,43.120,777.458031
15 Sep 2023 02:06:03.000,144.398,41.225,801.738732
15 Sep 2023 02:06:08.000,143.739,39.430,826.781696
15 Sep 2023 02:06:13.000,143.151,37.729,852.519106
15 Sep 2023 02:06:18.000,142.623,36.117,878.889297
15 Sep 2023 02:06:23.000,142.146,34.590,905.836322
15 Sep 2023 02:06:28.000,141.715,33.140,933.309524
15 Sep 2023 02:06:33.000,141.322,31.764,961.263369
15 Sep 2023 02:06:38.000,140.964,30.457,989.655848
15 Sep 2023 02:06:43.000,140.635,29.213,1018.449799
15 Sep 2023 02:06:48.000,140.332,28.029,1047.611371
15 Sep 2023 02:06:53.000,140.053,26.901,1077.109940
15 Sep 2023 02:06:58.000,139.795,25.824,1106.917794
15 Sep 2023 02:07:03.000,139.555,24.795,1137.009826
15 Sep 2023 02:07:08.000,139.333,23.812,1167.363270
15 Sep 2023 02:07:13.000,139.125,22.871,1197.957457
15 Sep 2023 02:07:18.000,138.931,21.968,1228.773599
15 Sep 2023 02:07:23.000,138.750,21.103,1259.794592
15 Sep 2023 02:07:28.000,138.580,20.271,1291.004854
15 Sep 2023 02:07:33.000,138.421,19.472,1322.390155
15 Sep 2023 02:07:38.000,138.271,18.702,1353.937494
15 Sep 2023 02:07:43.000,138.129,17.961,1385.634962
15 Sep 2023 02:07:48.000,137.996,17.246,1417.471652
15 Sep 2023 02:07:53.000,137.870,16.556,1449.437538
15 Sep 2023 02:07:58.000,137.751,15.888,1481.523408
15 Sep 2023 02:08:03.000,137.638,15.243,1513.720780
15 Sep 2023 02:08:08.000,137.531,14.618,1546.021825
15 Sep 2023 02:08:13.000,137.430,14.013,1578.419317
15 Sep 2023 02:08:18.000,137.333,13.426,1610.906571
15 Sep 2023 02:08:23.000,137.242,12.856,1643.477398
15 Sep 2023 02:08:28.000,137.155,12.302,1676.126049
15 Sep 2023 02:08:33.000,137.071,11.764,1708.847191
15 Sep 2023 02:08:38.000,136.992,11.240,1741.635859
15 Sep 2023 02:08:43.000,136.916,10.730,1774.487432
15 Sep 2023 02:08:48.000,136.844,10.232,1807.397595
15 Sep 2023 02:08:53.000,136.775,9.748,1840.362321
15 Sep 2023 02:08:58.000,136.709,9.275,1873.377843
15 Sep 2023 02:09:03.000,136.646,8.813,1906.440633
15 Sep 2023 02:09:08.000,136.585,8.362,1939.547382
15 Sep 2023 02:09:13.000,136.527,7.921,1972.694985
15 Sep 2023 02:09:18.000,136.472,7.489,2005.880522
15 Sep 2023 02:09:23.000,136.418,7.066,2039.101245
15 Sep 2023 02:09:28.000,136.367,6.653,2072.354563
15 Sep 2023 02:09:33.000,136.318,6.247,2105.638036
15 Sep 2023 02:09:38.000,136.270,5.849,2138.949350
15 Sep 2023 02:09:43.000,136.225,5.459,2172.286330
15 Sep 2023 02:09:48.000,136.181,5.077,2205.646907
15 Sep 2023 02:09:53.000,136.139,4.701,2239.029121
15 Sep 2023 02:09:58.000,136.098,4.331,2272.431114
15 Sep 2023 02:10:03.000,136.059,3.968,2305.851121
15 Sep 2023 02:10:08.000,136.021,3.611,2339.287464
15 Sep 2023 02:10:13.000,135.985,3.260,2372.738540
15 Sep 2023 02:10:18.000,135.950,2.915,2406.202832
15 Sep 2023 02:10:23.000,135.916,2.574,2439.678884
15 Sep 2023 02:10:28.000,135.883,2.239,2473.165309
15 Sep 2023 02:10:33.000,135.852,1.909,2506.660780
15 Sep 2023 02:10:38.000,135.821,1.584,2540.164028
15 Sep 2023 02:10:43.000,135.792,1.263,2573.673834
15 Sep 2023 02:10:48.000,135.764,0.946,2607.189038
15 Sep 2023 02:10:53.000,135.736,0.634,2640.708519
15 Sep 2023 02:10:58.000,135.710,0.325,2674.231203
15 Sep 2023 02:11:03.000,135.684,0.021,2707.756056
15 Sep 2023 02:11:03.345,135.682,0.000,2710.066456
15 Sep 2023 03:38:52.260,286.346,0.000,2722.188030
15 Sep 2023 03:38:57.000,285.857,0.212,2698.544156
15 Sep 2023 03:39:02.000,285.333,0.437,2673.795576
15 Sep 2023 03:39:07.000,284.798,0.661,2649.252330
15 Sep 2023 03:39:12.000,284.253,0.886,2624.920833
15 Sep 2023 03:39:17.000,283.698,1.110,2600.807691
15 Sep 2023 03:39:22.000,283.131,1.335,2576.919676
15 Sep 2023 03:39:27.000,282.554,1.560,2553.263746
15 Sep 2023 03:39:32.000,281.966,1.785,2529.847048
15 Sep 2023 03:39:37.000,281.366,2.009,2506.676906
15 Sep 2023 03:39:42.000,280.755,2.233,2483.760841
15 Sep 2023 03:39:47.000,280.132,2.457,2461.106563
15 Sep 2023 03:39:52.000,279.497,2.681,2438.721962
15 Sep 2023 03:39:57.000,278.850,2.904,2416.615134
15 Sep 2023 03:40:02.000,278.190,3.126,2394.794347
15 Sep 2023 03:40:07.000,277.518,3.348,2373.268076
15 Sep 2023 03:40:12.000,276.833,3.569,2352.044970
15 Sep 2023 03:40:17.000,276.135,3.789,2331.133867
15 Sep 2023 03:40:22.000,275.424,4.007,2310.543787
15 Sep 2023 03:40:27.000,274.699,4.225,2290.283924
15 Sep 2023 03:40:32.000,273.961,4.441,2270.363649
15 Sep 2023 03:40:37.000,273.210,4.655,2250.792498
15 Sep 2023 03:40:42.000,272.444,4.868,2231.580157
15 Sep 2023 03:40:47.000,271.665,5.079,2212.736475
15 Sep 2023 03:40:52.000,270.872,5.287,2194.271432
15 Sep 2023 03:40:57.000,270.065,5.494,2176.195138
15 Sep 2023 03:41:02.000,269.243,5.698,2158.517823
15 Sep 2023 03:41:07.000,268.407,5.899,2141.249817
15 Sep 2023 03:41:12.000,267.557,6.097,2124.401537
15 Sep 2023 03:41:17.000,266.693,6.292,2107.983477
15 Sep 2023 03:41:22.000,265.815,6.484,2092.006168
15 Sep 2023 03:41:27.000,264.922,6.672,2076.480191
15 Sep 2023 03:41:32.000,264.015,6.856,2061.416123
15 Sep 2023 03:41:37.000,263.094,7.036,2046.824534
15 Sep 2023 03:41:42.000,262.159,7.212,2032.715956
15 Sep 2023 03:41:47.000,261.211,7.383,2019.100857
15 Sep 2023 03:41:52.000,260.249,7.549,2005.989607
15 Sep 2023 03:41:57.000,259.273,7.710,1993.392467
15 Sep 2023 03:42:02.000,258.285,7.865,1981.319535
15 Sep 2023 03:42:07.000,257.283,8.015,1969.780731
15 Sep 2023 03:42:12.000,256.270,8.158,1958.785760
15 Sep 2023 03:42:17.000,255.244,8.296,1948.344077
15 Sep 2023 03:42:22.000,254.207,8.426,1938.464861
15 Sep 2023 03:42:27.000,253.159,8.550,1929.156963
15 Sep 2023 03:42:32.000,252.100,8.667,1920.428891
15 Sep 2023 03:42:37.000,251.030,8.777,1912.288766
15 Sep 2023 03:42:42.000,249.952,8.879,1904.744290
15 Sep 2023 03:42:47.000,248.864,8.973,1897.802719
15 Sep 2023 03:42:52.000,247.768,9.059,1891.470816
15 Sep 2023 03:42:57.000,246.665,9.137,1885.754835
15 Sep 2023 03:43:02.000,245.555,9.207,1880.660486
15 Sep 2023 03:43:07.000,244.438,9.268,1876.192907
15 Sep 2023 03:43:12.000,243.317,9.320,1872.356647
15 Sep 2023 03:43:17.000,242.190,9.364,1869.155629
15 Sep 2023 03:43:22.000,241.060,9.398,1866.593143
15 Sep 2023 03:43:27.000,239.927,9.424,1864.671823
15 Sep 2023 03:43:32.000,238.792,9.440,1863.393640
15 Sep 2023 03:43:37.000,237.656,9.447,1862.759878
15 Sep 2023 03:43:42.000,236.519,9.445,1862.771148
15 Sep 2023 03:43:47.000,235.382,9.434,1863.427364
15 Sep 2023 03:43:52.000,234.247,9.413,1864.727760
15 Sep 2023 03:43:57.000,233.114,9.384,1866.670875
15 Sep 2023 03:44:02.000,231.985,9.346,1869.254585
15 Sep 2023 03:44:07.000,230.858,9.298,1872.476092
15 Sep 2023 03:44:12.000,229.737,9.242,1876.331948
15 Sep 2023 03:44:17.000,228.621,9.177,1880.818072
15 Sep 2023 03:44:22.000,227.511,9.104,1885.929814
15 Sep 2023 03:44:27.000,226.408,9.022,1891.661807
15 Sep 2023 03:44:32.000,225.313,8.932,1898.008234
15 Sep 2023 03:44:37.000,224.226,8.834,1904.962706
15 Sep 2023 03:44:42.000,223.147,8.729,1912.518324
15 Sep 2023 03:44:47.000,222.079,8.616,1920.667707
15 Sep 2023 03:44:52.000,221.020,8.495,1929.403036
15 Sep 2023 03:44:57.000,219.972,8.368,1938.716072
15 Sep 2023 03:45:02.000,218.936,8.234,1948.598201
15 Sep 2023 03:45:07.000,217.910,8.093,1959.040465
15 Sep 2023 03:45:12.000,216.897,7.947,1970.033590
15 Sep 2023 03:45:17.000,215.896,7.794,1981.568034
15 Sep 2023 03:45:22.000,214.908,7.636,1993.634006
15 Sep 2023 03:45:27.000,213.933,7.472,2006.221510
15 Sep 2023 03:45:32.000,212.971,7.303,2019.320371
15 Sep 2023 03:45:37.000,212.023,7.130,2032.920270
15 Sep 2023 03:45:42.000,211.088,6.952,2047.010769
15 Sep 2023 03:45:47.000,210.167,6.769,2061.581349
15 Sep 2023 03:45:52.000,209.260,6.583,2076.621428
15 Sep 2023 03:45:57.000,208.368,6.392,2092.120391
15 Sep 2023 03:46:02.000,207.489,6.198,2108.067618
15 Sep 2023 03:46:07.000,206.624,6.001,2124.452502
15 Sep 2023 03:46:12.000,205.774,5.801,2141.264470
15 Sep 2023 03:46:17.000,204.938,5.598,2158.493008
15 Sep 2023 03:46:22.000,204.115,5.392,2176.127675
15 Sep 2023 03:46:27.000,203.307,5.184,2194.158120
15 Sep 2023 03:46:32.000,202.513,4.974,2212.574100
15 Sep 2023 03:46:37.000,201.733,4.762,2231.365490
15 Sep 2023 03:46:42.000,200.967,4.547,2250.522296
15 Sep 2023 03:46:47.000,200.214,4.332,2270.034672
15 Sep 2023 03:46:52.000,199.474,4.114,2289.892916
15 Sep 2023 03:46:57.000,198.749,3.896,2310.087496
15 Sep 2023 03:47:02.000,198.036,3.676,2330.609039
15 Sep 2023 03:47:07.000,197.336,3.455,2351.448352
15 Sep 2023 03:47:12.000,196.649,3.233,2372.596418
15 Sep 2023 03:47:17.000,195.975,3.010,2394.044403
15 Sep 2023 03:47:22.000,195.313,2.787,2415.783660
15 Sep 2023 03:47:27.000,194.664,2.563,2437.805730
15 Sep 2023 03:47:32.000,194.026,2.339,2460.102345
15 Sep 2023 03:47:37.000,193.401,2.114,2482.665424
15 Sep 2023 03:47:42.000,192.787,1.889,2505.487082
15 Sep 2023 03:47:47.000,192.185,1.664,2528.559621
15 Sep 2023 03:47:52.000,191.593,1.439,2551.875535
15 Sep 2023 03:47:57.000,191.013,1.214,2575.427505
15 Sep 2023 03:48:02.000,190.444,0.989,2599.208400
15 Sep 2023 03:48:07.000,189.885,0.763,2623.211274
15 Sep 2023 03:48:12.000,189.336,0.538,2647.429363
15 Sep 2023 03:48:17.000,188.798,0.314,2671.856084
15 Sep 2023 03:48:22.000,188.269,0.089,2696.485029
15 Sep 2023 03:48:23.986,188.062,0.000,2706.324668
15 Sep 2023 17:32:23.853,195.763,0.000,2702.196789
15 Sep 2023 17:32:28.000,195.508,0.232,2676.646510
15 Sep 2023 17:32:33.000,195.192,0.514,2645.907029
15 Sep 2023 17:32:38.000,194.870,0.798,2615.241987
15 Sep 2023 17:32:43.000,194.539,1.086,2584.654945
15 Sep 2023 17:32:48.000,194.200,1.376,2554.149610
15 Sep 2023 17:32:53.000,193.853,1.669,2523.729847
15 Sep 2023 17:32:58.000,193.497,1.965,2493.399692
15 Sep 2023 17:33:03.000,193.132,2.264,2463.163353
15 Sep 2023 17:33:08.000,192.757,2.566,2433.025224
15 Sep 2023 17:33:13.000,192.373,2.872,2402.989899
15 Sep 2023 17:33:18.000,191.979,3.181,2373.062170
15 Sep 2023 17:33:23.000,191.574,3.493,2343.247052
15 Sep 2023 17:33:28.000,191.159,3.808,2313.549784
15 Sep 2023 17:33:33.000,190.732,4.127,2283.975848
15 Sep 2023 17:33:38.000,190.293,4.450,2254.530976
15 Sep 2023 17:33:43.000,189.842,4.776,2225.221171
15 Sep 2023 17:33:48.000,189.378,5.106,2196.052715
15 Sep 2023 17:33:53.000,188.902,5.440,2167.032186
15 Sep 2023 17:33:58.000,188.411,5.778,2138.166473
15 Sep 2023 17:34:03.000,187.907,6.119,2109.462794
15 Sep 2023 17:34:08.000,187.387,6.465,2080.928715
15 Sep 2023 17:34:13.000,186.853,6.815,2052.572161
15 Sep 2023 17:34:18.000,186.302,7.169,2024.401442
15 Sep 2023 17:34:23.000,185.734,7.527,1996.425269
15 Sep 2023 17:34:28.000,185.150,7.889,1968.652776
15 Sep 2023 17:34:33.000,184.547,8.256,1941.093538
15 Sep 2023 17:34:38.000,183.926,8.626,1913.757599
15 Sep 2023 17:34:43.000,183.285,9.001,1886.655485
15 Sep 2023 17:34:48.000,182.624,9.381,1859.798235
15 Sep 2023 17:34:53.000,181.942,9.764,1833.197422
15 Sep 2023 17:34:58.000,181.238,10.152,1806.865173
15 Sep 2023 17:35:03.000,180.511,10.544,1780.814197
15 Sep 2023 17:35:08.000,179.760,10.940,1755.057808
15 Sep 2023 17:35:13.000,178.985,11.340,1729.609945
15 Sep 2023 17:35:18.000,178.185,11.743,1704.485198
15 Sep 2023 17:35:23.000,177.358,12.151,1679.698830
15 Sep 2023 17:35:28.000,176.503,12.562,1655.266794
15 Sep 2023 17:35:33.000,175.620,12.976,1631.205756
15 Sep 2023 17:35:38.000,174.707,13.392,1607.533106
15 Sep 2023 17:35:43.000,173.764,13.812,1584.266978
15 Sep 2023 17:35:48.000,172.789,14.234,1561.426255
15 Sep 2023 17:35:53.000,171.781,14.657,1539.030577
15 Sep 2023 17:35:58.000,170.739,15.082,1517.100339
15 Sep 2023 17:36:03.000,169.663,15.507,1495.656690
15 Sep 2023 17:36:08.000,168.550,15.932,1474.721515
15 Sep 2023 17:36:13.000,167.401,16.356,1454.317420
15 Sep 2023 17:36:18.000,166.215,16.779,1434.467695
15 Sep 2023 17:36:23.000,164.989,17.200,1415.196287
15 Sep 2023 17:36:28.000,163.724,17.617,1396.527732
15 Sep 2023 17:36:33.000,162.420,18.029,1378.487107
15 Sep 2023 17:36:38.000,161.075,18.436,1361.099944
15 Sep 2023 17:36:43.000,159.688,18.836,1344.392143
15 Sep 2023 17:36:48.000,158.261,19.227,1328.389861
15 Sep 2023 17:36:53.000,156.793,19.609,1313.119402
15 Sep 2023 17:36:58.000,155.283,19.980,1298.607065
15 Sep 2023 17:37:03.000,153.733,20.338,1284.879000
15 Sep 2023 17:37:08.000,152.143,20.681,1271.961046
15 Sep 2023 17:37:13.000,150.514,21.008,1259.878537
15 Sep 2023 17:37:18.000,148.847,21.318,1248.656120
15 Sep 2023 17:37:23.000,147.144,21.608,1238.317547
15 Sep 2023 17:37:28.000,145.407,21.877,1228.885473
15 Sep 2023 17:37:33.000,143.637,22.123,1220.381232
15 Sep 2023 17:37:38.000,141.838,22.345,1212.824632
15 Sep 2023 17:37:43.000,140.012,22.541,1206.233753
15 Sep 2023 17:37:48.000,138.163,22.711,1200.624731
15 Sep 2023 17:37:53.000,136.293,22.851,1196.011589
15 Sep 2023 17:37:58.000,134.407,22.963,1192.406070
15 Sep 2023 17:38:03.000,132.508,23.044,1189.817484
15 Sep 2023 17:38:08.000,130.601,23.095,1188.252600
15 Sep 2023 17:38:13.000,128.690,23.114,1187.715569
15 Sep 2023 17:38:18.000,126.778,23.102,1188.207838
15 Sep 2023 17:38:23.000,124.870,23.060,1189.728163
15 Sep 2023 17:38:28.000,122.970,22.986,1192.272624
15 Sep 2023 17:38:33.000,121.083,22.882,1195.834655
15 Sep 2023 17:38:38.000,119.212,22.749,1200.405145
15 Sep 2023 17:38:43.000,117.361,22.587,1205.972555
15 Sep 2023 17:38:48.000,115.533,22.398,1212.523038
15 Sep 2023 17:38:53.000,113.731,22.183,1220.040623
15 Sep 2023 17:38:58.000,111.959,21.943,1228.507401
15 Sep 2023 17:39:03.000,110.219,21.680,1237.903697
15 Sep 2023 17:39:08.000,108.513,21.396,1248.208305
15 Sep 2023 17:39:13.000,106.843,21.093,1259.398693
15 Sep 2023 17:39:18.000,105.211,20.771,1271.451199
15 Sep 2023 17:39:23.000,103.618,20.433,1284.341265
15 Sep 2023 17:39:28.000,102.065,20.080,1298.043622
15 Sep 2023 17:39:33.000,100.552,19.714,1312.532497
15 Sep 2023 17:39:38.000,99.081,19.337,1327.781778
15 Sep 2023 17:39:43.000,97.651,18.950,1343.765198
15 Sep 2023 17:39:48.000,96.262,18.554,1360.456476
15 Sep 2023 17:39:53.000,94.914,18.151,1377.829470
15 Sep 2023 17:39:58.000,93.607,17.742,1395.858282
15 Sep 2023 17:40:03.000,92.340,17.328,1414.517377
15 Sep 2023 17:40:08.000,91.112,16.911,1433.781671
15 Sep 2023 17:40:13.000,89.924,16.491,1453.626602
15 Sep 2023 17:40:18.000,88.773,16.069,1474.028215
15 Sep 2023 17:40:23.000,87.659,15.646,1494.963184
15 Sep 2023 17:40:28.000,86.581,15.224,1516.408881
15 Sep 2023 17:40:33.000,85.538,14.801,1538.343388
15 Sep 2023 17:40:38.000,84.529,14.380,1560.745522
15 Sep 2023 17:40:43.000,83.553,13.960,1583.594858
15 Sep 2023 17:40:48.000,82.609,13.542,1606.871716
15 Sep 2023 17:40:53.000,81.696,13.127,1630.557179
15 Sep 2023 17:40:58.000,80.813,12.715,1654.633078
15 Sep 2023 17:41:03.000,79.958,12.305,1679.081986
15 Sep 2023 17:41:08.000,79.131,11.899,1703.887202
15 Sep 2023 17:41:13.000,78.331,11.497,1729.032737
15 Sep 2023 17:41:18.000,77.557,11.098,1754.503290
15 Sep 2023 17:41:23.000,76.807,10.703,1780.284245
15 Sep 2023 17:41:28.000,76.082,10.312,1806.361621
15 Sep 2023 17:41:33.000,75.379,9.925,1832.722078
15 Sep 2023 17:41:38.000,74.698,9.542,1859.352876
15 Sep 2023 17:41:43.000,74.038,9.164,1886.241857
15 Sep 2023 17:41:48.000,73.399,8.790,1913.377420
15 Sep 2023 17:41:53.000,72.780,8.419,1940.748500
15 Sep 2023 17:41:58.000,72.179,8.054,1968.344542
15 Sep 2023 17:42:03.000,71.597,7.692,1996.155479
15 Sep 2023 17:42:08.000,71.032,7.334,2024.171711
15 Sep 2023 17:42:13.000,70.484,6.981,2052.384079
15 Sep 2023 17:42:18.000,69.952,6.632,2080.783855
15 Sep 2023 17:42:23.000,69.435,6.286,2109.362705
15 Sep 2023 17:42:28.000,68.934,5.945,2138.112686
15 Sep 2023 17:42:33.000,68.447,5.607,2167.026211
15 Sep 2023 17:42:38.000,67.973,5.274,2196.096047
15 Sep 2023 17:42:43.000,67.513,4.944,2225.315290
15 Sep 2023 17:42:48.000,67.066,4.618,2254.677340
15 Sep 2023 17:42:53.000,66.631,4.296,2284.175903
15 Sep 2023 17:42:58.000,66.208,3.977,2313.804963
15 Sep 2023 17:43:03.000,65.797,3.661,2343.559088
15 Sep 2023 17:43:08.000,65.396,3.349,2373.432156
15 Sep 2023 17:43:13.000,65.006,3.041,2403.419227
15 Sep 2023 17:43:18.000,64.627,2.735,2433.515277
15 Sep 2023 17:43:23.000,64.257,2.433,2463.715501
15 Sep 2023 17:43:28.000,63.897,2.134,2494.015298
15 Sep 2023 17:43:33.000,63.546,1.838,2524.410264
15 Sep 2023 17:43:38.000,63.204,1.545,2554.896179
15 Sep 2023 17:43:43.000,62.870,1.255,2585.469001
15 Sep 2023 17:43:48.000,62.545,0.967,2616.124856
15 Sep 2023 17:43:53.000,62.227,0.683,2646.860025
15 Sep 2023 17:43:58.000,61.918,0.401,2677.670950
15 Sep 2023 17:44:03.000,61.615,0.122,2708.554206
15 Sep 2023 17:44:05.191,61.485,-0.000,2722.111688
15 Sep 2023 19:11:17.346,242.824,0.000,2709.299654
15 Sep 2023 19:11:22.000,242.960,0.278,2678.626170
15 Sep 2023 19:11:27.000,243.108,0.581,2645.685268
15 Sep 2023 19:11:32.000,243.260,0.887,2612.759965
15 Sep 2023 19:11:37.000,243.415,1.197,2579.851767
15 Sep 2023 19:11:42.000,243.575,1.511,2546.962244
15 Sep 2023 19:11:47.000,243.738,1.829,2514.093036
15 Sep 2023 19:11:52.000,243.906,2.152,2481.245858
15 Sep 2023 19:11:57.000,244.077,2.479,2448.422502
15 Sep 2023 19:12:02.000,244.253,2.811,2415.624843
15 Sep 2023 19:12:07.000,244.434,3.148,2382.854847
15 Sep 2023 19:12:12.000,244.620,3.489,2350.114573
15 Sep 2023 19:12:17.000,244.811,3.837,2317.406184
15 Sep 2023 19:12:22.000,245.007,4.189,2284.731949
15 Sep 2023 19:12:27.000,245.208,4.547,2252.094254
15 Sep 2023 19:12:32.000,245.416,4.912,2219.495611
15 Sep 2023 19:12:37.000,245.629,5.282,2186.938663
15 Sep 2023 19:12:42.000,245.849,5.659,2154.426198
15 Sep 2023 19:12:47.000,246.075,6.043,2121.961150
15 Sep 2023 19:12:52.000,246.309,6.433,2089.546624
15 Sep 2023 19:12:57.000,246.550,6.831,2057.185899
15 Sep 2023 19:13:02.000,246.798,7.237,2024.882445
15 Sep 2023 19:13:07.000,247.055,7.651,1992.639938
15 Sep 2023 19:13:12.000,247.320,8.073,1960.462262
15 Sep 2023 19:13:17.000,247.595,8.504,1928.353551
15 Sep 2023 19:13:22.000,247.878,8.944,1896.318188
15 Sep 2023 19:13:27.000,248.172,9.393,1864.360838
15 Sep 2023 19:13:32.000,248.477,9.853,1832.486449
15 Sep 2023 19:13:37.000,248.792,10.323,1800.700307
15 Sep 2023 19:13:42.000,249.120,10.804,1769.008040
15 Sep 2023 19:13:47.000,249.460,11.296,1737.415648
15 Sep 2023 19:13:52.000,249.813,11.801,1705.929550
15 Sep 2023 19:13:57.000,250.181,12.318,1674.556597
15 Sep 2023 19:14:02.000,250.563,12.848,1643.304134
15 Sep 2023 19:14:07.000,250.962,13.392,1612.180014
15 Sep 2023 19:14:12.000,251.378,13.951,1581.192673
15 Sep 2023 19:14:17.000,251.811,14.525,1550.351155
15 Sep 2023 19:14:22.000,252.264,15.115,1519.665178
15 Sep 2023 19:14:27.000,252.738,15.722,1489.145190
15 Sep 2023 19:14:32.000,253.234,16.347,1458.802448
15 Sep 2023 19:14:37.000,253.754,16.990,1428.649065
15 Sep 2023 19:14:42.000,254.299,17.652,1398.698109
15 Sep 2023 19:14:47.000,254.872,18.335,1368.963678
15 Sep 2023 19:14:52.000,255.474,19.039,1339.460997
15 Sep 2023 19:14:57.000,256.108,19.765,1310.206520
15 Sep 2023 19:15:02.000,256.777,20.515,1281.218045
15 Sep 2023 19:15:07.000,257.482,21.289,1252.514815
15 Sep 2023 19:15:12.000,258.227,22.089,1224.117676
15 Sep 2023 19:15:17.000,259.016,22.915,1196.049188
15 Sep 2023 19:15:22.000,259.852,23.768,1168.333798
15 Sep 2023 19:15:27.000,260.740,24.650,1140.997976
15 Sep 2023 19:15:32.000,261.683,25.561,1114.070392
15 Sep 2023 19:15:37.000,262.688,26.501,1087.582088
15 Sep 2023 19:15:42.000,263.758,27.473,1061.566652
15 Sep 2023 19:15:47.000,264.902,28.475,1036.060393
15 Sep 2023 19:15:52.000,266.125,29.509,1011.102523
15 Sep 2023 19:15:57.000,267.435,30.573,986.735307
15 Sep 2023 19:16:02.000,268.840,31.667,963.004220
15 Sep 2023 19:16:07.000,270.351,32.790,939.958063
15 Sep 2023 19:16:12.000,271.975,33.940,917.649039
15 Sep 2023 19:16:17.000,273.726,35.113,896.132777
15 Sep 2023 19:16:22.000,275.614,36.306,875.468278
