xian_to_sherpa-ltc2_Access_AER.csv

"Time (UTCG)","Azimuth (deg)","Elevation (deg)","Range (km)"
14 Sep 2023 04:50:14.113,284.877,0.000,2984.442330
14 Sep 2023 04:50:15.000,284.957,0.045,2980.151374
14 Sep 2023 04:50:16.000,285.048,0.096,2975.317673
14 Sep 2023 04:50:17.000,285.139,0.147,2970.490360
14 Sep 2023 04:50:18.000,285.231,0.198,2965.669461
14 Sep 2023 04:50:19.000,285.323,0.249,2960.855016
14 Sep 2023 04:50:20.000,285.415,0.300,2956.047052
14 Sep 2023 04:50:21.000,285.507,0.351,2951.245608
14 Sep 2023 04:50:22.000,285.600,0.403,2946.450720
14 Sep 2023 04:50:23.000,285.693,0.454,2941.662417
14 Sep 2023 04:50:24.000,285.786,0.505,2936.880739
14 Sep 2023 04:50:25.000,285.879,0.556,2932.105715
14 Sep 2023 04:50:26.000,285.973,0.608,2927.337382
14 Sep 2023 04:50:27.000,286.067,0.659,2922.575780
14 Sep 2023 04:50:28.000,286.162,0.710,2917.820936
14 Sep 2023 04:50:29.000,286.256,0.762,2913.072893
14 Sep 2023 04:50:30.000,286.351,0.813,2908.331680
14 Sep 2023 04:50:31.000,286.447,0.865,2903.597339
14 Sep 2023 04:50:32.000,286.542,0.916,2898.869898
14 Sep 2023 04:50:33.000,286.638,0.968,2894.149399
14 Sep 2023 04:50:34.000,286.734,1.019,2889.435879
14 Sep 2023 04:50:35.000,286.831,1.071,2884.729370
14 Sep 2023 04:50:36.000,286.928,1.123,2880.029913
14 Sep 2023 04:50:37.000,287.025,1.175,2875.337540
14 Sep 2023 04:50:38.000,287.122,1.226,2870.652293
14 Sep 2023 04:50:39.000,287.220,1.278,2865.974203
14 Sep 2023 04:50:40.000,287.318,1.330,2861.303311
14 Sep 2023 04:50:41.000,287.417,1.382,2856.639658
14 Sep 2023 04:50:42.000,287.515,1.434,2851.983273
14 Sep 2023 04:50:43.000,287.614,1.486,2847.334203
14 Sep 2023 04:50:44.000,287.714,1.538,2842.692477
14 Sep 2023 04:50:45.000,287.814,1.590,2838.058142
14 Sep 2023 04:50:46.000,287.914,1.642,2833.431228
14 Sep 2023 04:50:47.000,288.014,1.694,2828.811780
14 Sep 2023 04:50:48.000,288.115,1.746,2824.199831
14 Sep 2023 04:50:49.000,288.215,1.798,2819.595426
14 Sep 2023 04:50:50.000,288.317,1.850,2814.998597
14 Sep 2023 04:50:51.000,288.418,1.902,2810.409386
14 Sep 2023 04:50:52.000,288.520,1.954,2805.827838
14 Sep 2023 04:50:53.000,288.623,2.007,2801.253983
14 Sep 2023 04:50:54.000,288.725,2.059,2796.687870
14 Sep 2023 04:50:55.000,288.828,2.111,2792.129530
14 Sep 2023 04:50:56.000,288.931,2.164,2787.579011
14 Sep 2023 04:50:57.000,289.035,2.216,2783.036346
14 Sep 2023 04:50:58.000,289.139,2.268,2778.501583
14 Sep 2023 04:50:59.000,289.243,2.321,2773.974755
14 Sep 2023 04:51:00.000,289.348,2.373,2769.455909
14 Sep 2023 04:51:01.000,289.453,2.426,2764.945080
14 Sep 2023 04:51:02.000,289.558,2.478,2760.442316
14 Sep 2023 04:51:03.000,289.664,2.531,2755.947652
14 Sep 2023 04:51:04.000,289.770,2.583,2751.461135
14 Sep 2023 04:51:05.000,289.876,2.636,2746.982800
14 Sep 2023 04:51:06.000,289.983,2.689,2742.512697
14 Sep 2023 04:51:07.000,290.090,2.741,2738.050860
14 Sep 2023 04:51:08.000,290.197,2.794,2733.597339
14 Sep 2023 04:51:09.000,290.305,2.847,2729.152169
14 Sep 2023 04:51:10.000,290.413,2.900,2724.715399
14 Sep 2023 04:51:11.000,290.522,2.952,2720.287065
14 Sep 2023 04:51:12.000,290.630,3.005,2715.867218
14 Sep 2023 04:51:13.000,290.739,3.058,2711.455893
14 Sep 2023 04:51:14.000,290.849,3.111,2707.053142
14 Sep 2023 04:51:15.000,290.959,3.164,2702.658999
14 Sep 2023 04:51:16.000,291.069,3.217,2698.273516
14 Sep 2023 04:51:17.000,291.180,3.269,2693.896734
14 Sep 2023 04:51:18.000,291.291,3.322,2689.528692
14 Sep 2023 04:51:19.000,291.402,3.375,2685.169443
14 Sep 2023 04:51:20.000,291.514,3.428,2680.819023
14 Sep 2023 04:51:21.000,291.626,3.481,2676.477485
14 Sep 2023 04:51:22.000,291.738,3.534,2672.144866
14 Sep 2023 04:51:23.000,291.851,3.587,2667.821217
14 Sep 2023 04:51:24.000,291.964,3.640,2663.506578
14 Sep 2023 04:51:25.000,292.077,3.693,2659.201000
14 Sep 2023 04:51:26.000,292.191,3.747,2654.904526
14 Sep 2023 04:51:27.000,292.305,3.800,2650.617198
14 Sep 2023 04:51:28.000,292.420,3.853,2646.339068
14 Sep 2023 04:51:29.000,292.535,3.906,2642.070176
14 Sep 2023 04:51:30.000,292.650,3.959,2637.810575
14 Sep 2023 04:51:31.000,292.766,4.012,2633.560305
14 Sep 2023 04:51:32.000,292.882,4.065,2629.319418
14 Sep 2023 04:51:33.000,292.999,4.119,2625.087960
14 Sep 2023 04:51:34.000,293.116,4.172,2620.865972
14 Sep 2023 04:51:35.000,293.233,4.225,2616.653509
14 Sep 2023 04:51:36.000,293.351,4.278,2612.450612
14 Sep 2023 04:51:37.000,293.469,4.332,2608.257335
14 Sep 2023 04:51:38.000,293.587,4.385,2604.073723
14 Sep 2023 04:51:39.000,293.706,4.438,2599.899819
14 Sep 2023 04:51:40.000,293.825,4.492,2595.735679
14 Sep 2023 04:51:41.000,293.945,4.545,2591.581344
14 Sep 2023 04:51:42.000,294.065,4.598,2587.436870
14 Sep 2023 04:51:43.000,294.185,4.651,2583.302302
14 Sep 2023 04:51:44.000,294.306,4.705,2579.177684
14 Sep 2023 04:51:45.000,294.427,4.758,2575.063074
14 Sep 2023 04:51:46.000,294.548,4.811,2570.958513
14 Sep 2023 04:51:47.000,294.670,4.865,2566.864058
14 Sep 2023 04:51:48.000,294.793,4.918,2562.779754
14 Sep 2023 04:51:49.000,294.915,4.972,2558.705649
14 Sep 2023 04:51:50.000,295.039,5.025,2554.641798
14 Sep 2023 04:51:51.000,295.162,5.078,2550.588249
14 Sep 2023 04:51:52.000,295.286,5.132,2546.545047
14 Sep 2023 04:51:53.000,295.410,5.185,2542.512252
14 Sep 2023 04:51:54.000,295.535,5.238,2538.489909
14 Sep 2023 04:51:55.000,295.660,5.292,2534.478065
14 Sep 2023 04:51:56.000,295.786,5.345,2530.476780
14 Sep 2023 04:51:57.000,295.912,5.398,2526.486101
14 Sep 2023 04:51:58.000,296.038,5.452,2522.506074
14 Sep 2023 04:51:59.000,296.165,5.505,2518.536760
14 Sep 2023 04:52:00.000,296.292,5.559,2514.578205
14 Sep 2023 04:52:01.000,296.420,5.612,2510.630459
14 Sep 2023 04:52:02.000,296.548,5.665,2506.693580
14 Sep 2023 04:52:03.000,296.677,5.719,2502.767616
14 Sep 2023 04:52:04.000,296.805,5.772,2498.852618
14 Sep 2023 04:52:05.000,296.935,5.825,2494.948643
14 Sep 2023 04:52:06.000,297.064,5.879,2491.055742
14 Sep 2023 04:52:07.000,297.195,5.932,2487.173967
14 Sep 2023 04:52:08.000,297.325,5.985,2483.303367
14 Sep 2023 04:52:09.000,297.456,6.039,2479.444003
14 Sep 2023 04:52:10.000,297.587,6.092,2475.595925
14 Sep 2023 04:52:11.000,297.719,6.145,2471.759182
14 Sep 2023 04:52:12.000,297.852,6.198,2467.933835
14 Sep 2023 04:52:13.000,297.984,6.252,2464.119934
14 Sep 2023 04:52:14.000,298.117,6.305,2460.317534
14 Sep 2023 04:52:15.000,298.251,6.358,2456.526684
14 Sep 2023 04:52:16.000,298.385,6.411,2452.747446
14 Sep 2023 04:52:17.000,298.519,6.464,2448.979872
14 Sep 2023 04:52:18.000,298.654,6.517,2445.224011
14 Sep 2023 04:52:19.000,298.789,6.571,2441.479926
14 Sep 2023 04:52:20.000,298.925,6.624,2437.747667
14 Sep 2023 04:52:21.000,299.061,6.677,2434.027291
14 Sep 2023 04:52:22.000,299.198,6.730,2430.318852
14 Sep 2023 04:52:23.000,299.335,6.783,2426.622401
14 Sep 2023 04:52:24.000,299.472,6.836,2422.938002
14 Sep 2023 04:52:25.000,299.610,6.889,2419.265706
14 Sep 2023 04:52:26.000,299.748,6.942,2415.605568
14 Sep 2023 04:52:27.000,299.887,6.995,2411.957642
14 Sep 2023 04:52:28.000,300.026,7.048,2408.321991
14 Sep 2023 04:52:29.000,300.166,7.100,2404.698666
14 Sep 2023 04:52:30.000,300.306,7.153,2401.087723
14 Sep 2023 04:52:31.000,300.446,7.206,2397.489221
14 Sep 2023 04:52:32.000,300.587,7.259,2393.903210
14 Sep 2023 04:52:33.000,300.729,7.312,2390.329755
14 Sep 2023 04:52:34.000,300.871,7.364,2386.768910
14 Sep 2023 04:52:35.000,301.013,7.417,2383.220730
14 Sep 2023 04:52:36.000,301.156,7.469,2379.685273
14 Sep 2023 04:52:37.000,301.299,7.522,2376.162593
14 Sep 2023 04:52:38.000,301.443,7.575,2372.652753
14 Sep 2023 04:52:39.000,301.587,7.627,2369.155808
14 Sep 2023 04:52:40.000,301.731,7.679,2365.671815
14 Sep 2023 04:52:41.000,301.876,7.732,2362.200830
14 Sep 2023 04:52:42.000,302.022,7.784,2358.742913
14 Sep 2023 04:52:43.000,302.168,7.836,2355.298118
14 Sep 2023 04:52:44.000,302.314,7.889,2351.866508
14 Sep 2023 04:52:45.000,302.461,7.941,2348.448138
14 Sep 2023 04:52:46.000,302.608,7.993,2345.043067
14 Sep 2023 04:52:47.000,302.756,8.045,2341.651352
14 Sep 2023 04:52:48.000,302.904,8.097,2338.273052
14 Sep 2023 04:52:49.000,303.052,8.149,2334.908226
14 Sep 2023 04:52:50.000,303.202,8.201,2331.556930
14 Sep 2023 04:52:51.000,303.351,8.253,2328.219222
14 Sep 2023 04:52:52.000,303.501,8.305,2324.895165
14 Sep 2023 04:52:53.000,303.652,8.356,2321.584814
14 Sep 2023 04:52:54.000,303.802,8.408,2318.288230
14 Sep 2023 04:52:55.000,303.954,8.460,2315.005470
14 Sep 2023 04:52:56.000,304.106,8.511,2311.736593
14 Sep 2023 04:52:57.000,304.258,8.563,2308.481659
14 Sep 2023 04:52:58.000,304.411,8.614,2305.240725
14 Sep 2023 04:52:59.000,304.564,8.665,2302.013852
14 Sep 2023 04:53:00.000,304.718,8.717,2298.801097
14 Sep 2023 04:53:01.000,304.872,8.768,2295.602518
14 Sep 2023 04:53:02.000,305.026,8.819,2292.418180
14 Sep 2023 04:53:03.000,305.181,8.870,2289.248138
14 Sep 2023 04:53:04.000,305.337,8.921,2286.092451
14 Sep 2023 04:53:05.000,305.493,8.972,2282.951180
14 Sep 2023 04:53:06.000,305.649,9.023,2279.824384
14 Sep 2023 04:53:07.000,305.806,9.073,2276.712121
14 Sep 2023 04:53:08.000,305.964,9.124,2273.614452
14 Sep 2023 04:53:09.000,306.121,9.174,2270.531435
14 Sep 2023 04:53:10.000,306.280,9.225,2267.463130
14 Sep 2023 04:53:11.000,306.439,9.275,2264.409596
14 Sep 2023 04:53:12.000,306.598,9.326,2261.370893
14 Sep 2023 04:53:13.000,306.757,9.376,2258.347081
14 Sep 2023 04:53:14.000,306.918,9.426,2255.338219
14 Sep 2023 04:53:15.000,307.078,9.476,2252.344365
14 Sep 2023 04:53:16.000,307.239,9.526,2249.365581
14 Sep 2023 04:53:17.000,307.401,9.575,2246.401925
14 Sep 2023 04:53:18.000,307.563,9.625,2243.453456
14 Sep 2023 04:53:19.000,307.725,9.675,2240.520235
14 Sep 2023 04:53:20.000,307.888,9.724,2237.602320
14 Sep 2023 04:53:21.000,308.052,9.774,2234.699771
14 Sep 2023 04:53:22.000,308.216,9.823,2231.812648
14 Sep 2023 04:53:23.000,308.380,9.872,2228.941009
14 Sep 2023 04:53:24.000,308.545,9.921,2226.084913
14 Sep 2023 04:53:25.000,308.710,9.970,2223.244422
14 Sep 2023 04:53:26.000,308.876,10.019,2220.419592
14 Sep 2023 04:53:27.000,309.042,10.067,2217.610484
14 Sep 2023 04:53:28.000,309.208,10.116,2214.817157
14 Sep 2023 04:53:29.000,309.375,10.164,2212.039672
14 Sep 2023 04:53:30.000,309.543,10.213,2209.278083
14 Sep 2023 04:53:31.000,309.711,10.261,2206.532452
14 Sep 2023 04:53:32.000,309.879,10.309,2203.802838
14 Sep 2023 04:53:33.000,310.048,10.357,2201.089298
14 Sep 2023 04:53:34.000,310.218,10.405,2198.391893
14 Sep 2023 04:53:35.000,310.388,10.452,2195.710680
14 Sep 2023 04:53:36.000,310.558,10.500,2193.045719
14 Sep 2023 04:53:37.000,310.729,10.547,2190.397067
14 Sep 2023 04:53:38.000,310.900,10.595,2187.764783
14 Sep 2023 04:53:39.000,311.072,10.642,2185.148928
14 Sep 2023 04:53:40.000,311.244,10.689,2182.549554
14 Sep 2023 04:53:41.000,311.416,10.736,2179.966722
14 Sep 2023 04:53:42.000,311.589,10.782,2177.400491
14 Sep 2023 04:53:43.000,311.763,10.829,2174.850917
14 Sep 2023 04:53:44.000,311.937,10.875,2172.318059
14 Sep 2023 04:53:45.000,312.111,10.922,2169.801974
14 Sep 2023 04:53:46.000,312.286,10.968,2167.302722
14 Sep 2023 04:53:47.000,312.461,11.014,2164.820355
14 Sep 2023 04:53:48.000,312.637,11.060,2162.354932
14 Sep 2023 04:53:49.000,312.813,11.105,2159.906510
14 Sep 2023 04:53:50.000,312.990,11.151,2157.475147
14 Sep 2023 04:53:51.000,313.167,11.196,2155.060898
14 Sep 2023 04:53:52.000,313.344,11.241,2152.663824
14 Sep 2023 04:53:53.000,313.522,11.286,2150.283973
14 Sep 2023 04:53:54.000,313.701,11.331,2147.921406
14 Sep 2023 04:53:55.000,313.879,11.376,2145.576179
14 Sep 2023 04:53:56.000,314.059,11.420,2143.248348
14 Sep 2023 04:53:57.000,314.238,11.464,2140.937965
14 Sep 2023 04:53:58.000,314.418,11.509,2138.645088
14 Sep 2023 04:53:59.000,314.599,11.553,2136.369771
14 Sep 2023 04:54:00.000,314.780,11.596,2134.112069
14 Sep 2023 04:54:01.000,314.961,11.640,2131.872040
14 Sep 2023 04:54:02.000,315.143,11.683,2129.649732
14 Sep 2023 04:54:03.000,315.326,11.726,2127.445203
14 Sep 2023 04:54:04.000,315.508,11.770,2125.258508
14 Sep 2023 04:54:05.000,315.691,11.812,2123.089697
14 Sep 2023 04:54:06.000,315.875,11.855,2120.938825
14 Sep 2023 04:54:07.000,316.059,11.897,2118.805945
14 Sep 2023 04:54:08.000,316.243,11.940,2116.691112
14 Sep 2023 04:54:09.000,316.428,11.982,2114.594375
14 Sep 2023 04:54:10.000,316.613,12.024,2112.515788
14 Sep 2023 04:54:11.000,316.799,12.065,2110.455406
14 Sep 2023 04:54:12.000,316.985,12.107,2108.413274
14 Sep 2023 04:54:13.000,317.171,12.148,2106.389448
14 Sep 2023 04:54:14.000,317.358,12.189,2104.383981
14 Sep 2023 04:54:15.000,317.546,12.230,2102.396919
14 Sep 2023 04:54:16.000,317.733,12.270,2100.428314
14 Sep 2023 04:54:17.000,317.921,12.311,2098.478220
14 Sep 2023 04:54:18.000,318.110,12.351,2096.546681
14 Sep 2023 04:54:19.000,318.299,12.391,2094.633750
14 Sep 2023 04:54:20.000,318.488,12.430,2092.739477
14 Sep 2023 04:54:21.000,318.677,12.470,2090.863908
14 Sep 2023 04:54:22.000,318.867,12.509,2089.007093
14 Sep 2023 04:54:23.000,319.058,12.548,2087.169083
14 Sep 2023 04:54:24.000,319.249,12.587,2085.349921
14 Sep 2023 04:54:25.000,319.440,12.626,2083.549658
14 Sep 2023 04:54:26.000,319.631,12.664,2081.768338
14 Sep 2023 04:54:27.000,319.823,12.702,2080.006009
14 Sep 2023 04:54:28.000,320.016,12.740,2078.262721
14 Sep 2023 04:54:29.000,320.208,12.778,2076.538514
14 Sep 2023 04:54:30.000,320.401,12.815,2074.833439
14 Sep 2023 04:54:31.000,320.595,12.852,2073.147536
14 Sep 2023 04:54:32.000,320.789,12.889,2071.480852
14 Sep 2023 04:54:33.000,320.983,12.926,2069.833434
14 Sep 2023 04:54:34.000,321.177,12.962,2068.205322
14 Sep 2023 04:54:35.000,321.372,12.998,2066.596563
14 Sep 2023 04:54:36.000,321.567,13.034,2065.007195
14 Sep 2023 04:54:37.000,321.763,13.070,2063.437268
14 Sep 2023 04:54:38.000,321.959,13.105,2061.886816
14 Sep 2023 04:54:39.000,322.155,13.140,2060.355888
14 Sep 2023 04:54:40.000,322.352,13.175,2058.844520
14 Sep 2023 04:54:41.000,322.548,13.209,2057.352757
14 Sep 2023 04:54:42.000,322.746,13.244,2055.880636
14 Sep 2023 04:54:43.000,322.943,13.278,2054.428200
14 Sep 2023 04:54:44.000,323.141,13.312,2052.995485
14 Sep 2023 04:54:45.000,323.339,13.345,2051.582534
14 Sep 2023 04:54:46.000,323.538,13.378,2050.189381
14 Sep 2023 04:54:47.000,323.737,13.411,2048.816069
14 Sep 2023 04:54:48.000,323.936,13.444,2047.462630
14 Sep 2023 04:54:49.000,324.135,13.476,2046.129107
14 Sep 2023 04:54:50.000,324.335,13.508,2044.815533
14 Sep 2023 04:54:51.000,324.535,13.540,2043.521943
14 Sep 2023 04:54:52.000,324.736,13.572,2042.248376
14 Sep 2023 04:54:53.000,324.936,13.603,2040.994862
14 Sep 2023 04:54:54.000,325.137,13.634,2039.761442
14 Sep 2023 04:54:55.000,325.339,13.665,2038.548143
14 Sep 2023 04:54:56.000,325.540,13.695,2037.355005
14 Sep 2023 04:54:57.000,325.742,13.725,2036.182057
14 Sep 2023 04:54:58.000,325.944,13.755,2035.029330
14 Sep 2023 04:54:59.000,326.147,13.785,2033.896860
14 Sep 2023 04:55:00.000,326.349,13.814,2032.784674
14 Sep 2023 04:55:01.000,326.552,13.843,2031.692806
14 Sep 2023 04:55:02.000,326.755,13.871,2030.621285
14 Sep 2023 04:55:03.000,326.959,13.900,2029.570139
14 Sep 2023 04:55:04.000,327.162,13.928,2028.539399
14 Sep 2023 04:55:05.000,327.366,13.955,2027.529093
14 Sep 2023 04:55:06.000,327.570,13.983,2026.539246
14 Sep 2023 04:55:07.000,327.775,14.010,2025.569890
14 Sep 2023 04:55:08.000,327.980,14.036,2024.621049
14 Sep 2023 04:55:09.000,328.184,14.063,2023.692747
14 Sep 2023 04:55:10.000,328.390,14.089,2022.785014
14 Sep 2023 04:55:11.000,328.595,14.115,2021.897872
14 Sep 2023 04:55:12.000,328.800,14.140,2021.031346
14 Sep 2023 04:55:13.000,329.006,14.165,2020.185457
14 Sep 2023 04:55:14.000,329.212,14.190,2019.360232
14 Sep 2023 04:55:15.000,329.418,14.215,2018.555692
14 Sep 2023 04:55:16.000,329.625,14.239,2017.771856
14 Sep 2023 04:55:17.000,329.831,14.263,2017.008750
14 Sep 2023 04:55:18.000,330.038,14.286,2016.266392
14 Sep 2023 04:55:19.000,330.245,14.310,2015.544801
14 Sep 2023 04:55:20.000,330.452,14.333,2014.843997
14 Sep 2023 04:55:21.000,330.660,14.355,2014.163999
14 Sep 2023 04:55:22.000,330.867,14.377,2013.504826
14 Sep 2023 04:55:23.000,331.075,14.399,2012.866494
14 Sep 2023 04:55:24.000,331.283,14.421,2012.249019
14 Sep 2023 04:55:25.000,331.491,14.442,2011.652417
14 Sep 2023 04:55:26.000,331.699,14.463,2011.076705
14 Sep 2023 04:55:27.000,331.907,14.483,2010.521898
14 Sep 2023 04:55:28.000,332.116,14.504,2009.988009
14 Sep 2023 04:55:29.000,332.324,14.524,2009.475051
14 Sep 2023 04:55:30.000,332.533,14.543,2008.983036
14 Sep 2023 04:55:31.000,332.742,14.562,2008.511979
14 Sep 2023 04:55:32.000,332.951,14.581,2008.061890
14 Sep 2023 04:55:33.000,333.160,14.600,2007.632779
14 Sep 2023 04:55:34.000,333.369,14.618,2007.224657
14 Sep 2023 04:55:35.000,333.579,14.636,2006.837533
14 Sep 2023 04:55:36.000,333.788,14.653,2006.471417
14 Sep 2023 04:55:37.000,333.998,14.670,2006.126313
14 Sep 2023 04:55:38.000,334.207,14.687,2005.802234
14 Sep 2023 04:55:39.000,334.417,14.703,2005.499184
14 Sep 2023 04:55:40.000,334.627,14.720,2005.217169
14 Sep 2023 04:55:41.000,334.837,14.735,2004.956195
14 Sep 2023 04:55:42.000,335.047,14.751,2004.716266
14 Sep 2023 04:55:43.000,335.257,14.766,2004.497387
14 Sep 2023 04:55:44.000,335.467,14.780,2004.299560
14 Sep 2023 04:55:45.000,335.678,14.795,2004.122789
14 Sep 2023 04:55:46.000,335.888,14.809,2003.967076
14 Sep 2023 04:55:47.000,336.098,14.822,2003.832421
14 Sep 2023 04:55:48.000,336.309,14.836,2003.718825
14 Sep 2023 04:55:49.000,336.519,14.848,2003.626289
14 Sep 2023 04:55:50.000,336.730,14.861,2003.554811
14 Sep 2023 04:55:51.000,336.940,14.873,2003.504391
14 Sep 2023 04:55:52.000,337.151,14.885,2003.475026
14 Sep 2023 04:55:53.000,337.361,14.896,2003.466712
14 Sep 2023 04:55:54.000,337.572,14.908,2003.479448
14 Sep 2023 04:55:55.000,337.783,14.918,2003.513228
14 Sep 2023 04:55:56.000,337.993,14.929,2003.568048
14 Sep 2023 04:55:57.000,338.204,14.939,2003.643903
14 Sep 2023 04:55:58.000,338.414,14.948,2003.740785
14 Sep 2023 04:55:59.000,338.625,14.958,2003.858689
14 Sep 2023 04:56:00.000,338.836,14.967,2003.997606
14 Sep 2023 04:56:01.000,339.046,14.975,2004.157529
14 Sep 2023 04:56:02.000,339.257,14.984,2004.338448
14 Sep 2023 04:56:03.000,339.467,14.992,2004.540354
14 Sep 2023 04:56:04.000,339.678,14.999,2004.763237
14 Sep 2023 04:56:05.000,339.888,15.006,2005.007086
14 Sep 2023 04:56:06.000,340.099,15.013,2005.271888
14 Sep 2023 04:56:07.000,340.309,15.020,2005.557633
14 Sep 2023 04:56:08.000,340.520,15.026,2005.864306
14 Sep 2023 04:56:09.000,340.730,15.031,2006.191895
14 Sep 2023 04:56:10.000,340.940,15.037,2006.540384
14 Sep 2023 04:56:11.000,341.150,15.042,2006.909761
14 Sep 2023 04:56:12.000,341.360,15.046,2007.300007
14 Sep 2023 04:56:13.000,341.570,15.051,2007.711108
14 Sep 2023 04:56:14.000,341.780,15.055,2008.143045
14 Sep 2023 04:56:15.000,341.990,15.058,2008.595803
14 Sep 2023 04:56:16.000,342.200,15.061,2009.069361
14 Sep 2023 04:56:17.000,342.410,15.064,2009.563703
14 Sep 2023 04:56:18.000,342.619,15.067,2010.078809
14 Sep 2023 04:56:19.000,342.829,15.069,2010.614657
14 Sep 2023 04:56:20.000,343.038,15.071,2011.171227
14 Sep 2023 04:56:21.000,343.247,15.072,2011.748497
14 Sep 2023 04:56:22.000,343.457,15.073,2012.346447
14 Sep 2023 04:56:23.000,343.666,15.074,2012.965054
14 Sep 2023 04:56:24.000,343.874,15.074,2013.604292
14 Sep 2023 04:56:25.000,344.083,15.074,2014.264139
14 Sep 2023 04:56:26.000,344.292,15.074,2014.944571
14 Sep 2023 04:56:27.000,344.500,15.073,2015.645561
14 Sep 2023 04:56:28.000,344.709,15.072,2016.367086
14 Sep 2023 04:56:29.000,344.917,15.071,2017.109116
14 Sep 2023 04:56:30.000,345.125,15.069,2017.871627
14 Sep 2023 04:56:31.000,345.333,15.067,2018.654590
14 Sep 2023 04:56:32.000,345.540,15.065,2019.457978
14 Sep 2023 04:56:33.000,345.748,15.062,2020.281760
14 Sep 2023 04:56:34.000,345.955,15.059,2021.125908
14 Sep 2023 04:56:35.000,346.162,15.055,2021.990393
14 Sep 2023 04:56:36.000,346.369,15.051,2022.875182
14 Sep 2023 04:56:37.000,346.576,15.047,2023.780246
14 Sep 2023 04:56:38.000,346.783,15.043,2024.705553
14 Sep 2023 04:56:39.000,346.989,15.038,2025.651070
14 Sep 2023 04:56:40.000,347.195,15.033,2026.616764
14 Sep 2023 04:56:41.000,347.401,15.027,2027.602603
14 Sep 2023 04:56:42.000,347.607,15.021,2028.608552
14 Sep 2023 04:56:43.000,347.812,15.015,2029.634576
14 Sep 2023 04:56:44.000,348.018,15.008,2030.680641
14 Sep 2023 04:56:45.000,348.223,15.001,2031.746711
14 Sep 2023 04:56:46.000,348.428,14.994,2032.832750
14 Sep 2023 04:56:47.000,348.632,14.986,2033.938721
14 Sep 2023 04:56:48.000,348.837,14.979,2035.064588
14 Sep 2023 04:56:49.000,349.041,14.970,2036.210312
14 Sep 2023 04:56:50.000,349.245,14.962,2037.375856
14 Sep 2023 04:56:51.000,349.449,14.953,2038.561179
14 Sep 2023 04:56:52.000,349.652,14.944,2039.766244
14 Sep 2023 04:56:53.000,349.855,14.934,2040.991012
14 Sep 2023 04:56:54.000,350.058,14.924,2042.235440
14 Sep 2023 04:56:55.000,350.261,14.914,2043.499489
14 Sep 2023 04:56:56.000,350.463,14.903,2044.783118
14 Sep 2023 04:56:57.000,350.665,14.892,2046.086285
14 Sep 2023 04:56:58.000,350.867,14.881,2047.408947
14 Sep 2023 04:56:59.000,351.068,14.870,2048.751063
14 Sep 2023 04:57:00.000,351.270,14.858,2050.112589
14 Sep 2023 04:57:01.000,351.471,14.846,2051.493481
14 Sep 2023 04:57:02.000,351.671,14.833,2052.893697
14 Sep 2023 04:57:03.000,351.872,14.820,2054.313191
14 Sep 2023 04:57:04.000,352.072,14.807,2055.751918
14 Sep 2023 04:57:05.000,352.272,14.794,2057.209833
14 Sep 2023 04:57:06.000,352.471,14.780,2058.686892
14 Sep 2023 04:57:07.000,352.670,14.766,2060.183046
14 Sep 2023 04:57:08.000,352.869,14.752,2061.698251
14 Sep 2023 04:57:09.000,353.068,14.737,2063.232458
14 Sep 2023 04:57:10.000,353.266,14.722,2064.785621
14 Sep 2023 04:57:11.000,353.464,14.707,2066.357692
14 Sep 2023 04:57:12.000,353.661,14.691,2067.948623
14 Sep 2023 04:57:13.000,353.859,14.675,2069.558365
14 Sep 2023 04:57:14.000,354.055,14.659,2071.186869
14 Sep 2023 04:57:15.000,354.252,14.643,2072.834086
14 Sep 2023 04:57:16.000,354.448,14.626,2074.499967
14 Sep 2023 04:57:17.000,354.644,14.609,2076.184461
14 Sep 2023 04:57:18.000,354.840,14.591,2077.887519
14 Sep 2023 04:57:19.000,355.035,14.574,2079.609089
14 Sep 2023 04:57:20.000,355.230,14.556,2081.349120
14 Sep 2023 04:57:21.000,355.424,14.538,2083.107561
14 Sep 2023 04:57:22.000,355.618,14.519,2084.884360
14 Sep 2023 04:57:23.000,355.812,14.500,2086.679466
14 Sep 2023 04:57:24.000,356.006,14.481,2088.492825
14 Sep 2023 04:57:25.000,356.199,14.462,2090.324386
14 Sep 2023 04:57:26.000,356.391,14.442,2092.174095
14 Sep 2023 04:57:27.000,356.584,14.422,2094.041898
14 Sep 2023 04:57:28.000,356.776,14.402,2095.927743
14 Sep 2023 04:57:29.000,356.967,14.382,2097.831575
14 Sep 2023 04:57:30.000,357.158,14.361,2099.753341
14 Sep 2023 04:57:31.000,357.349,14.340,2101.692985
14 Sep 2023 04:57:32.000,357.539,14.319,2103.650453
14 Sep 2023 04:57:33.000,357.729,14.297,2105.625691
14 Sep 2023 04:57:34.000,357.919,14.275,2107.618642
14 Sep 2023 04:57:35.000,358.108,14.253,2109.629252
14 Sep 2023 04:57:36.000,358.297,14.231,2111.657465
14 Sep 2023 04:57:37.000,358.486,14.209,2113.703224
14 Sep 2023 04:57:38.000,358.674,14.186,2115.766473
14 Sep 2023 04:57:39.000,358.861,14.163,2117.847157
14 Sep 2023 04:57:40.000,359.049,14.139,2119.945217
14 Sep 2023 04:57:41.000,359.236,14.116,2122.060599
14 Sep 2023 04:57:42.000,359.422,14.092,2124.193243
14 Sep 2023 04:57:43.000,359.608,14.068,2126.343093
14 Sep 2023 04:57:44.000,359.794,14.043,2128.510092
14 Sep 2023 04:57:45.000,359.979,14.019,2130.694182
14 Sep 2023 04:57:46.000,0.164,13.994,2132.895304
14 Sep 2023 04:57:47.000,0.348,13.969,2135.113401
14 Sep 2023 04:57:48.000,0.532,13.944,2137.348415
14 Sep 2023 04:57:49.000,0.716,13.918,2139.600286
14 Sep 2023 04:57:50.000,0.899,13.892,2141.868957
14 Sep 2023 04:57:51.000,1.081,13.866,2144.154368
14 Sep 2023 04:57:52.000,1.264,13.840,2146.456461
14 Sep 2023 04:57:53.000,1.446,13.813,2148.775176
14 Sep 2023 04:57:54.000,1.627,13.787,2151.110454
14 Sep 2023 04:57:55.000,1.808,13.760,2153.462237
14 Sep 2023 04:57:56.000,1.989,13.733,2155.830463
14 Sep 2023 04:57:57.000,2.169,13.705,2158.215075
14 Sep 2023 04:57:58.000,2.348,13.678,2160.616011
14 Sep 2023 04:57:59.000,2.528,13.650,2163.033212
14 Sep 2023 04:58:00.000,2.706,13.622,2165.466619
14 Sep 2023 04:58:01.000,2.885,13.594,2167.916170
14 Sep 2023 04:58:02.000,3.063,13.565,2170.381805
14 Sep 2023 04:58:03.000,3.240,13.536,2172.863465
14 Sep 2023 04:58:04.000,3.417,13.508,2175.361089
14 Sep 2023 04:58:05.000,3.594,13.478,2177.874616
14 Sep 2023 04:58:06.000,3.770,13.449,2180.403986
14 Sep 2023 04:58:07.000,3.946,13.420,2182.949137
14 Sep 2023 04:58:08.000,4.121,13.390,2185.510010
14 Sep 2023 04:58:09.000,4.296,13.360,2188.086544
14 Sep 2023 04:58:10.000,4.470,13.330,2190.678677
14 Sep 2023 04:58:11.000,4.644,13.300,2193.286348
14 Sep 2023 04:58:12.000,4.818,13.269,2195.909497
14 Sep 2023 04:58:13.000,4.991,13.238,2198.548063
14 Sep 2023 04:58:14.000,5.164,13.208,2201.201984
14 Sep 2023 04:58:15.000,5.336,13.177,2203.871199
14 Sep 2023 04:58:16.000,5.507,13.145,2206.555647
14 Sep 2023 04:58:17.000,5.679,13.114,2209.255267
14 Sep 2023 04:58:18.000,5.849,13.082,2211.969998
14 Sep 2023 04:58:19.000,6.020,13.050,2214.699777
14 Sep 2023 04:58:20.000,6.190,13.018,2217.444545
14 Sep 2023 04:58:21.000,6.359,12.986,2220.204239
14 Sep 2023 04:58:22.000,6.528,12.954,2222.978799
14 Sep 2023 04:58:23.000,6.696,12.921,2225.768163
14 Sep 2023 04:58:24.000,6.865,12.889,2228.572269
14 Sep 2023 04:58:25.000,7.032,12.856,2231.391056
14 Sep 2023 04:58:26.000,7.199,12.823,2234.224463
14 Sep 2023 04:58:27.000,7.366,12.790,2237.072429
14 Sep 2023 04:58:28.000,7.532,12.756,2239.934892
14 Sep 2023 04:58:29.000,7.698,12.723,2242.811792
14 Sep 2023 04:58:30.000,7.863,12.689,2245.703065
14 Sep 2023 04:58:31.000,8.028,12.655,2248.608653
14 Sep 2023 04:58:32.000,8.192,12.621,2251.528492
14 Sep 2023 04:58:33.000,8.356,12.587,2254.462523
14 Sep 2023 04:58:34.000,8.520,12.553,2257.410683
14 Sep 2023 04:58:35.000,8.683,12.518,2260.372912
14 Sep 2023 04:58:36.000,8.845,12.484,2263.349149
14 Sep 2023 04:58:37.000,9.007,12.449,2266.339332
14 Sep 2023 04:58:38.000,9.169,12.414,2269.343402
14 Sep 2023 04:58:39.000,9.330,12.379,2272.361295
14 Sep 2023 04:58:40.000,9.491,12.344,2275.392953
14 Sep 2023 04:58:41.000,9.651,12.308,2278.438313
14 Sep 2023 04:58:42.000,9.810,12.273,2281.497316
14 Sep 2023 04:58:43.000,9.970,12.237,2284.569901
14 Sep 2023 04:58:44.000,10.129,12.202,2287.656006
14 Sep 2023 04:58:45.000,10.287,12.166,2290.755572
14 Sep 2023 04:58:46.000,10.445,12.130,2293.868538
14 Sep 2023 04:58:47.000,10.602,12.093,2296.994843
14 Sep 2023 04:58:48.000,10.759,12.057,2300.134427
14 Sep 2023 04:58:49.000,10.916,12.021,2303.287231
14 Sep 2023 04:58:50.000,11.072,11.984,2306.453193
14 Sep 2023 04:58:51.000,11.227,11.947,2309.632255
14 Sep 2023 04:58:52.000,11.382,11.911,2312.824355
14 Sep 2023 04:58:53.000,11.537,11.874,2316.029434
14 Sep 2023 04:58:54.000,11.691,11.837,2319.247432
14 Sep 2023 04:58:55.000,11.845,11.799,2322.478290
14 Sep 2023 04:58:56.000,11.998,11.762,2325.721948
14 Sep 2023 04:58:57.000,12.151,11.725,2328.978346
14 Sep 2023 04:58:58.000,12.303,11.687,2332.247425
14 Sep 2023 04:58:59.000,12.455,11.649,2335.529127
14 Sep 2023 04:59:00.000,12.607,11.612,2338.823392
14 Sep 2023 04:59:01.000,12.758,11.574,2342.130161
14 Sep 2023 04:59:02.000,12.908,11.536,2345.449374
14 Sep 2023 04:59:03.000,13.058,11.498,2348.780974
14 Sep 2023 04:59:04.000,13.208,11.459,2352.124901
14 Sep 2023 04:59:05.000,13.357,11.421,2355.481098
14 Sep 2023 04:59:06.000,13.506,11.383,2358.849505
14 Sep 2023 04:59:07.000,13.654,11.344,2362.230064
14 Sep 2023 04:59:08.000,13.802,11.305,2365.622718
14 Sep 2023 04:59:09.000,13.949,11.267,2369.027409
14 Sep 2023 04:59:10.000,14.096,11.228,2372.444078
14 Sep 2023 04:59:11.000,14.243,11.189,2375.872667
14 Sep 2023 04:59:12.000,14.389,11.150,2379.313120
14 Sep 2023 04:59:13.000,14.534,11.111,2382.765379
14 Sep 2023 04:59:14.000,14.679,11.072,2386.229385
14 Sep 2023 04:59:15.000,14.824,11.032,2389.705084
14 Sep 2023 04:59:16.000,14.968,10.993,2393.192417
14 Sep 2023 04:59:17.000,15.112,10.953,2396.691327
14 Sep 2023 04:59:18.000,15.255,10.914,2400.201758
14 Sep 2023 04:59:19.000,15.398,10.874,2403.723654
14 Sep 2023 04:59:20.000,15.540,10.834,2407.256956
14 Sep 2023 04:59:21.000,15.682,10.795,2410.801611
14 Sep 2023 04:59:22.000,15.824,10.755,2414.357561
14 Sep 2023 04:59:23.000,15.965,10.715,2417.924751
14 Sep 2023 04:59:24.000,16.105,10.675,2421.503125
14 Sep 2023 04:59:25.000,16.245,10.634,2425.092626
14 Sep 2023 04:59:26.000,16.385,10.594,2428.693201
14 Sep 2023 04:59:27.000,16.524,10.554,2432.304793
14 Sep 2023 04:59:28.000,16.663,10.513,2435.927348
14 Sep 2023 04:59:29.000,16.802,10.473,2439.560810
14 Sep 2023 04:59:30.000,16.940,10.432,2443.205124
14 Sep 2023 04:59:31.000,17.077,10.392,2446.860237
14 Sep 2023 04:59:32.000,17.214,10.351,2450.526094
14 Sep 2023 04:59:33.000,17.351,10.310,2454.202640
14 Sep 2023 04:59:34.000,17.487,10.270,2457.889821
14 Sep 2023 04:59:35.000,17.623,10.229,2461.587583
14 Sep 2023 04:59:36.000,17.758,10.188,2465.295873
14 Sep 2023 04:59:37.000,17.893,10.147,2469.014637
14 Sep 2023 04:59:38.000,18.028,10.106,2472.743822
14 Sep 2023 04:59:39.000,18.162,10.064,2476.483373
14 Sep 2023 04:59:40.000,18.296,10.023,2480.233240
14 Sep 2023 04:59:41.000,18.429,9.982,2483.993368
14 Sep 2023 04:59:42.000,18.562,9.941,2487.763705
14 Sep 2023 04:59:43.000,18.694,9.899,2491.544197
14 Sep 2023 04:59:44.000,18.826,9.858,2495.334794
14 Sep 2023 04:59:45.000,18.957,9.816,2499.135443
14 Sep 2023 04:59:46.000,19.089,9.775,2502.946092
14 Sep 2023 04:59:47.000,19.219,9.733,2506.766688
14 Sep 2023 04:59:48.000,19.349,9.691,2510.597182
14 Sep 2023 04:59:49.000,19.479,9.650,2514.437521
14 Sep 2023 04:59:50.000,19.609,9.608,2518.287653
14 Sep 2023 04:59:51.000,19.738,9.566,2522.147529
14 Sep 2023 04:59:52.000,19.866,9.524,2526.017096
14 Sep 2023 04:59:53.000,19.995,9.482,2529.896306
14 Sep 2023 04:59:54.000,20.122,9.440,2533.785105
14 Sep 2023 04:59:55.000,20.250,9.398,2537.683445
14 Sep 2023 04:59:56.000,20.377,9.356,2541.591277
14 Sep 2023 04:59:57.000,20.503,9.314,2545.508548
14 Sep 2023 04:59:58.000,20.629,9.272,2549.435211
14 Sep 2023 04:59:59.000,20.755,9.230,2553.371215
14 Sep 2023 05:00:00.000,20.880,9.187,2557.316511
14 Sep 2023 05:00:01.000,21.005,9.145,2561.271050
14 Sep 2023 05:00:02.000,21.130,9.103,2565.234784
14 Sep 2023 05:00:03.000,21.254,9.060,2569.207661
14 Sep 2023 05:00:04.000,21.377,9.018,2573.189637
14 Sep 2023 05:00:05.000,21.501,8.976,2577.180661
14 Sep 2023 05:00:06.000,21.624,8.933,2581.180684
14 Sep 2023 05:00:07.000,21.746,8.891,2585.189660
14 Sep 2023 05:00:08.000,21.868,8.848,2589.207540
14 Sep 2023 05:00:09.000,21.990,8.805,2593.234276
14 Sep 2023 05:00:10.000,22.111,8.763,2597.269823
14 Sep 2023 05:00:11.000,22.232,8.720,2601.314132
14 Sep 2023 05:00:12.000,22.353,8.678,2605.367154
14 Sep 2023 05:00:13.000,22.473,8.635,2609.428846
14 Sep 2023 05:00:14.000,22.593,8.592,2613.499160
14 Sep 2023 05:00:15.000,22.712,8.549,2617.578048
14 Sep 2023 05:00:16.000,22.831,8.506,2621.665466
14 Sep 2023 05:00:17.000,22.949,8.464,2625.761367
14 Sep 2023 05:00:18.000,23.068,8.421,2629.865703
14 Sep 2023 05:00:19.000,23.185,8.378,2633.978432
14 Sep 2023 05:00:20.000,23.303,8.335,2638.099506
14 Sep 2023 05:00:21.000,23.420,8.292,2642.228881
14 Sep 2023 05:00:22.000,23.537,8.249,2646.366512
14 Sep 2023 05:00:23.000,23.653,8.206,2650.512352
14 Sep 2023 05:00:24.000,23.769,8.163,2654.666360
14 Sep 2023 05:00:25.000,23.884,8.120,2658.828489
14 Sep 2023 05:00:26.000,24.000,8.077,2662.998693
14 Sep 2023 05:00:27.000,24.114,8.034,2667.176932
14 Sep 2023 05:00:28.000,24.229,7.991,2671.363159
14 Sep 2023 05:00:29.000,24.343,7.948,2675.557332
14 Sep 2023 05:00:30.000,24.456,7.905,2679.759406
14 Sep 2023 05:00:31.000,24.570,7.861,2683.969338
14 Sep 2023 05:00:32.000,24.683,7.818,2688.187086
14 Sep 2023 05:00:33.000,24.795,7.775,2692.412605
14 Sep 2023 05:00:34.000,24.908,7.732,2696.645855
14 Sep 2023 05:00:35.000,25.019,7.689,2700.886792
14 Sep 2023 05:00:36.000,25.131,7.645,2705.135372
14 Sep 2023 05:00:37.000,25.242,7.602,2709.391555
14 Sep 2023 05:00:38.000,25.353,7.559,2713.655297
14 Sep 2023 05:00:39.000,25.463,7.516,2717.926559
14 Sep 2023 05:00:40.000,25.573,7.472,2722.205296
14 Sep 2023 05:00:41.000,25.683,7.429,2726.491470
14 Sep 2023 05:00:42.000,25.792,7.386,2730.785038
14 Sep 2023 05:00:43.000,25.901,7.342,2735.085957
14 Sep 2023 05:00:44.000,26.010,7.299,2739.394189
14 Sep 2023 05:00:45.000,26.118,7.256,2743.709692
14 Sep 2023 05:00:46.000,26.226,7.212,2748.032427
14 Sep 2023 05:00:47.000,26.334,7.169,2752.362351
14 Sep 2023 05:00:48.000,26.441,7.126,2756.699426
14 Sep 2023 05:00:49.000,26.548,7.082,2761.043613
14 Sep 2023 05:00:50.000,26.654,7.039,2765.394868
14 Sep 2023 05:00:51.000,26.760,6.995,2769.753156
14 Sep 2023 05:00:52.000,26.866,6.952,2774.118433
14 Sep 2023 05:00:53.000,26.972,6.909,2778.490665
14 Sep 2023 05:00:54.000,27.077,6.865,2782.869809
14 Sep 2023 05:00:55.000,27.182,6.822,2787.255829
14 Sep 2023 05:00:56.000,27.286,6.778,2791.648683
14 Sep 2023 05:00:57.000,27.391,6.735,2796.048336
14 Sep 2023 05:00:58.000,27.494,6.691,2800.454747
14 Sep 2023 05:00:59.000,27.598,6.648,2804.867881
14 Sep 2023 05:01:00.000,27.701,6.605,2809.287695
14 Sep 2023 05:01:01.000,27.804,6.561,2813.714157
14 Sep 2023 05:01:02.000,27.906,6.518,2818.147225
14 Sep 2023 05:01:03.000,28.009,6.474,2822.586865
14 Sep 2023 05:01:04.000,28.110,6.431,2827.033038
14 Sep 2023 05:01:05.000,28.212,6.387,2831.485705
14 Sep 2023 05:01:06.000,28.313,6.344,2835.944834
14 Sep 2023 05:01:07.000,28.414,6.300,2840.410383
14 Sep 2023 05:01:08.000,28.515,6.257,2844.882320
14 Sep 2023 05:01:09.000,28.615,6.214,2849.360605
14 Sep 2023 05:01:10.000,28.715,6.170,2853.845205
14 Sep 2023 05:01:11.000,28.814,6.127,2858.336082
14 Sep 2023 05:01:12.000,28.914,6.083,2862.833201
14 Sep 2023 05:01:13.000,29.013,6.040,2867.336525
14 Sep 2023 05:01:14.000,29.111,5.996,2871.846022
14 Sep 2023 05:01:15.000,29.210,5.953,2876.361652
14 Sep 2023 05:01:16.000,29.308,5.910,2880.883385
14 Sep 2023 05:01:17.000,29.405,5.866,2885.411181
14 Sep 2023 05:01:18.000,29.503,5.823,2889.945009
14 Sep 2023 05:01:19.000,29.600,5.779,2894.484832
14 Sep 2023 05:01:20.000,29.697,5.736,2899.030618
14 Sep 2023 05:01:21.000,29.793,5.692,2903.582330
14 Sep 2023 05:01:22.000,29.889,5.649,2908.139935
14 Sep 2023 05:01:23.000,29.985,5.606,2912.703401
14 Sep 2023 05:01:24.000,30.081,5.562,2917.272690
14 Sep 2023 05:01:25.000,30.176,5.519,2921.847774
14 Sep 2023 05:01:26.000,30.271,5.476,2926.428614
14 Sep 2023 05:01:27.000,30.365,5.432,2931.015182
14 Sep 2023 05:01:28.000,30.460,5.389,2935.607440
14 Sep 2023 05:01:29.000,30.554,5.346,2940.205359
14 Sep 2023 05:01:30.000,30.648,5.302,2944.808903
14 Sep 2023 05:01:31.000,30.741,5.259,2949.418042
14 Sep 2023 05:01:32.000,30.834,5.216,2954.032742
14 Sep 2023 05:01:33.000,30.927,5.172,2958.652972
14 Sep 2023 05:01:34.000,31.020,5.129,2963.278698
14 Sep 2023 05:01:35.000,31.112,5.086,2967.909890
14 Sep 2023 05:01:36.000,31.204,5.042,2972.546515
14 Sep 2023 05:01:37.000,31.296,4.999,2977.188540
14 Sep 2023 05:01:38.000,31.387,4.956,2981.835939
14 Sep 2023 05:01:39.000,31.479,4.913,2986.488674
14 Sep 2023 05:01:40.000,31.569,4.869,2991.146719
14 Sep 2023 05:01:41.000,31.660,4.826,2995.810038
14 Sep 2023 05:01:42.000,31.750,4.783,3000.478606
14 Sep 2023 05:01:43.000,31.840,4.740,3005.152387
14 Sep 2023 05:01:44.000,31.930,4.697,3009.831355
14 Sep 2023 05:01:45.000,32.020,4.654,3014.515475
14 Sep 2023 05:01:46.000,32.109,4.610,3019.204719
14 Sep 2023 05:01:47.000,32.198,4.567,3023.899059
14 Sep 2023 05:01:48.000,32.286,4.524,3028.598462
14 Sep 2023 05:01:49.000,32.375,4.481,3033.302900
14 Sep 2023 05:01:50.000,32.463,4.438,3038.012342
14 Sep 2023 05:01:51.000,32.551,4.395,3042.726760
14 Sep 2023 05:01:52.000,32.638,4.352,3047.446123
14 Sep 2023 05:01:53.000,32.725,4.309,3052.170402
14 Sep 2023 05:01:54.000,32.813,4.266,3056.899571
14 Sep 2023 05:01:55.000,32.899,4.223,3061.633597
14 Sep 2023 05:01:56.000,32.986,4.180,3066.372455
14 Sep 2023 05:01:57.000,33.072,4.137,3071.116112
14 Sep 2023 05:01:58.000,33.158,4.094,3075.864545
14 Sep 2023 05:01:59.000,33.244,4.051,3080.617720
14 Sep 2023 05:02:00.000,33.329,4.008,3085.375612
14 Sep 2023 05:02:01.000,33.414,3.965,3090.138194
14 Sep 2023 05:02:02.000,33.499,3.922,3094.905435
14 Sep 2023 05:02:03.000,33.584,3.879,3099.677312
14 Sep 2023 05:02:04.000,33.668,3.836,3104.453791
14 Sep 2023 05:02:05.000,33.752,3.793,3109.234849
14 Sep 2023 05:02:06.000,33.836,3.750,3114.020459
14 Sep 2023 05:02:07.000,33.920,3.708,3118.810591
14 Sep 2023 05:02:08.000,34.003,3.665,3123.605221
14 Sep 2023 05:02:09.000,34.086,3.622,3128.404319
14 Sep 2023 05:02:10.000,34.169,3.579,3133.207860
14 Sep 2023 05:02:11.000,34.252,3.536,3138.015819
14 Sep 2023 05:02:12.000,34.334,3.494,3142.828166
14 Sep 2023 05:02:13.000,34.416,3.451,3147.644878
14 Sep 2023 05:02:14.000,34.498,3.408,3152.465925
14 Sep 2023 05:02:15.000,34.580,3.366,3157.291283
14 Sep 2023 05:02:16.000,34.661,3.323,3162.120929
14 Sep 2023 05:02:17.000,34.742,3.280,3166.954832
14 Sep 2023 05:02:18.000,34.823,3.238,3171.792971
14 Sep 2023 05:02:19.000,34.904,3.195,3176.635316
14 Sep 2023 05:02:20.000,34.984,3.152,3181.481843
14 Sep 2023 05:02:21.000,35.065,3.110,3186.332530
14 Sep 2023 05:02:22.000,35.144,3.067,3191.187348
14 Sep 2023 05:02:23.000,35.224,3.025,3196.046274
14 Sep 2023 05:02:24.000,35.304,2.982,3200.909281
14 Sep 2023 05:02:25.000,35.383,2.940,3205.776346
14 Sep 2023 05:02:26.000,35.462,2.897,3210.647446
14 Sep 2023 05:02:27.000,35.541,2.855,3215.522551
14 Sep 2023 05:02:28.000,35.619,2.812,3220.401641
14 Sep 2023 05:02:29.000,35.697,2.770,3225.284693
14 Sep 2023 05:02:30.000,35.775,2.728,3230.171679
14 Sep 2023 05:02:31.000,35.853,2.685,3235.062576
14 Sep 2023 05:02:32.000,35.931,2.643,3239.957363
14 Sep 2023 05:02:33.000,36.008,2.601,3244.856012
14 Sep 2023 05:02:34.000,36.085,2.558,3249.758503
14 Sep 2023 05:02:35.000,36.162,2.516,3254.664809
14 Sep 2023 05:02:36.000,36.239,2.474,3259.574908
14 Sep 2023 05:02:37.000,36.316,2.432,3264.488779
14 Sep 2023 05:02:38.000,36.392,2.389,3269.406395
14 Sep 2023 05:02:39.000,36.468,2.347,3274.327735
14 Sep 2023 05:02:40.000,36.544,2.305,3279.252778
14 Sep 2023 05:02:41.000,36.619,2.263,3284.181497
14 Sep 2023 05:02:42.000,36.695,2.221,3289.113872
14 Sep 2023 05:02:43.000,36.770,2.179,3294.049881
14 Sep 2023 05:02:44.000,36.845,2.136,3298.989499
14 Sep 2023 05:02:45.000,36.919,2.094,3303.932706
14 Sep 2023 05:02:46.000,36.994,2.052,3308.879478
14 Sep 2023 05:02:47.000,37.068,2.010,3313.829793
14 Sep 2023 05:02:48.000,37.142,1.968,3318.783631
14 Sep 2023 05:02:49.000,37.216,1.926,3323.740968
14 Sep 2023 05:02:50.000,37.290,1.884,3328.701782
14 Sep 2023 05:02:51.000,37.363,1.842,3333.666055
14 Sep 2023 05:02:52.000,37.436,1.801,3338.633760
14 Sep 2023 05:02:53.000,37.509,1.759,3343.604878
14 Sep 2023 05:02:54.000,37.582,1.717,3348.579391
14 Sep 2023 05:02:55.000,37.655,1.675,3353.557272
14 Sep 2023 05:02:56.000,37.727,1.633,3358.538502
14 Sep 2023 05:02:57.000,37.799,1.591,3363.523063
14 Sep 2023 05:02:58.000,37.871,1.550,3368.510930
14 Sep 2023 05:02:59.000,37.943,1.508,3373.502083
14 Sep 2023 05:03:00.000,38.014,1.466,3378.496505
14 Sep 2023 05:03:01.000,38.086,1.424,3383.494170
14 Sep 2023 05:03:02.000,38.157,1.383,3388.495060
14 Sep 2023 05:03:03.000,38.228,1.341,3393.499157
14 Sep 2023 05:03:04.000,38.299,1.299,3398.506436
14 Sep 2023 05:03:05.000,38.369,1.258,3403.516879
14 Sep 2023 05:03:06.000,38.440,1.216,3408.530468
14 Sep 2023 05:03:07.000,38.510,1.175,3413.547179
14 Sep 2023 05:03:08.000,38.580,1.133,3418.566995
14 Sep 2023 05:03:09.000,38.649,1.092,3423.589897
14 Sep 2023 05:03:10.000,38.719,1.050,3428.615862
14 Sep 2023 05:03:11.000,38.788,1.009,3433.644872
14 Sep 2023 05:03:12.000,38.858,0.967,3438.676910
14 Sep 2023 05:03:13.000,38.927,0.926,3443.711953
14 Sep 2023 05:03:14.000,38.995,0.884,3448.749982
14 Sep 2023 05:03:15.000,39.064,0.843,3453.790982
14 Sep 2023 05:03:16.000,39.132,0.802,3458.834928
14 Sep 2023 05:03:17.000,39.201,0.760,3463.881804
14 Sep 2023 05:03:18.000,39.269,0.719,3468.931593
14 Sep 2023 05:03:19.000,39.336,0.678,3473.984272
14 Sep 2023 05:03:20.000,39.404,0.637,3479.039825
14 Sep 2023 05:03:21.000,39.472,0.595,3484.098233
14 Sep 2023 05:03:22.000,39.539,0.554,3489.159479
14 Sep 2023 05:03:23.000,39.606,0.513,3494.223541
14 Sep 2023 05:03:24.000,39.673,0.472,3499.290403
14 Sep 2023 05:03:25.000,39.740,0.431,3504.360049
14 Sep 2023 05:03:26.000,39.806,0.389,3509.432455
14 Sep 2023 05:03:27.000,39.872,0.348,3514.507607
14 Sep 2023 05:03:28.000,39.939,0.307,3519.585488
14 Sep 2023 05:03:29.000,40.005,0.266,3524.666077
14 Sep 2023 05:03:30.000,40.071,0.225,3529.749357
14 Sep 2023 05:03:31.000,40.136,0.184,3534.835314
14 Sep 2023 05:03:32.000,40.202,0.143,3539.923925
14 Sep 2023 05:03:33.000,40.267,0.102,3545.015174
14 Sep 2023 05:03:34.000,40.332,0.061,3550.109045
14 Sep 2023 05:03:35.000,40.397,0.021,3555.205523
14 Sep 2023 05:03:35.504,40.430,-0.000,3557.775970
14 Sep 2023 06:35:42.804,313.380,0.000,3284.176495
14 Sep 2023 06:35:43.000,313.398,0.009,3283.357857
14 Sep 2023 06:35:44.000,313.488,0.053,3279.176680
14 Sep 2023 06:35:45.000,313.579,0.097,3275.001851
14 Sep 2023 06:35:46.000,313.669,0.141,3270.833400
14 Sep 2023 06:35:47.000,313.760,0.185,3266.671352
14 Sep 2023 06:35:48.000,313.851,0.230,3262.515729
14 Sep 2023 06:35:49.000,313.943,0.274,3258.366565
14 Sep 2023 06:35:50.000,314.034,0.318,3254.223884
14 Sep 2023 06:35:51.000,314.126,0.362,3250.087709
14 Sep 2023 06:35:52.000,314.218,0.406,3245.958072
14 Sep 2023 06:35:53.000,314.310,0.451,3241.834996
14 Sep 2023 06:35:54.000,314.403,0.495,3237.718513
14 Sep 2023 06:35:55.000,314.495,0.539,3233.608647
14 Sep 2023 06:35:56.000,314.588,0.583,3229.505423
14 Sep 2023 06:35:57.000,314.681,0.628,3225.408874
14 Sep 2023 06:35:58.000,314.775,0.672,3221.319024
14 Sep 2023 06:35:59.000,314.868,0.716,3217.235898
14 Sep 2023 06:36:00.000,314.962,0.760,3213.159529
14 Sep 2023 06:36:01.000,315.056,0.805,3209.089940
14 Sep 2023 06:36:02.000,315.150,0.849,3205.027164
14 Sep 2023 06:36:03.000,315.245,0.893,3200.971225
14 Sep 2023 06:36:04.000,315.340,0.937,3196.922149
14 Sep 2023 06:36:05.000,315.435,0.982,3192.879970
14 Sep 2023 06:36:06.000,315.530,1.026,3188.844712
14 Sep 2023 06:36:07.000,315.625,1.070,3184.816402
14 Sep 2023 06:36:08.000,315.721,1.114,3180.795073
14 Sep 2023 06:36:09.000,315.817,1.159,3176.780751
14 Sep 2023 06:36:10.000,315.913,1.203,3172.773461
14 Sep 2023 06:36:11.000,316.009,1.247,3168.773237
14 Sep 2023 06:36:12.000,316.106,1.291,3164.780106
14 Sep 2023 06:36:13.000,316.203,1.336,3160.794094
14 Sep 2023 06:36:14.000,316.300,1.380,3156.815233
14 Sep 2023 06:36:15.000,316.397,1.424,3152.843552
14 Sep 2023 06:36:16.000,316.495,1.468,3148.879076
14 Sep 2023 06:36:17.000,316.593,1.513,3144.921839
14 Sep 2023 06:36:18.000,316.691,1.557,3140.971868
14 Sep 2023 06:36:19.000,316.789,1.601,3137.029190
14 Sep 2023 06:36:20.000,316.888,1.645,3133.093838
14 Sep 2023 06:36:21.000,316.986,1.690,3129.165841
14 Sep 2023 06:36:22.000,317.085,1.734,3125.245224
14 Sep 2023 06:36:23.000,317.185,1.778,3121.332023
14 Sep 2023 06:36:24.000,317.284,1.822,3117.426264
14 Sep 2023 06:36:25.000,317.384,1.866,3113.527978
14 Sep 2023 06:36:26.000,317.484,1.911,3109.637191
14 Sep 2023 06:36:27.000,317.584,1.955,3105.753939
14 Sep 2023 06:36:28.000,317.685,1.999,3101.878248
14 Sep 2023 06:36:29.000,317.785,2.043,3098.010148
14 Sep 2023 06:36:30.000,317.886,2.087,3094.149671
14 Sep 2023 06:36:31.000,317.988,2.132,3090.296848
14 Sep 2023 06:36:32.000,318.089,2.176,3086.451707
14 Sep 2023 06:36:33.000,318.191,2.220,3082.614276
14 Sep 2023 06:36:34.000,318.293,2.264,3078.784592
14 Sep 2023 06:36:35.000,318.395,2.308,3074.962681
14 Sep 2023 06:36:36.000,318.498,2.352,3071.148573
14 Sep 2023 06:36:37.000,318.600,2.396,3067.342303
14 Sep 2023 06:36:38.000,318.703,2.440,3063.543899
14 Sep 2023 06:36:39.000,318.807,2.484,3059.753393
14 Sep 2023 06:36:40.000,318.910,2.529,3055.970812
14 Sep 2023 06:36:41.000,319.014,2.573,3052.196192
14 Sep 2023 06:36:42.000,319.118,2.617,3048.429563
14 Sep 2023 06:36:43.000,319.222,2.661,3044.670956
14 Sep 2023 06:36:44.000,319.327,2.705,3040.920398
14 Sep 2023 06:36:45.000,319.431,2.749,3037.177928
14 Sep 2023 06:36:46.000,319.536,2.793,3033.443573
14 Sep 2023 06:36:47.000,319.642,2.837,3029.717364
14 Sep 2023 06:36:48.000,319.747,2.881,3025.999332
14 Sep 2023 06:36:49.000,319.853,2.925,3022.289513
14 Sep 2023 06:36:50.000,319.959,2.969,3018.587936
14 Sep 2023 06:36:51.000,320.065,3.013,3014.894633
14 Sep 2023 06:36:52.000,320.172,3.056,3011.209633
14 Sep 2023 06:36:53.000,320.279,3.100,3007.532973
14 Sep 2023 06:36:54.000,320.386,3.144,3003.864683
14 Sep 2023 06:36:55.000,320.493,3.188,3000.204795
14 Sep 2023 06:36:56.000,320.601,3.232,2996.553338
14 Sep 2023 06:36:57.000,320.709,3.276,2992.910351
14 Sep 2023 06:36:58.000,320.817,3.319,2989.275862
14 Sep 2023 06:36:59.000,320.925,3.363,2985.649904
14 Sep 2023 06:37:00.000,321.034,3.407,2982.032510
14 Sep 2023 06:37:01.000,321.143,3.451,2978.423709
14 Sep 2023 06:37:02.000,321.252,3.494,2974.823540
14 Sep 2023 06:37:03.000,321.361,3.538,2971.232032
14 Sep 2023 06:37:04.000,321.471,3.582,2967.649219
14 Sep 2023 06:37:05.000,321.581,3.625,2964.075133
14 Sep 2023 06:37:06.000,321.691,3.669,2960.509804
14 Sep 2023 06:37:07.000,321.802,3.713,2956.953271
14 Sep 2023 06:37:08.000,321.912,3.756,2953.405563
14 Sep 2023 06:37:09.000,322.024,3.800,2949.866715
14 Sep 2023 06:37:10.000,322.135,3.843,2946.336760
14 Sep 2023 06:37:11.000,322.246,3.887,2942.815730
14 Sep 2023 06:37:12.000,322.358,3.930,2939.303656
14 Sep 2023 06:37:13.000,322.470,3.974,2935.800578
14 Sep 2023 06:37:14.000,322.583,4.017,2932.306525
14 Sep 2023 06:37:15.000,322.695,4.060,2928.821531
14 Sep 2023 06:37:16.000,322.808,4.104,2925.345630
14 Sep 2023 06:37:17.000,322.922,4.147,2921.878856
14 Sep 2023 06:37:18.000,323.035,4.190,2918.421240
14 Sep 2023 06:37:19.000,323.149,4.234,2914.972819
14 Sep 2023 06:37:20.000,323.263,4.277,2911.533627
14 Sep 2023 06:37:21.000,323.377,4.320,2908.103696
14 Sep 2023 06:37:22.000,323.492,4.363,2904.683061
14 Sep 2023 06:37:23.000,323.606,4.406,2901.271756
14 Sep 2023 06:37:24.000,323.722,4.450,2897.869814
14 Sep 2023 06:37:25.000,323.837,4.493,2894.477268
14 Sep 2023 06:37:26.000,323.953,4.536,2891.094156
14 Sep 2023 06:37:27.000,324.069,4.579,2887.720510
14 Sep 2023 06:37:28.000,324.185,4.622,2884.356365
14 Sep 2023 06:37:29.000,324.301,4.665,2881.001754
14 Sep 2023 06:37:30.000,324.418,4.707,2877.656713
14 Sep 2023 06:37:31.000,324.535,4.750,2874.321275
14 Sep 2023 06:37:32.000,324.652,4.793,2870.995476
14 Sep 2023 06:37:33.000,324.770,4.836,2867.679347
14 Sep 2023 06:37:34.000,324.888,4.879,2864.372927
14 Sep 2023 06:37:35.000,325.006,4.921,2861.076249
14 Sep 2023 06:37:36.000,325.124,4.964,2857.789348
14 Sep 2023 06:37:37.000,325.243,5.007,2854.512259
14 Sep 2023 06:37:38.000,325.362,5.049,2851.245015
14 Sep 2023 06:37:39.000,325.481,5.092,2847.987652
14 Sep 2023 06:37:40.000,325.601,5.134,2844.740206
14 Sep 2023 06:37:41.000,325.721,5.177,2841.502710
14 Sep 2023 06:37:42.000,325.841,5.219,2838.275199
14 Sep 2023 06:37:43.000,325.961,5.261,2835.057710
14 Sep 2023 06:37:44.000,326.082,5.304,2831.850274
14 Sep 2023 06:37:45.000,326.203,5.346,2828.652931
14 Sep 2023 06:37:46.000,326.324,5.388,2825.465714
14 Sep 2023 06:37:47.000,326.445,5.430,2822.288658
14 Sep 2023 06:37:48.000,326.567,5.472,2819.121799
14 Sep 2023 06:37:49.000,326.689,5.514,2815.965171
14 Sep 2023 06:37:50.000,326.812,5.556,2812.818810
14 Sep 2023 06:37:51.000,326.934,5.598,2809.682751
14 Sep 2023 06:37:52.000,327.057,5.640,2806.557030
14 Sep 2023 06:37:53.000,327.180,5.682,2803.441681
14 Sep 2023 06:37:54.000,327.304,5.724,2800.336740
14 Sep 2023 06:37:55.000,327.427,5.766,2797.242244
14 Sep 2023 06:37:56.000,327.551,5.807,2794.158226
14 Sep 2023 06:37:57.000,327.676,5.849,2791.084723
14 Sep 2023 06:37:58.000,327.800,5.891,2788.021769
14 Sep 2023 06:37:59.000,327.925,5.932,2784.969402
14 Sep 2023 06:38:00.000,328.050,5.974,2781.927655
14 Sep 2023 06:38:01.000,328.176,6.015,2778.896565
14 Sep 2023 06:38:02.000,328.302,6.056,2775.876168
14 Sep 2023 06:38:03.000,328.428,6.098,2772.866498
14 Sep 2023 06:38:04.000,328.554,6.139,2769.867592
14 Sep 2023 06:38:05.000,328.680,6.180,2766.879485
14 Sep 2023 06:38:06.000,328.807,6.221,2763.902213
14 Sep 2023 06:38:07.000,328.934,6.262,2760.935811
14 Sep 2023 06:38:08.000,329.062,6.303,2757.980315
14 Sep 2023 06:38:09.000,329.190,6.344,2755.035762
14 Sep 2023 06:38:10.000,329.318,6.385,2752.102185
14 Sep 2023 06:38:11.000,329.446,6.426,2749.179622
14 Sep 2023 06:38:12.000,329.574,6.466,2746.268108
14 Sep 2023 06:38:13.000,329.703,6.507,2743.367679
14 Sep 2023 06:38:14.000,329.832,6.548,2740.478370
14 Sep 2023 06:38:15.000,329.962,6.588,2737.600218
14 Sep 2023 06:38:16.000,330.092,6.628,2734.733257
14 Sep 2023 06:38:17.000,330.222,6.669,2731.877524
14 Sep 2023 06:38:18.000,330.352,6.709,2729.033054
14 Sep 2023 06:38:19.000,330.482,6.749,2726.199883
14 Sep 2023 06:38:20.000,330.613,6.789,2723.378047
14 Sep 2023 06:38:21.000,330.744,6.830,2720.567582
14 Sep 2023 06:38:22.000,330.876,6.870,2717.768523
14 Sep 2023 06:38:23.000,331.007,6.909,2714.980906
14 Sep 2023 06:38:24.000,331.139,6.949,2712.204767
14 Sep 2023 06:38:25.000,331.272,6.989,2709.440142
14 Sep 2023 06:38:26.000,331.404,7.029,2706.687065
14 Sep 2023 06:38:27.000,331.537,7.068,2703.945573
14 Sep 2023 06:38:28.000,331.670,7.108,2701.215701
14 Sep 2023 06:38:29.000,331.804,7.147,2698.497485
14 Sep 2023 06:38:30.000,331.937,7.187,2695.790960
14 Sep 2023 06:38:31.000,332.071,7.226,2693.096162
14 Sep 2023 06:38:32.000,332.205,7.265,2690.413128
14 Sep 2023 06:38:33.000,332.340,7.304,2687.741891
14 Sep 2023 06:38:34.000,332.475,7.343,2685.082488
14 Sep 2023 06:38:35.000,332.610,7.382,2682.434956
14 Sep 2023 06:38:36.000,332.745,7.421,2679.799326
14 Sep 2023 06:38:37.000,332.881,7.460,2677.175637
14 Sep 2023 06:38:38.000,333.017,7.498,2674.563923
14 Sep 2023 06:38:39.000,333.153,7.537,2671.964220
14 Sep 2023 06:38:40.000,333.289,7.575,2669.376563
14 Sep 2023 06:38:41.000,333.426,7.614,2666.800987
14 Sep 2023 06:38:42.000,333.563,7.652,2664.237528
14 Sep 2023 06:38:43.000,333.701,7.690,2661.686222
14 Sep 2023 06:38:44.000,333.838,7.728,2659.147101
14 Sep 2023 06:38:45.000,333.976,7.767,2656.620203
14 Sep 2023 06:38:46.000,334.114,7.804,2654.105561
14 Sep 2023 06:38:47.000,334.253,7.842,2651.603211
14 Sep 2023 06:38:48.000,334.391,7.880,2649.113189
14 Sep 2023 06:38:49.000,334.530,7.918,2646.635530
14 Sep 2023 06:38:50.000,334.670,7.955,2644.170265
14 Sep 2023 06:38:51.000,334.809,7.993,2641.717433
14 Sep 2023 06:38:52.000,334.949,8.030,2639.277066
14 Sep 2023 06:38:53.000,335.089,8.067,2636.849201
14 Sep 2023 06:38:54.000,335.230,8.104,2634.433870
14 Sep 2023 06:38:55.000,335.370,8.141,2632.031112
14 Sep 2023 06:38:56.000,335.511,8.178,2629.640956
14 Sep 2023 06:38:57.000,335.652,8.215,2627.263439
14 Sep 2023 06:38:58.000,335.794,8.252,2624.898596
14 Sep 2023 06:38:59.000,335.936,8.288,2622.546461
14 Sep 2023 06:39:00.000,336.078,8.325,2620.207067
14 Sep 2023 06:39:01.000,336.220,8.361,2617.880448
14 Sep 2023 06:39:02.000,336.362,8.397,2615.566639
14 Sep 2023 06:39:03.000,336.505,8.433,2613.265674
14 Sep 2023 06:39:04.000,336.648,8.469,2610.977587
14 Sep 2023 06:39:05.000,336.792,8.505,2608.702411
14 Sep 2023 06:39:06.000,336.935,8.541,2606.440180
14 Sep 2023 06:39:07.000,337.079,8.577,2604.190927
14 Sep 2023 06:39:08.000,337.223,8.612,2601.954688
14 Sep 2023 06:39:09.000,337.368,8.648,2599.731494
14 Sep 2023 06:39:10.000,337.513,8.683,2597.521378
14 Sep 2023 06:39:11.000,337.658,8.718,2595.324374
14 Sep 2023 06:39:12.000,337.803,8.753,2593.140518
14 Sep 2023 06:39:13.000,337.948,8.788,2590.969838
14 Sep 2023 06:39:14.000,338.094,8.823,2588.812369
14 Sep 2023 06:39:15.000,338.240,8.858,2586.668146
14 Sep 2023 06:39:16.000,338.386,8.892,2584.537198
14 Sep 2023 06:39:17.000,338.533,8.927,2582.419560
14 Sep 2023 06:39:18.000,338.680,8.961,2580.315264
14 Sep 2023 06:39:19.000,338.827,8.995,2578.224343
14 Sep 2023 06:39:20.000,338.974,9.029,2576.146827
14 Sep 2023 06:39:21.000,339.122,9.063,2574.082751
14 Sep 2023 06:39:22.000,339.270,9.097,2572.032146
14 Sep 2023 06:39:23.000,339.418,9.130,2569.995043
14 Sep 2023 06:39:24.000,339.566,9.164,2567.971474
14 Sep 2023 06:39:25.000,339.715,9.197,2565.961473
14 Sep 2023 06:39:26.000,339.863,9.231,2563.965068
14 Sep 2023 06:39:27.000,340.013,9.264,2561.982291
14 Sep 2023 06:39:28.000,340.162,9.297,2560.013177
14 Sep 2023 06:39:29.000,340.312,9.329,2558.057753
14 Sep 2023 06:39:30.000,340.461,9.362,2556.116051
14 Sep 2023 06:39:31.000,340.611,9.395,2554.188103
14 Sep 2023 06:39:32.000,340.762,9.427,2552.273939
14 Sep 2023 06:39:33.000,340.912,9.459,2550.373589
14 Sep 2023 06:39:34.000,341.063,9.491,2548.487085
14 Sep 2023 06:39:35.000,341.214,9.523,2546.614455
14 Sep 2023 06:39:36.000,341.366,9.555,2544.755730
14 Sep 2023 06:39:37.000,341.517,9.587,2542.910942
14 Sep 2023 06:39:38.000,341.669,9.619,2541.080118
14 Sep 2023 06:39:39.000,341.821,9.650,2539.263291
14 Sep 2023 06:39:40.000,341.973,9.681,2537.460486
14 Sep 2023 06:39:41.000,342.126,9.712,2535.671734
14 Sep 2023 06:39:42.000,342.279,9.743,2533.897067
14 Sep 2023 06:39:43.000,342.432,9.774,2532.136511
14 Sep 2023 06:39:44.000,342.585,9.805,2530.390096
14 Sep 2023 06:39:45.000,342.738,9.835,2528.657849
14 Sep 2023 06:39:46.000,342.892,9.865,2526.939802
14 Sep 2023 06:39:47.000,343.046,9.895,2525.235979
14 Sep 2023 06:39:48.000,343.200,9.925,2523.546411
14 Sep 2023 06:39:49.000,343.355,9.955,2521.871126
14 Sep 2023 06:39:50.000,343.509,9.985,2520.210151
14 Sep 2023 06:39:51.000,343.664,10.015,2518.563513
14 Sep 2023 06:39:52.000,343.819,10.044,2516.931240
14 Sep 2023 06:39:53.000,343.974,10.073,2515.313361
14 Sep 2023 06:39:54.000,344.130,10.102,2513.709899
14 Sep 2023 06:39:55.000,344.286,10.131,2512.120885
14 Sep 2023 06:39:56.000,344.442,10.160,2510.546343
14 Sep 2023 06:39:57.000,344.598,10.188,2508.986301
14 Sep 2023 06:39:58.000,344.754,10.217,2507.440784
14 Sep 2023 06:39:59.000,344.911,10.245,2505.909818
14 Sep 2023 06:40:00.000,345.068,10.273,2504.393431
14 Sep 2023 06:40:01.000,345.225,10.301,2502.891646
14 Sep 2023 06:40:02.000,345.382,10.328,2501.404490
14 Sep 2023 06:40:03.000,345.539,10.356,2499.931988
14 Sep 2023 06:40:04.000,345.697,10.383,2498.474165
14 Sep 2023 06:40:05.000,345.855,10.410,2497.031046
14 Sep 2023 06:40:06.000,346.013,10.437,2495.602654
14 Sep 2023 06:40:07.000,346.171,10.464,2494.189016
14 Sep 2023 06:40:08.000,346.329,10.491,2492.790154
14 Sep 2023 06:40:09.000,346.488,10.517,2491.406093
14 Sep 2023 06:40:10.000,346.647,10.544,2490.036856
14 Sep 2023 06:40:11.000,346.806,10.570,2488.682468
14 Sep 2023 06:40:12.000,346.965,10.596,2487.342950
14 Sep 2023 06:40:13.000,347.125,10.621,2486.018328
14 Sep 2023 06:40:14.000,347.284,10.647,2484.708621
14 Sep 2023 06:40:15.000,347.444,10.672,2483.413856
14 Sep 2023 06:40:16.000,347.604,10.697,2482.134052
14 Sep 2023 06:40:17.000,347.764,10.723,2480.869231
14 Sep 2023 06:40:18.000,347.925,10.747,2479.619417
14 Sep 2023 06:40:19.000,348.085,10.772,2478.384630
14 Sep 2023 06:40:20.000,348.246,10.796,2477.164893
14 Sep 2023 06:40:21.000,348.407,10.821,2475.960225
14 Sep 2023 06:40:22.000,348.568,10.845,2474.770649
14 Sep 2023 06:40:23.000,348.729,10.869,2473.596184
14 Sep 2023 06:40:24.000,348.890,10.892,2472.436851
14 Sep 2023 06:40:25.000,349.052,10.916,2471.292670
14 Sep 2023 06:40:26.000,349.214,10.939,2470.163661
14 Sep 2023 06:40:27.000,349.376,10.962,2469.049844
14 Sep 2023 06:40:28.000,349.538,10.985,2467.951238
14 Sep 2023 06:40:29.000,349.700,11.008,2466.867861
14 Sep 2023 06:40:30.000,349.863,11.030,2465.799734
14 Sep 2023 06:40:31.000,350.025,11.053,2464.746875
14 Sep 2023 06:40:32.000,350.188,11.075,2463.709300
14 Sep 2023 06:40:33.000,350.351,11.097,2462.687031
14 Sep 2023 06:40:34.000,350.514,11.118,2461.680082
14 Sep 2023 06:40:35.000,350.677,11.140,2460.688473
14 Sep 2023 06:40:36.000,350.840,11.161,2459.712220
14 Sep 2023 06:40:37.000,351.004,11.182,2458.751341
14 Sep 2023 06:40:38.000,351.168,11.203,2457.805851
14 Sep 2023 06:40:39.000,351.331,11.224,2456.875769
14 Sep 2023 06:40:40.000,351.495,11.245,2455.961109
14 Sep 2023 06:40:41.000,351.659,11.265,2455.061887
14 Sep 2023 06:40:42.000,351.824,11.285,2454.178119
14 Sep 2023 06:40:43.000,351.988,11.305,2453.309821
14 Sep 2023 06:40:44.000,352.152,11.325,2452.457008
14 Sep 2023 06:40:45.000,352.317,11.344,2451.619693
14 Sep 2023 06:40:46.000,352.482,11.363,2450.797892
14 Sep 2023 06:40:47.000,352.647,11.382,2449.991619
14 Sep 2023 06:40:48.000,352.812,11.401,2449.200886
14 Sep 2023 06:40:49.000,352.977,11.420,2448.425710
14 Sep 2023 06:40:50.000,353.142,11.438,2447.666102
14 Sep 2023 06:40:51.000,353.307,11.457,2446.922075
14 Sep 2023 06:40:52.000,353.473,11.475,2446.193642
14 Sep 2023 06:40:53.000,353.639,11.493,2445.480816
14 Sep 2023 06:40:54.000,353.804,11.510,2444.783609
14 Sep 2023 06:40:55.000,353.970,11.527,2444.102032
14 Sep 2023 06:40:56.000,354.136,11.545,2443.436096
14 Sep 2023 06:40:57.000,354.302,11.562,2442.785815
14 Sep 2023 06:40:58.000,354.468,11.578,2442.151197
14 Sep 2023 06:40:59.000,354.634,11.595,2441.532253
14 Sep 2023 06:41:00.000,354.801,11.611,2440.928995
14 Sep 2023 06:41:01.000,354.967,11.627,2440.341432
14 Sep 2023 06:41:02.000,355.134,11.643,2439.769573
14 Sep 2023 06:41:03.000,355.300,11.659,2439.213428
14 Sep 2023 06:41:04.000,355.467,11.674,2438.673006
14 Sep 2023 06:41:05.000,355.634,11.689,2438.148317
14 Sep 2023 06:41:06.000,355.801,11.704,2437.639367
14 Sep 2023 06:41:07.000,355.968,11.719,2437.146166
14 Sep 2023 06:41:08.000,356.135,11.734,2436.668721
14 Sep 2023 06:41:09.000,356.302,11.748,2436.207040
14 Sep 2023 06:41:10.000,356.469,11.762,2435.761129
14 Sep 2023 06:41:11.000,356.636,11.776,2435.330997
14 Sep 2023 06:41:12.000,356.804,11.790,2434.916649
14 Sep 2023 06:41:13.000,356.971,11.803,2434.518092
14 Sep 2023 06:41:14.000,357.139,11.816,2434.135332
14 Sep 2023 06:41:15.000,357.306,11.829,2433.768374
14 Sep 2023 06:41:16.000,357.474,11.842,2433.417223
14 Sep 2023 06:41:17.000,357.642,11.855,2433.081885
14 Sep 2023 06:41:18.000,357.809,11.867,2432.762364
14 Sep 2023 06:41:19.000,357.977,11.879,2432.458665
14 Sep 2023 06:41:20.000,358.145,11.891,2432.170792
14 Sep 2023 06:41:21.000,358.313,11.903,2431.898748
14 Sep 2023 06:41:22.000,358.481,11.914,2431.642537
14 Sep 2023 06:41:23.000,358.649,11.925,2431.402162
14 Sep 2023 06:41:24.000,358.817,11.936,2431.177625
14 Sep 2023 06:41:25.000,358.985,11.947,2430.968929
14 Sep 2023 06:41:26.000,359.153,11.957,2430.776077
14 Sep 2023 06:41:27.000,359.321,11.968,2430.599070
14 Sep 2023 06:41:28.000,359.490,11.978,2430.437909
14 Sep 2023 06:41:29.000,359.658,11.988,2430.292596
14 Sep 2023 06:41:30.000,359.826,11.997,2430.163131
14 Sep 2023 06:41:31.000,359.994,12.007,2430.049515
14 Sep 2023 06:41:32.000,0.163,12.016,2429.951748
14 Sep 2023 06:41:33.000,0.331,12.025,2429.869830
14 Sep 2023 06:41:34.000,0.499,12.033,2429.803761
14 Sep 2023 06:41:35.000,0.668,12.042,2429.753540
14 Sep 2023 06:41:36.000,0.836,12.050,2429.719165
14 Sep 2023 06:41:37.000,1.004,12.058,2429.700636
14 Sep 2023 06:41:38.000,1.173,12.066,2429.697950
14 Sep 2023 06:41:39.000,1.341,12.073,2429.711105
14 Sep 2023 06:41:40.000,1.510,12.080,2429.740099
14 Sep 2023 06:41:41.000,1.678,12.088,2429.784930
14 Sep 2023 06:41:42.000,1.847,12.094,2429.845594
14 Sep 2023 06:41:43.000,2.015,12.101,2429.922088
14 Sep 2023 06:41:44.000,2.183,12.107,2430.014408
14 Sep 2023 06:41:45.000,2.352,12.113,2430.122550
14 Sep 2023 06:41:46.000,2.520,12.119,2430.246510
14 Sep 2023 06:41:47.000,2.689,12.125,2430.386283
14 Sep 2023 06:41:48.000,2.857,12.130,2430.541865
14 Sep 2023 06:41:49.000,3.025,12.136,2430.713250
14 Sep 2023 06:41:50.000,3.194,12.141,2430.900432
14 Sep 2023 06:41:51.000,3.362,12.145,2431.103405
14 Sep 2023 06:41:52.000,3.530,12.150,2431.322164
