xian_to_starlink-1130_darksat_Access_AER.csv

"Time (UTCG)","Azimuth (deg)","Elevation (deg)","Range (km)"
14 Sep 2023 05:26:45.080,316.661,0.000,2714.233494
14 Sep 2023 05:27:45.000,324.910,1.924,2508.920450
14 Sep 2023 05:28:45.000,334.434,3.505,2352.960565
14 Sep 2023 05:29:45.000,345.031,4.534,2257.588280
14 Sep 2023 05:30:45.000,356.222,4.833,2230.940784
14 Sep 2023 05:31:45.000,7.323,4.343,2275.511669
14 Sep 2023 05:32:45.000,17.683,3.160,2387.134503
14 Sep 2023 05:33:45.000,26.894,1.479,2556.636978
14 Sep 2023 05:34:30.365,33.013,0.000,2716.397454
14 Sep 2023 07:07:35.683,330.696,0.000,2716.341616
14 Sep 2023 07:08:35.000,338.098,2.383,2463.891806
14 Sep 2023 07:09:35.000,347.132,4.622,2250.234585
14 Sep 2023 07:10:35.000,357.807,6.447,2092.336182
14 Sep 2023 07:11:35.000,9.849,7.545,2004.149476
14 Sep 2023 07:12:35.000,22.509,7.654,1995.358644
14 Sep 2023 07:13:35.000,34.762,6.745,2067.078084
14 Sep 2023 07:14:35.000,45.768,5.039,2211.299730
14 Sep 2023 07:15:35.000,55.151,2.855,2414.636786
14 Sep 2023 07:16:35.000,62.934,0.457,2662.958290
14 Sep 2023 07:16:46.194,64.225,0.000,2713.243926
14 Sep 2023 08:46:47.021,323.296,0.000,2716.168349
14 Sep 2023 08:47:47.000,326.919,3.627,2341.828041
14 Sep 2023 08:48:47.000,331.864,7.864,1978.923458
14 Sep 2023 08:49:47.000,339.026,12.963,1637.285383
14 Sep 2023 08:50:47.000,350.087,19.118,1335.298751
14 Sep 2023 08:51:47.000,7.835,25.712,1107.670785
14 Sep 2023 08:52:47.000,33.773,29.548,1007.440036
14 Sep 2023 08:53:47.000,60.967,26.972,1071.525709
14 Sep 2023 08:54:47.000,80.615,20.571,1275.306525
14 Sep 2023 08:55:47.000,92.894,14.179,1564.627051
14 Sep 2023 08:56:47.000,100.719,8.832,1900.041156
14 Sep 2023 08:57:47.000,106.021,4.411,2260.172460
14 Sep 2023 08:58:47.000,109.833,0.653,2633.830992
14 Sep 2023 08:58:58.322,110.436,0.000,2705.299012
14 Sep 2023 10:26:20.127,304.696,0.000,2714.388970
14 Sep 2023 10:27:20.000,301.569,3.695,2333.243108
14 Sep 2023 10:28:20.000,297.117,8.048,1962.387898
14 Sep 2023 10:29:20.000,290.417,13.353,1612.292475
14 Sep 2023 10:30:20.000,279.648,19.885,1301.735865
14 Sep 2023 10:31:20.000,261.584,27.066,1067.509009
14 Sep 2023 10:32:20.000,234.220,31.179,967.867313
14 Sep 2023 10:33:20.000,205.887,27.959,1042.480413
14 Sep 2023 10:34:20.000,186.435,20.859,1260.479452
14 Sep 2023 10:35:20.000,174.802,14.132,1562.272597
14 Sep 2023 10:36:20.000,167.603,8.650,1907.563058
14 Sep 2023 10:37:20.000,162.832,4.174,2275.536754
14 Sep 2023 10:38:20.000,159.466,0.390,2655.574021
14 Sep 2023 10:38:26.702,159.151,0.000,2698.490082
15 Sep 2023 00:18:45.266,184.759,0.000,2693.498931
15 Sep 2023 00:19:45.000,179.330,3.248,2357.849070
15 Sep 2023 00:20:45.000,172.074,6.780,2046.936042
15 Sep 2023 00:21:45.000,162.255,10.469,1777.829297
15 Sep 2023 00:22:45.000,149.108,13.876,1573.599282
15 Sep 2023 00:23:45.000,132.650,16.050,1462.778570
15 Sep 2023 00:24:45.000,114.771,15.985,1467.287112
15 Sep 2023 00:25:45.000,98.518,13.721,1586.236608
15 Sep 2023 00:26:45.000,85.644,10.295,1796.727553
15 Sep 2023 00:27:45.000,76.071,6.622,2070.413352
15 Sep 2023 00:28:45.000,69.021,3.115,2384.805989
15 Sep 2023 00:29:42.564,63.934,0.000,2710.693992
15 Sep 2023 01:57:08.083,235.736,0.000,2698.912657
15 Sep 2023 01:58:08.000,237.570,3.874,2303.562486
15 Sep 2023 01:59:08.000,240.150,8.585,1912.410028
15 Sep 2023 02:00:08.000,244.091,14.704,1531.749171
15 Sep 2023 02:01:08.000,250.924,23.346,1173.998996
15 Sep 2023 02:02:08.000,265.322,36.250,870.076008
15 Sep 2023 02:03:08.000,302.183,50.383,696.278542
15 Sep 2023 02:04:08.000,354.672,45.051,749.978955
15 Sep 2023 02:05:08.000,18.913,30.030,994.740904
15 Sep 2023 02:06:08.000,29.004,19.238,1328.159837
15 Sep 2023 02:07:08.000,34.301,11.910,1697.839016
15 Sep 2023 02:08:08.000,37.580,6.520,2083.454292
15 Sep 2023 02:09:08.000,39.845,2.235,2476.359173
15 Sep 2023 02:09:44.096,40.914,0.000,2714.369817
15 Sep 2023 03:38:41.747,282.783,0.000,2708.165028
15 Sep 2023 03:39:41.000,289.431,2.761,2419.254617
15 Sep 2023 03:40:41.000,297.870,5.557,2161.773687
15 Sep 2023 03:41:41.000,308.386,8.134,1954.605578
15 Sep 2023 03:42:41.000,321.035,10.083,1815.876499
15 Sep 2023 03:43:41.000,335.184,10.901,1762.305497
15 Sep 2023 03:44:41.000,349.456,10.315,1801.615759
15 Sep 2023 03:45:41.000,2.404,8.531,1927.904527
15 Sep 2023 03:46:41.000,13.270,6.039,2125.216109
15 Sep 2023 03:47:41.000,22.029,3.275,2375.198354
15 Sep 2023 03:48:41.000,29.017,0.487,2662.179496
15 Sep 2023 03:48:51.625,30.101,0.000,2715.914354
15 Sep 2023 05:21:22.057,321.129,0.000,2714.633032
15 Sep 2023 05:22:22.000,329.440,1.876,2514.132438
15 Sep 2023 05:23:22.000,338.989,3.395,2363.605171
15 Sep 2023 05:24:22.000,349.559,4.356,2273.857429
15 Sep 2023 05:25:22.000,0.661,4.593,2252.510373
15 Sep 2023 05:26:22.000,11.627,4.059,2301.540565
15 Sep 2023 05:27:22.000,21.836,2.857,2416.486005
15 Sep 2023 05:28:22.000,30.908,1.177,2588.176479
15 Sep 2023 05:28:58.583,35.827,0.000,2716.012484
15 Sep 2023 07:01:47.613,330.442,0.000,2716.155215
15 Sep 2023 07:02:47.000,337.469,2.580,2443.909072
15 Sep 2023 07:03:47.000,346.203,5.104,2206.869091
15 Sep 2023 07:04:47.000,356.804,7.308,2022.597565
15 Sep 2023 07:05:47.000,9.159,8.825,1907.325910
15 Sep 2023 07:06:47.000,22.560,9.278,1874.381409
15 Sep 2023 07:07:47.000,35.805,8.529,1928.196070
15 Sep 2023 07:08:47.000,47.772,6.795,2061.874147
15 Sep 2023 07:09:47.000,57.905,4.472,2260.911171
15 Sep 2023 07:10:47.000,66.197,1.900,2509.206001
15 Sep 2023 07:11:30.490,71.206,0.000,2711.968943
15 Sep 2023 08:40:55.672,321.115,0.000,2715.779585
15 Sep 2023 08:41:55.000,323.790,3.715,2333.061133
15 Sep 2023 08:42:55.000,327.509,8.197,1953.157635
15 Sep 2023 08:43:55.000,333.031,13.832,1587.704516
15 Sep 2023 08:44:55.000,342.086,21.269,1251.597909
15 Sep 2023 08:45:55.000,358.731,30.859,977.720268
15 Sep 2023 08:46:55.000,29.615,38.856,831.747297
15 Sep 2023 08:47:55.000,66.666,35.780,880.572097
15 Sep 2023 08:48:55.000,90.003,25.946,1098.488590
15 Sep 2023 08:49:55.000,102.222,17.314,1408.599414
15 Sep 2023 08:50:55.000,109.218,10.823,1762.096722
15 Sep 2023 08:51:55.000,113.684,5.801,2136.574597
15 Sep 2023 08:52:55.000,116.784,1.701,2521.600412
15 Sep 2023 08:53:23.081,117.935,0.000,2703.800809
15 Sep 2023 10:20:42.298,300.310,0.000,2713.578324
15 Sep 2023 10:21:42.000,296.008,3.477,2353.098636
15 Sep 2023 10:22:42.000,290.050,7.429,2009.215772
15 Sep 2023 10:23:42.000,281.537,11.905,1696.745683
15 Sep 2023 10:24:42.000,269.100,16.696,1437.891072
15 Sep 2023 10:25:42.000,251.478,20.739,1267.183568
15 Sep 2023 10:26:42.000,229.877,21.936,1222.801352
15 Sep 2023 10:27:42.000,209.336,19.384,1317.646332
15 Sep 2023 10:28:42.000,193.707,14.826,1525.567901
15 Sep 2023 10:29:42.000,182.890,10.076,1807.224974
15 Sep 2023 10:30:42.000,175.421,5.787,2132.652039
15 Sep 2023 10:31:42.000,170.096,2.016,2483.601778
15 Sep 2023 10:32:17.347,167.638,-0.000,2697.802977
16 Sep 2023 00:12:28.819,193.688,0.000,2693.641758
16 Sep 2023 00:13:28.000,189.484,3.497,2334.111409
16 Sep 2023 00:14:28.000,183.625,7.540,1986.812704
16 Sep 2023 00:15:28.000,175.211,12.182,1669.546987
16 Sep 2023 00:16:28.000,162.759,17.262,1404.617065
16 Sep 2023 00:17:28.000,144.747,21.697,1227.877848
16 Sep 2023 00:18:28.000,122.257,23.119,1180.567311
16 Sep 2023 00:19:28.000,100.887,20.411,1277.429883
16 Sep 2023 00:20:28.000,84.926,15.566,1490.375725
16 Sep 2023 00:21:28.000,74.114,10.600,1777.568627
16 Sep 2023 00:22:28.000,66.781,6.180,2108.037711
16 Sep 2023 00:23:28.000,61.633,2.331,2463.418447
16 Sep 2023 00:24:08.414,58.982,0.000,2711.362202
16 Sep 2023 01:51:28.414,243.263,0.000,2700.092248
16 Sep 2023 01:52:28.000,246.073,3.748,2316.448057
16 Sep 2023 01:53:28.000,250.012,8.248,1938.394297
16 Sep 2023 01:54:28.000,255.904,13.884,1576.542495
16 Sep 2023 01:55:28.000,265.574,21.240,1247.030349
16 Sep 2023 01:56:28.000,283.070,30.393,984.687548
16 Sep 2023 01:57:28.000,313.823,37.235,855.059353
16 Sep 2023 01:58:28.000,348.533,33.752,916.690608
16 Sep 2023 01:59:28.000,10.591,24.602,1138.638919
16 Sep 2023 02:00:28.000,22.569,16.515,1448.301627
16 Sep 2023 02:01:28.000,29.615,10.324,1800.030104
16 Sep 2023 02:02:28.000,34.201,5.470,2172.392314
16 Sep 2023 02:03:28.000,37.440,1.472,2555.188487
16 Sep 2023 02:03:52.704,38.520,0.000,2714.492944
16 Sep 2023 03:33:24.051,289.958,0.000,2709.332267
16 Sep 2023 03:34:24.000,297.152,2.584,2437.821397
16 Sep 2023 03:35:24.000,306.000,5.065,2205.699505
16 Sep 2023 03:36:24.000,316.690,7.198,2027.818846
16 Sep 2023 03:37:24.000,329.056,8.620,1919.993908
16 Sep 2023 03:38:24.000,342.351,8.978,1894.574747
16 Sep 2023 03:39:24.000,355.393,8.169,1954.792348
16 Sep 2023 03:40:24.000,7.130,6.424,2092.979363
16 Sep 2023 03:41:24.000,17.065,4.126,2294.556438
16 Sep 2023 03:42:24.000,25.218,1.595,2543.771278
16 Sep 2023 03:43:01.122,29.482,0.000,2715.802785
16 Sep 2023 05:15:53.433,324.707,0.000,2714.903984
16 Sep 2023 05:16:53.000,332.955,1.869,2515.080138
16 Sep 2023 05:17:53.000,342.493,3.395,2363.666721
16 Sep 2023 05:18:53.000,353.058,4.366,2272.914315
16 Sep 2023 05:19:53.000,4.167,4.613,2250.537048
16 Sep 2023 05:20:53.000,15.148,4.088,2298.623917
16 Sep 2023 05:21:53.000,25.378,2.892,2412.800922
16 Sep 2023 05:22:53.000,34.472,1.213,2583.934487
16 Sep 2023 05:23:30.655,39.539,0.000,2715.504964
16 Sep 2023 06:55:56.795,329.768,0.000,2715.960598
16 Sep 2023 06:56:56.000,336.307,2.775,2424.308951
16 Sep 2023 06:57:56.000,344.625,5.611,2162.313549
16 Sep 2023 06:58:56.000,355.034,8.259,1949.007012
16 Sep 2023 06:59:56.000,7.652,10.315,1802.798840
16 Sep 2023 07:00:56.000,21.908,11.247,1741.386519
16 Sep 2023 07:01:56.000,36.418,10.736,1773.934329
16 Sep 2023 07:02:56.000,49.647,8.960,1895.582054
16 Sep 2023 07:03:56.000,60.747,6.428,2090.503020
16 Sep 2023 07:04:56.000,69.663,3.606,2339.889246
16 Sep 2023 07:05:56.000,76.738,0.760,2627.529716
16 Sep 2023 07:06:12.299,78.397,0.000,2710.601892
16 Sep 2023 08:35:04.214,318.686,0.000,2715.324976
16 Sep 2023 08:36:04.000,320.403,3.842,2320.577129
16 Sep 2023 08:37:04.000,322.771,8.522,1928.406760
16 Sep 2023 08:38:04.000,326.335,14.604,1545.487241
16 Sep 2023 08:39:04.000,332.457,23.236,1183.176046
16 Sep 2023 08:40:04.000,345.426,36.437,870.066626
16 Sep 2023 08:41:04.000,21.160,52.474,680.165411
16 Sep 2023 08:42:04.000,78.995,47.966,719.800778
16 Sep 2023 08:43:04.000,104.447,31.520,960.971877
16 Sep 2023 08:44:04.000,114.332,19.995,1295.092843
16 Sep 2023 08:45:04.000,119.351,12.342,1666.338600
16 Sep 2023 08:46:04.000,122.391,6.787,2053.658461
16 Sep 2023 08:47:04.000,124.449,2.409,2448.297504
16 Sep 2023 08:47:42.354,125.457,0.000,2702.339895
16 Sep 2023 10:15:08.674,295.243,0.000,2712.658966
16 Sep 2023 10:16:08.000,289.806,3.165,2382.091459
16 Sep 2023 10:17:08.000,282.509,6.592,2075.129582
16 Sep 2023 10:18:08.000,272.700,10.116,1811.125347
16 Sep 2023 10:19:08.000,259.721,13.295,1612.522176
16 Sep 2023 10:20:08.000,243.693,15.252,1506.232536
16 Sep 2023 10:21:08.000,226.417,15.111,1512.180503
16 Sep 2023 10:22:08.000,210.654,12.942,1629.001157
16 Sep 2023 10:23:08.000,198.011,9.669,1835.136384
16 Sep 2023 10:24:08.000,188.470,6.130,2103.718434
16 Sep 2023 10:25:08.000,181.343,2.719,2413.016810
16 Sep 2023 10:25:59.115,176.653,0.000,2697.363160
17 Sep 2023 00:06:19.078,202.105,0.000,2694.088272
17 Sep 2023 00:07:19.000,199.036,3.745,2311.025281
17 Sep 2023 00:08:19.000,194.690,8.186,1937.801813
17 Sep 2023 00:09:19.000,188.129,13.661,1584.336913
17 Sep 2023 00:10:19.000,177.447,20.536,1269.329441
17 Sep 2023 00:11:19.000,159.032,28.324,1030.582114
17 Sep 2023 00:12:19.000,130.226,32.885,930.165944
17 Sep 2023 00:13:19.000,100.514,29.222,1010.678643
17 Sep 2023 00:14:19.000,80.904,21.536,1237.091315
17 Sep 2023 00:15:19.000,69.561,14.509,1545.977513
17 Sep 2023 00:16:19.000,62.686,8.896,1896.592488
17 Sep 2023 00:17:19.000,58.201,4.358,2268.627004
17 Sep 2023 00:18:19.000,55.086,0.543,2651.923406
17 Sep 2023 00:18:28.281,54.689,0.000,2711.831388
17 Sep 2023 01:45:52.169,250.755,0.000,2701.391306
17 Sep 2023 01:46:52.000,254.495,3.626,2329.166180
17 Sep 2023 01:47:52.000,259.645,7.860,1968.775779
17 Sep 2023 01:48:52.000,267.124,12.923,1631.651801
17 Sep 2023 01:49:52.000,278.624,18.935,1337.220517
17 Sep 2023 01:50:52.000,296.735,25.127,1121.092987
17 Sep 2023 01:51:52.000,322.248,28.345,1034.484283
17 Sep 2023 01:52:52.000,348.182,25.616,1108.384891
17 Sep 2023 01:53:52.000,6.967,19.550,1315.672829
17 Sep 2023 01:54:52.000,18.937,13.495,1604.772888
17 Sep 2023 01:55:52.000,26.710,8.371,1938.498019
17 Sep 2023 01:56:52.000,32.060,4.091,2296.400067
17 Sep 2023 01:57:52.000,35.961,0.425,2667.592743
17 Sep 2023 01:57:59.494,36.377,-0.000,2714.554078
17 Sep 2023 03:28:06.650,296.893,0.000,2710.393227
17 Sep 2023 03:29:06.000,304.379,2.363,2460.877564
17 Sep 2023 03:30:06.000,313.490,4.562,2251.478858
17 Sep 2023 03:31:06.000,324.211,6.330,2098.883225
17 Sep 2023 03:32:06.000,336.235,7.357,2016.592752
17 Sep 2023 03:33:06.000,348.796,7.403,2013.499415
17 Sep 2023 03:34:06.000,0.894,6.459,2089.898438
17 Sep 2023 03:35:06.000,11.734,4.751,2237.330401
17 Sep 2023 03:36:06.000,20.977,2.588,2442.410125
17 Sep 2023 03:37:06.000,28.663,0.220,2691.259340
17 Sep 2023 03:37:11.464,29.292,0.000,2715.665480
17 Sep 2023 05:10:18.931,327.383,0.000,2715.016317
17 Sep 2023 05:11:18.000,335.487,1.908,2511.073191
17 Sep 2023 05:12:18.000,344.980,3.508,2352.792642
17 Sep 2023 05:13:18.000,355.567,4.564,2254.772555
17 Sep 2023 05:14:18.000,6.775,4.890,2225.399571
17 Sep 2023 05:15:18.000,17.918,4.423,2267.475793
17 Sep 2023 05:16:18.000,28.335,3.254,2377.080476
17 Sep 2023 05:17:18.000,37.605,1.577,2545.145077
17 Sep 2023 05:18:06.197,44.124,0.000,2714.904651
17 Sep 2023 06:50:03.813,328.743,0.000,2715.693400
17 Sep 2023 06:51:03.000,334.732,2.979,2404.007153
17 Sep 2023 06:52:03.000,342.515,6.144,2116.728917
17 Sep 2023 06:53:03.000,352.581,9.295,1873.045469
17 Sep 2023 06:54:03.000,5.358,12.021,1693.116960
17 Sep 2023 06:55:03.000,20.567,13.616,1599.506810
17 Sep 2023 06:56:03.000,36.686,13.457,1607.850250
17 Sep 2023 06:57:03.000,51.574,11.611,1716.734339
17 Sep 2023 06:58:03.000,63.902,8.759,1908.755750
17 Sep 2023 06:59:03.000,73.548,5.570,2161.326869
17 Sep 2023 07:00:03.000,80.991,2.408,2455.090252
17 Sep 2023 07:00:50.800,85.718,0.000,2709.139826
17 Sep 2023 08:29:12.999,315.994,0.000,2714.857680
17 Sep 2023 08:30:12.000,316.655,3.841,2320.221969
17 Sep 2023 08:31:12.000,317.532,8.613,1921.146098
17 Sep 2023 08:32:12.000,318.801,14.921,1528.333805
17 Sep 2023 08:33:12.000,320.954,24.241,1150.646752
17 Sep 2023 08:34:12.000,325.855,40.190,812.119206
17 Sep 2023 08:35:12.000,350.254,68.921,587.578011
17 Sep 2023 08:36:12.000,109.849,61.762,618.480212
17 Sep 2023 08:37:12.000,124.960,35.813,878.260051
17 Sep 2023 08:38:12.000,128.890,21.755,1228.937928
17 Sep 2023 08:39:12.000,130.738,13.268,1611.370850
17 Sep 2023 08:40:12.000,131.845,7.366,2006.434584
17 Sep 2023 08:41:12.000,132.601,2.815,2406.749880
17 Sep 2023 08:41:55.907,133.026,0.000,2700.941122
17 Sep 2023 10:09:41.365,289.219,0.000,2711.546632
17 Sep 2023 10:10:41.000,282.613,2.791,2417.404502
17 Sep 2023 10:11:41.000,274.172,5.575,2159.244973
17 Sep 2023 10:12:41.000,263.585,8.086,1955.144079
17 Sep 2023 10:13:41.000,250.864,9.887,1824.159550
17 Sep 2023 10:14:41.000,236.780,10.479,1782.918062
17 Sep 2023 10:15:41.000,222.811,9.654,1837.506368
17 Sep 2023 10:16:41.000,210.365,7.691,1979.685975
17 Sep 2023 10:17:41.000,200.079,5.102,2191.861627
17 Sep 2023 10:18:41.000,191.885,2.296,2455.117884
17 Sep 2023 10:19:30.049,186.482,-0.000,2697.246045
17 Sep 2023 22:24:56.925,145.345,0.000,2695.264920
17 Sep 2023 22:25:56.000,136.571,1.359,2549.986836
17 Sep 2023 22:26:56.000,126.788,2.234,2461.550793
17 Sep 2023 22:27:56.000,116.547,2.468,2439.655257
17 Sep 2023 22:28:56.000,106.411,2.023,2486.299826
17 Sep 2023 22:29:56.000,96.913,0.972,2597.756653
17 Sep 2023 22:30:36.239,91.084,0.000,2704.876226
18 Sep 2023 00:00:14.940,210.173,0.000,2694.726251
18 Sep 2023 00:01:14.000,208.327,3.813,2305.186320
18 Sep 2023 00:02:14.000,205.625,8.502,1914.800111
18 Sep 2023 00:03:14.000,201.395,14.560,1536.096968
18 Sep 2023 00:04:14.000,193.951,23.001,1182.641084
18 Sep 2023 00:05:14.000,178.438,35.128,887.437618
18 Sep 2023 00:06:14.000,142.328,46.963,727.210333
18 Sep 2023 00:07:14.000,95.819,41.639,789.687848
18 Sep 2023 00:08:14.000,72.641,28.264,1035.146167
18 Sep 2023 00:09:14.000,62.428,18.239,1367.780748
18 Sep 2023 00:10:14.000,57.060,11.242,1737.324212
18 Sep 2023 00:11:14.000,53.827,6.011,2123.519463
18 Sep 2023 00:12:14.000,51.697,1.811,2517.526930
18 Sep 2023 00:12:43.435,50.904,0.000,2712.246296
18 Sep 2023 01:40:19.094,258.224,0.000,2702.674487
18 Sep 2023 01:41:19.000,262.804,3.464,2345.814050
18 Sep 2023 01:42:19.000,268.993,7.387,2006.508980
18 Sep 2023 01:43:19.000,277.671,11.830,1697.860944
18 Sep 2023 01:44:19.000,290.159,16.599,1441.174292
18 Sep 2023 01:45:19.000,307.702,20.694,1269.517579
18 Sep 2023 01:46:19.000,329.268,22.087,1219.960550
18 Sep 2023 01:47:19.000,350.071,19.774,1306.529706
18 Sep 2023 01:48:19.000,6.167,15.350,1505.531726
18 Sep 2023 01:49:19.000,17.468,10.643,1778.927268
18 Sep 2023 01:50:19.000,25.375,6.361,2096.907690
18 Sep 2023 01:51:19.000,31.092,2.589,2441.058702
18 Sep 2023 01:52:04.811,34.478,0.000,2714.576602
18 Sep 2023 03:22:48.509,303.480,0.000,2711.317007
18 Sep 2023 03:23:48.000,311.277,2.192,2478.911257
18 Sep 2023 03:24:48.000,320.585,4.147,2290.231292
18 Sep 2023 03:25:48.000,331.295,5.610,2160.228518
18 Sep 2023 03:26:48.000,343.007,6.326,2100.300271
18 Sep 2023 03:27:48.000,354.970,6.136,2116.582240
18 Sep 2023 03:28:48.000,6.332,5.086,2207.275485
18 Sep 2023 03:29:48.000,16.476,3.394,2363.463583
18 Sep 2023 03:30:48.000,25.168,1.317,2572.672284
18 Sep 2023 03:31:23.311,29.619,0.000,2715.470136
18 Sep 2023 05:04:38.749,329.207,0.000,2715.044512
18 Sep 2023 05:05:38.000,337.201,2.013,2500.238333
18 Sep 2023 05:06:38.000,346.628,3.744,2330.325781
18 Sep 2023 05:07:38.000,357.262,4.948,2220.034435
18 Sep 2023 05:08:38.000,8.656,5.415,2178.914564
18 Sep 2023 05:09:38.000,20.098,5.047,2211.021969
18 Sep 2023 05:10:38.000,30.857,3.922,2313.229003
18 Sep 2023 05:11:38.000,40.445,2.240,2476.550141
18 Sep 2023 05:12:38.000,48.693,0.224,2689.351947
18 Sep 2023 05:12:44.309,49.483,0.000,2714.125759
18 Sep 2023 06:44:09.136,327.415,0.000,2715.407141
18 Sep 2023 06:45:09.000,332.843,3.215,2380.711911
18 Sep 2023 06:46:09.000,339.972,6.718,2068.941243
18 Sep 2023 06:47:09.000,349.521,10.425,1794.881737
18 Sep 2023 06:48:09.000,2.298,13.973,1579.718938
18 Sep 2023 06:49:09.000,18.539,16.486,1451.011943
18 Sep 2023 06:50:09.000,36.735,16.859,1432.915896
18 Sep 2023 06:51:09.000,53.840,14.881,1529.544666
18 Sep 2023 06:52:09.000,67.708,11.513,1721.465848
18 Sep 2023 06:53:09.000,78.152,7.777,1980.647913
18 Sep 2023 06:54:09.000,85.910,4.179,2283.561715
18 Sep 2023 06:55:09.000,91.763,0.857,2614.149738
18 Sep 2023 06:55:25.360,93.110,0.000,2707.641347
18 Sep 2023 08:23:22.432,313.013,0.000,2714.358311
18 Sep 2023 08:24:22.000,312.587,3.886,2315.356900
18 Sep 2023 08:25:22.000,311.889,8.676,1915.875020
18 Sep 2023 08:26:22.000,310.689,15.013,1522.962381
18 Sep 2023 08:27:22.000,308.369,24.379,1145.808165
18 Sep 2023 08:28:22.000,302.604,40.354,809.363046
18 Sep 2023 08:29:22.000,273.621,68.025,590.503722
18 Sep 2023 08:30:22.000,165.727,59.845,628.530553
18 Sep 2023 08:31:22.000,149.118,35.046,891.075575
18 Sep 2023 08:32:22.000,144.736,21.349,1242.592639
18 Sep 2023 08:33:22.000,142.780,13.004,1625.464183
18 Sep 2023 08:34:22.000,141.693,7.168,2020.871397
18 Sep 2023 08:35:22.000,141.014,2.653,2421.490018
18 Sep 2023 08:36:03.496,140.679,0.000,2699.704773
18 Sep 2023 10:04:24.281,281.708,0.000,2710.154852
18 Sep 2023 10:05:24.000,274.016,2.273,2467.646031
18 Sep 2023 10:06:24.000,264.731,4.285,2272.473266
18 Sep 2023 10:07:24.000,253.940,5.766,2139.957432
18 Sep 2023 10:08:24.000,242.097,6.434,2082.529979
18 Sep 2023 10:09:24.000,230.053,6.128,2106.434728
18 Sep 2023 10:10:24.000,218.744,4.924,2208.801758
18 Sep 2023 10:11:24.000,208.798,3.077,2379.015524
18 Sep 2023 10:12:24.000,200.414,0.870,2603.069010
18 Sep 2023 10:12:46.361,197.672,0.000,2697.545941
18 Sep 2023 22:17:43.246,160.117,0.000,2693.640196
18 Sep 2023 22:18:43.000,152.139,2.164,2465.264827
18 Sep 2023 22:19:43.000,142.652,4.023,2286.395640
18 Sep 2023 22:20:43.000,131.815,5.318,2171.541219
18 Sep 2023 22:21:43.000,120.141,5.800,2131.720738
18 Sep 2023 22:22:43.000,108.466,5.357,2171.374948
18 Sep 2023 22:23:43.000,97.627,4.094,2286.355893
18 Sep 2023 22:24:43.000,88.147,2.256,2465.847729
18 Sep 2023 22:25:43.000,80.162,0.094,2696.463204
18 Sep 2023 22:25:45.479,79.863,0.000,2706.899819
18 Sep 2023 23:54:15.683,218.002,0.000,2695.520407
18 Sep 2023 23:55:15.000,217.299,3.895,2298.333094
18 Sep 2023 23:56:15.000,216.243,8.722,1899.351454
18 Sep 2023 23:57:15.000,214.524,15.120,1507.604741
18 Sep 2023 23:58:15.000,211.306,24.585,1133.006111
18 Sep 2023 23:59:15.000,203.440,40.589,802.488335
19 Sep 2023 00:00:15.000,167.421,65.996,596.882123
19 Sep 2023 00:01:15.000,76.375,56.375,649.360699
19 Sep 2023 00:02:15.000,57.954,33.700,916.455867
19 Sep 2023 00:03:15.000,52.569,20.716,1268.543192
19 Sep 2023 00:04:15.000,50.110,12.653,1651.195582
19 Sep 2023 00:05:15.000,48.746,6.953,2046.234149
19 Sep 2023 00:06:15.000,47.910,2.513,2446.455935
19 Sep 2023 00:06:54.724,47.528,0.000,2712.518695
19 Sep 2023 01:34:48.861,265.665,0.000,2704.023629
19 Sep 2023 01:35:48.000,270.917,3.231,2369.401784
19 Sep 2023 01:36:48.000,277.944,6.814,2053.213079
19 Sep 2023 01:37:48.000,287.442,10.641,1774.480185
19 Sep 2023 01:38:48.000,300.290,14.354,1554.731714
19 Sep 2023 01:39:48.000,316.804,17.035,1422.474464
19 Sep 2023 01:40:48.000,335.437,17.478,1403.103267
19 Sep 2023 01:41:48.000,352.927,15.437,1500.948759
19 Sep 2023 01:42:48.000,6.999,11.954,1695.409155
19 Sep 2023 01:43:48.000,17.510,8.124,1957.193740
19 Sep 2023 01:44:48.000,25.274,4.464,2262.153947
19 Sep 2023 01:45:48.000,31.120,1.105,2594.076434
19 Sep 2023 01:46:08.995,32.831,0.000,2714.567162
19 Sep 2023 03:17:28.431,309.585,0.000,2712.078010
19 Sep 2023 03:18:28.000,317.610,2.047,2494.263729
19 Sep 2023 03:19:28.000,327.045,3.804,2322.698860
19 Sep 2023 03:20:28.000,337.710,5.034,2210.974072
19 Sep 2023 03:21:28.000,349.153,5.521,2168.762327
19 Sep 2023 03:22:28.000,0.654,5.165,2200.187158
19 Sep 2023 03:23:28.000,11.471,4.041,2302.081989
19 Sep 2023 03:24:28.000,21.105,2.356,2465.334507
19 Sep 2023 03:25:28.000,29.388,0.335,2678.162798
19 Sep 2023 03:25:37.407,30.566,0.000,2715.256010
19 Sep 2023 04:58:53.461,330.277,0.000,2714.999927
19 Sep 2023 04:59:53.000,338.107,2.161,2485.022088
19 Sep 2023 05:00:53.000,347.420,4.077,2298.976184
19 Sep 2023 05:01:53.000,358.101,5.499,2171.442856
19 Sep 2023 05:02:53.000,9.752,6.177,2113.609920
19 Sep 2023 05:03:53.000,21.629,5.962,2131.432911
19 Sep 2023 05:04:53.000,32.901,4.903,2223.077545
19 Sep 2023 05:05:53.000,42.968,3.212,2379.757165
19 Sep 2023 05:06:53.000,51.598,1.143,2589.204068
19 Sep 2023 05:07:23.816,55.484,0.000,2713.213059
19 Sep 2023 06:38:13.179,325.816,0.000,2715.099422
19 Sep 2023 06:39:13.000,330.518,3.400,2362.513814
19 Sep 2023 06:40:13.000,336.817,7.233,2027.180474
19 Sep 2023 06:41:13.000,345.554,11.535,1722.689996
19 Sep 2023 06:42:13.000,357.960,16.091,1469.992395
19 Sep 2023 06:43:13.000,15.133,19.947,1301.003540
19 Sep 2023 06:44:13.000,36.049,21.255,1251.013536
19 Sep 2023 06:45:13.000,56.324,19.098,1333.789085
19 Sep 2023 06:46:13.000,72.243,14.889,1527.737997
19 Sep 2023 06:47:13.000,83.568,10.327,1796.706848
19 Sep 2023 06:48:13.000,91.552,6.124,2111.472726
19 Sep 2023 06:49:13.000,97.339,2.393,2453.557004
19 Sep 2023 06:49:55.478,100.536,0.000,2706.066419
19 Sep 2023 08:17:32.997,309.703,0.000,2713.784753
19 Sep 2023 08:18:32.000,308.159,3.797,2323.062732
19 Sep 2023 08:19:32.000,305.848,8.471,1930.345734
19 Sep 2023 08:20:32.000,302.174,14.522,1547.959460
19 Sep 2023 08:21:32.000,295.623,23.031,1188.188960
19 Sep 2023 08:22:32.000,281.632,35.679,881.491828
19 Sep 2023 08:23:32.000,245.866,49.638,703.149831
19 Sep 2023 08:24:32.000,194.075,44.803,751.723097
19 Sep 2023 08:25:32.000,169.624,29.920,994.345622
19 Sep 2023 08:26:32.000,159.560,19.106,1327.998511
19 Sep 2023 08:27:32.000,154.417,11.754,1698.964405
19 Sep 2023 08:28:32.000,151.345,6.345,2086.344591
19 Sep 2023 08:29:32.000,149.311,2.046,2481.259514
19 Sep 2023 08:30:04.783,148.467,0.000,2698.556604
19 Sep 2023 09:59:27.020,271.347,0.000,2708.169427
19 Sep 2023 10:00:27.000,262.653,1.546,2540.056046
19 Sep 2023 10:01:27.000,252.925,2.612,2430.087777
19 Sep 2023 10:02:27.000,242.547,3.038,2386.712471
19 Sep 2023 10:03:27.000,232.096,2.748,2413.550681
19 Sep 2023 10:04:27.000,222.170,1.795,2508.097533
19 Sep 2023 10:05:27.000,213.199,0.328,2662.652775
19 Sep 2023 10:05:38.590,211.595,0.000,2698.565046
19 Sep 2023 22:10:55.106,171.642,0.000,2692.906185
19 Sep 2023 22:11:55.000,164.687,2.725,2408.351632
19 Sep 2023 22:12:55.000,155.945,5.385,2163.285542
19 Sep 2023 22:13:55.000,145.158,7.712,1974.503928
19 Sep 2023 22:14:55.000,132.457,9.281,1860.233143
19 Sep 2023 22:15:55.000,118.691,9.661,1835.081499
19 Sep 2023 22:16:55.000,105.262,8.730,1902.821442
19 Sep 2023 22:17:55.000,93.391,6.780,2054.154230
19 Sep 2023 22:18:55.000,83.583,4.273,2272.008907
19 Sep 2023 22:19:55.000,75.744,1.566,2538.656217
19 Sep 2023 22:20:29.491,71.996,0.000,2708.205499
19 Sep 2023 23:48:20.800,225.671,0.000,2696.478760
19 Sep 2023 23:49:20.000,226.081,3.892,2299.448351
19 Sep 2023 23:50:20.000,226.639,8.732,1899.385249
19 Sep 2023 23:51:20.000,227.462,15.170,1505.743649
19 Sep 2023 23:52:20.000,228.880,24.781,1127.628231
19 Sep 2023 23:53:20.000,232.188,41.534,790.189862
19 Sep 2023 23:54:20.000,252.024,72.918,572.983944
19 Sep 2023 23:55:20.000,30.106,61.312,619.960883
19 Sep 2023 23:56:20.000,39.169,35.151,890.047336
19 Sep 2023 23:57:20.000,41.605,21.364,1245.009013
19 Sep 2023 23:58:20.000,42.813,13.033,1629.346202
19 Sep 2023 23:59:20.000,43.586,7.219,2025.287260
20 Sep 2023 00:00:20.000,44.157,2.722,2425.938468
20 Sep 2023 00:01:02.801,44.495,0.000,2712.737976
20 Sep 2023 01:29:21.107,273.063,0.000,2705.300389
20 Sep 2023 01:30:21.000,279.052,3.071,2386.118568
20 Sep 2023 01:31:21.000,286.809,6.314,2095.256192
20 Sep 2023 01:32:21.000,296.921,9.566,1848.292918
20 Sep 2023 01:33:21.000,309.858,12.402,1665.915386
20 Sep 2023 01:34:21.000,325.348,14.073,1571.465746
20 Sep 2023 01:35:21.000,341.783,13.911,1581.048033
20 Sep 2023 01:36:21.000,356.896,11.995,1692.756111
20 Sep 2023 01:37:21.000,9.323,9.060,1888.081857
20 Sep 2023 01:38:21.000,18.988,5.807,2143.576961
20 Sep 2023 01:39:21.000,26.417,2.605,2439.522050
20 Sep 2023 01:40:12.404,31.450,0.000,2714.513284
20 Sep 2023 03:12:05.136,315.064,0.000,2712.677207
20 Sep 2023 03:13:05.000,323.279,1.947,2505.047567
20 Sep 2023 03:14:05.000,332.794,3.558,2346.308133
20 Sep 2023 03:15:05.000,343.412,4.622,2248.096286
20 Sep 2023 03:16:05.000,354.654,4.952,2218.824967
20 Sep 2023 03:17:05.000,5.830,4.483,2261.256363
20 Sep 2023 03:18:05.000,16.271,3.309,2371.367042
20 Sep 2023 03:19:05.000,25.556,1.625,2539.966145
20 Sep 2023 03:19:54.473,32.243,0.000,2714.971296
20 Sep 2023 04:53:03.804,330.707,0.000,2714.898992
20 Sep 2023 04:54:03.000,338.209,2.317,2469.105676
20 Sep 2023 04:55:03.000,347.327,4.468,2262.749482
20 Sep 2023 04:56:03.000,358.015,6.182,2112.992488
20 Sep 2023 04:57:03.000,9.959,7.160,2033.067651
20 Sep 2023 04:58:03.000,22.407,7.175,2031.613479
20 Sep 2023 04:59:03.000,34.385,6.221,2108.861499
20 Sep 2023 05:00:03.000,45.125,4.520,2256.531933
20 Sep 2023 05:01:03.000,54.294,2.371,2461.537031
20 Sep 2023 05:02:03.000,61.928,0.017,2710.263922
20 Sep 2023 05:02:03.427,61.977,0.000,2712.158982
20 Sep 2023 06:32:16.311,323.968,0.000,2714.757213
20 Sep 2023 06:33:16.000,327.856,3.559,2346.901496
20 Sep 2023 06:34:16.000,333.161,7.700,1990.256281
20 Sep 2023 06:35:16.000,340.767,12.603,1657.210139
20 Sep 2023 06:36:16.000,352.272,18.337,1367.009179
20 Sep 2023 06:37:16.000,10.000,24.130,1154.119423
20 Sep 2023 06:38:16.000,34.515,27.132,1067.054910
20 Sep 2023 06:39:16.000,59.572,24.693,1135.621170
20 Sep 2023 06:40:16.000,78.184,19.012,1335.962607
20 Sep 2023 06:41:16.000,90.295,13.177,1619.394332
20 Sep 2023 06:42:16.000,98.238,8.154,1949.242969
20 Sep 2023 06:43:16.000,103.719,3.918,2304.725610
20 Sep 2023 06:44:16.000,107.704,0.271,2674.579339
20 Sep 2023 06:44:20.790,107.976,0.000,2704.516418
20 Sep 2023 08:11:45.293,306.005,0.000,2713.129659
20 Sep 2023 08:12:45.000,303.272,3.736,2328.156101
20 Sep 2023 08:13:45.000,299.336,8.192,1950.436002
20 Sep 2023 08:14:45.000,293.325,13.725,1590.435422
20 Sep 2023 08:15:45.000,283.379,20.813,1265.390583
20 Sep 2023 08:16:45.000,265.652,29.264,1011.449053
20 Sep 2023 08:17:45.000,236.060,34.960,892.836843
20 Sep 2023 08:18:45.000,203.972,31.410,961.455673
20 Sep 2023 08:19:45.000,183.141,22.995,1184.951644
20 Sep 2023 08:20:45.000,171.507,15.413,1494.731113
20 Sep 2023 08:21:45.000,164.611,9.487,1846.949175
20 Sep 2023 08:22:45.000,160.157,4.773,2220.402460
20 Sep 2023 08:23:45.000,157.066,0.852,2604.765280
20 Sep 2023 08:23:59.346,156.462,0.000,2697.618140
20 Sep 2023 09:56:02.447,247.187,0.000,2703.653329
20 Sep 2023 09:56:53.975,239.213,0.000,2702.287995
20 Sep 2023 22:04:20.677,181.638,0.000,2692.673556
20 Sep 2023 22:05:20.000,175.868,3.111,2370.253688
20 Sep 2023 22:06:20.000,168.211,6.443,2073.509778
20 Sep 2023 22:07:20.000,158.071,9.797,1822.312052
20 Sep 2023 22:08:20.000,144.931,12.705,1639.099709
20 Sep 2023 22:09:20.000,129.127,14.337,1549.167822
20 Sep 2023 22:10:20.000,112.501,13.992,1569.144089
20 Sep 2023 22:11:20.000,97.513,11.839,1695.188385
20 Sep 2023 22:12:20.000,85.476,8.718,1906.036591
20 Sep 2023 22:13:20.000,76.325,5.351,2176.561651
20 Sep 2023 22:14:20.000,69.438,2.081,2486.534126
20 Sep 2023 22:15:00.207,65.774,0.000,2709.165272
20 Sep 2023 23:42:29.929,233.233,0.000,2697.552323
20 Sep 2023 23:43:29.000,234.700,3.839,2305.433896
20 Sep 2023 23:44:29.000,236.784,8.586,1910.959289
20 Sep 2023 23:45:29.000,239.976,14.802,1525.418491
20 Sep 2023 23:46:29.000,245.570,23.751,1159.984731
20 Sep 2023 23:47:29.000,257.873,37.838,843.506440
20 Sep 2023 23:48:29.000,295.492,55.763,653.504524
20 Sep 2023 23:49:29.000,358.783,49.697,702.291663
20 Sep 2023 23:50:29.000,22.827,31.865,953.672786
20 Sep 2023 23:51:29.000,31.695,20.071,1293.849707
20 Sep 2023 23:52:29.000,36.177,12.374,1668.420616
20 Sep 2023 23:53:29.000,38.915,6.820,2057.573385
20 Sep 2023 23:54:29.000,40.801,2.451,2453.162428
20 Sep 2023 23:55:08.172,41.760,0.000,2712.931693
21 Sep 2023 01:23:55.327,280.384,0.000,2706.581180
21 Sep 2023 01:24:55.000,286.918,2.849,2408.907437
21 Sep 2023 01:25:55.000,295.223,5.754,2143.365795
21 Sep 2023 01:26:55.000,305.683,8.486,1926.840548
21 Sep 2023 01:27:55.000,318.440,10.624,1778.202359
21 Sep 2023 01:28:55.000,332.915,11.610,1715.713723
21 Sep 2023 01:29:55.000,347.658,11.098,1748.777307
21 Sep 2023 01:30:55.000,1.061,9.281,1872.125929
21 Sep 2023 01:31:55.000,12.255,6.698,2069.177083
21 Sep 2023 01:32:55.000,21.210,3.833,2320.513076
21 Sep 2023 01:33:55.000,28.298,0.959,2609.616976
21 Sep 2023 01:34:15.442,30.365,0.000,2714.452712
21 Sep 2023 03:06:37.423,319.781,0.000,2713.117562
21 Sep 2023 03:07:37.000,328.033,1.874,2512.867554
21 Sep 2023 03:08:37.000,337.578,3.406,2361.131902
21 Sep 2023 03:09:37.000,348.155,4.380,2270.156047
21 Sep 2023 03:10:37.000,359.278,4.630,2247.674920
21 Sep 2023 03:11:37.000,10.274,4.106,2295.773676
21 Sep 2023 03:12:37.000,20.516,2.909,2410.046894
21 Sep 2023 03:13:37.000,29.619,1.228,2581.316046
21 Sep 2023 03:14:15.098,34.747,0.000,2714.617314
21 Sep 2023 04:47:10.540,330.606,0.000,2714.716901
21 Sep 2023 04:48:10.000,337.788,2.516,2448.893224
21 Sep 2023 04:49:10.000,346.645,4.939,2220.092206
21 Sep 2023 04:50:10.000,357.294,7.005,2045.278266
21 Sep 2023 04:51:10.000,9.558,8.365,1939.924992
21 Sep 2023 04:52:10.000,22.702,8.684,1916.029184
21 Sep 2023 04:53:10.000,35.586,7.868,1976.715003
21 Sep 2023 04:54:10.000,47.195,6.140,2114.570858
21 Sep 2023 04:55:10.000,57.046,3.868,2315.453099
21 Sep 2023 04:56:10.000,65.146,1.361,2563.983648
21 Sep 2023 04:56:41.924,68.826,0.000,2710.966855
21 Sep 2023 06:26:18.873,321.878,0.000,2714.368158
21 Sep 2023 06:27:18.000,324.854,3.663,2336.664836
21 Sep 2023 06:28:18.000,328.994,8.065,1961.854481
21 Sep 2023 06:29:18.000,335.096,13.525,1603.607608
21 Sep 2023 06:30:18.000,344.911,20.532,1278.036905
21 Sep 2023 06:31:18.000,2.126,29.033,1018.979432
21 Sep 2023 06:32:18.000,31.254,35.331,888.261959
21 Sep 2023 06:33:18.000,64.316,32.477,941.654655
21 Sep 2023 06:34:18.000,86.412,24.058,1153.828166
21 Sep 2023 06:35:18.000,98.820,16.268,1456.478518
21 Sep 2023 06:36:18.000,106.202,10.179,1803.847327
21 Sep 2023 06:37:18.000,111.008,5.360,2173.631891
21 Sep 2023 06:38:18.000,114.382,1.372,2555.025874
21 Sep 2023 06:38:41.000,115.426,0.000,2703.011311
21 Sep 2023 08:06:00.114,301.829,0.000,2712.359194
21 Sep 2023 08:07:00.000,297.903,3.567,2343.359294
21 Sep 2023 08:08:00.000,292.422,7.669,1989.463834
21 Sep 2023 08:09:00.000,284.441,12.442,1663.336287
21 Sep 2023 08:10:00.000,272.392,17.809,1386.408487
21 Sep 2023 08:11:00.000,254.394,22.762,1194.782437
21 Sep 2023 08:12:00.000,231.023,24.661,1133.406423
21 Sep 2023 08:13:00.000,208.359,21.903,1222.212756
21 Sep 2023 08:14:00.000,191.586,16.683,1433.181398
21 Sep 2023 08:15:00.000,180.437,11.379,1721.252332
21 Sep 2023 08:16:00.000,172.987,6.733,2053.281286
21 Sep 2023 08:17:00.000,167.796,2.742,2410.066411
21 Sep 2023 08:17:46.539,164.765,0.000,2696.842577
21 Sep 2023 21:57:55.582,190.736,0.000,2692.774218
21 Sep 2023 21:58:55.000,186.112,3.426,2339.967132
21 Sep 2023 21:59:55.000,179.755,7.311,2003.789945
21 Sep 2023 22:00:55.000,170.795,11.643,1701.610164
21 Sep 2023 22:01:55.000,157.974,16.136,1456.441023
21 Sep 2023 22:02:55.000,140.378,19.690,1302.250543
21 Sep 2023 22:03:55.000,119.592,20.466,1273.346344
21 Sep 2023 22:04:55.000,100.216,17.929,1377.851198
21 Sep 2023 22:05:55.000,85.399,13.668,1589.400861
21 Sep 2023 22:06:55.000,74.988,9.214,1871.439497
21 Sep 2023 22:07:55.000,67.705,5.139,2196.139815
21 Sep 2023 22:08:55.000,62.472,1.511,2546.232703
21 Sep 2023 22:09:22.118,60.581,0.000,2709.872017
21 Sep 2023 23:36:42.776,240.729,0.000,2698.726122
21 Sep 2023 23:37:42.000,243.198,3.762,2313.753653
21 Sep 2023 23:38:42.000,246.688,8.334,1930.624206
21 Sep 2023 23:39:42.000,251.952,14.137,1561.517563
21 Sep 2023 23:40:42.000,260.763,21.932,1221.246617
21 Sep 2023 23:41:42.000,277.534,32.274,943.485707
21 Sep 2023 23:42:42.000,310.282,41.065,797.906197
21 Sep 2023 23:43:42.000,349.538,37.203,855.381692
21 Sep 2023 23:44:42.000,12.716,26.462,1083.796577
21 Sep 2023 23:45:42.000,24.381,17.509,1401.233261
21 Sep 2023 23:46:42.000,30.982,10.922,1759.206511
21 Sep 2023 23:47:42.000,35.197,5.873,2136.334521
21 Sep 2023 23:48:42.000,38.146,1.769,2522.840579
21 Sep 2023 23:49:11.249,39.294,0.000,2713.054199
22 Sep 2023 01:18:30.919,287.575,0.000,2707.758358
22 Sep 2023 01:19:30.000,294.516,2.614,2433.197759
22 Sep 2023 01:20:30.000,303.227,5.200,2192.270719
22 Sep 2023 01:21:30.000,313.861,7.478,2004.280183
22 Sep 2023 01:22:30.000,326.321,9.069,1885.851960
22 Sep 2023 01:23:30.000,339.890,9.574,1850.783157
22 Sep 2023 01:24:30.000,353.323,8.839,1903.732789
22 Sep 2023 01:25:30.000,5.446,7.088,2037.582584
22 Sep 2023 01:26:30.000,15.684,4.736,2237.335156
22 Sep 2023 01:27:30.000,24.041,2.138,2486.434790
22 Sep 2023 01:28:18.561,29.620,0.000,2714.360068
22 Sep 2023 03:01:04.377,323.639,0.000,2713.392775
22 Sep 2023 03:02:04.000,331.913,1.861,2514.364237
22 Sep 2023 03:03:04.000,341.464,3.375,2364.147265
22 Sep 2023 03:04:04.000,352.033,4.331,2274.720733
22 Sep 2023 03:05:04.000,3.132,4.563,2253.686145
22 Sep 2023 03:06:04.000,14.091,4.026,2302.999553
22 Sep 2023 03:07:04.000,24.292,2.823,2418.187452
22 Sep 2023 03:08:04.000,33.356,1.142,2590.080779
22 Sep 2023 03:08:39.545,38.137,0.000,2714.183372
22 Sep 2023 04:41:14.341,330.065,0.000,2714.522431
22 Sep 2023 04:42:14.000,336.835,2.726,2427.763060
22 Sep 2023 04:43:14.000,345.329,5.451,2174.748527
22 Sep 2023 04:44:14.000,355.844,7.936,1972.125755
22 Sep 2023 04:45:14.000,8.405,9.784,1837.621389
22 Sep 2023 04:46:14.000,22.370,10.522,1787.333456
22 Sep 2023 04:47:14.000,36.411,9.904,1828.509109
22 Sep 2023 04:48:14.000,49.154,8.134,1955.317398
22 Sep 2023 04:49:14.000,59.876,5.679,2152.324065
22 Sep 2023 04:50:14.000,68.546,2.952,2401.736719
22 Sep 2023 04:51:14.000,75.479,0.193,2688.254058
22 Sep 2023 04:51:18.252,75.915,0.000,2709.644541
22 Sep 2023 06:20:21.194,319.545,0.000,2713.960369
22 Sep 2023 06:21:21.000,321.606,3.816,2321.700087
22 Sep 2023 06:22:21.000,324.457,8.442,1933.113567
22 Sep 2023 06:23:21.000,328.740,14.397,1555.375960
22 Sep 2023 06:24:21.000,336.010,22.669,1201.060045
22 Sep 2023 06:25:21.000,350.732,34.647,900.603305
22 Sep 2023 06:26:21.000,25.344,47.305,726.327114
22 Sep 2023 06:27:21.000,73.901,43.300,770.255971
22 Sep 2023 06:28:21.000,98.992,29.554,1004.131466
22 Sep 2023 06:29:21.000,109.968,19.080,1330.815447
22 Sep 2023 06:30:21.000,115.777,11.826,1696.710284
22 Sep 2023 06:31:21.000,119.355,6.450,2080.223227
22 Sep 2023 06:32:21.000,121.794,2.165,2472.040014
22 Sep 2023 06:32:55.849,122.892,0.000,2701.506529
22 Sep 2023 08:00:18.576,297.041,0.000,2711.521479
22 Sep 2023 08:01:18.000,291.983,3.279,2369.979365
22 Sep 2023 08:02:18.000,285.112,6.898,2049.313309
22 Sep 2023 08:03:18.000,275.673,10.753,1767.736946
22 Sep 2023 08:04:18.000,262.756,14.453,1548.060822
22 Sep 2023 08:05:18.000,246.106,17.013,1420.256286
22 Sep 2023 08:06:18.000,227.492,17.213,1409.971997
22 Sep 2023 08:07:18.000,210.329,14.930,1519.525690
22 Sep 2023 08:08:18.000,196.769,11.308,1725.772568
22 Sep 2023 08:09:18.000,186.788,7.425,1998.234250
22 Sep 2023 08:10:18.000,179.508,3.753,2312.663063
22 Sep 2023 08:11:18.000,174.094,0.393,2653.075380
22 Sep 2023 08:11:25.391,173.525,0.000,2696.269570
22 Sep 2023 21:51:37.616,199.252,0.000,2693.113485
22 Sep 2023 21:52:37.000,195.806,3.649,2319.115532
22 Sep 2023 21:53:37.000,190.930,7.963,1953.670307
22 Sep 2023 21:54:37.000,183.687,13.165,1611.258056
22 Sep 2023 21:55:37.000,172.263,19.417,1312.033962
22 Sep 2023 21:56:37.000,153.784,25.911,1093.807760
22 Sep 2023 21:57:37.000,127.386,29.110,1011.642500
22 Sep 2023 21:58:37.000,101.080,25.871,1096.966692
22 Sep 2023 21:59:37.000,82.751,19.397,1317.424925
22 Sep 2023 22:00:37.000,71.447,13.180,1618.098857
22 Sep 2023 22:01:37.000,64.301,8.004,1961.585510
22 Sep 2023 22:02:37.000,59.517,3.706,2327.979998
22 Sep 2023 22:03:37.000,56.136,0.032,2706.849658
22 Sep 2023 22:03:37.555,56.110,0.000,2710.394402
22 Sep 2023 23:30:59.078,248.185,0.000,2699.995613
22 Sep 2023 23:31:59.000,251.627,3.683,2322.364289
22 Sep 2023 23:32:59.000,256.388,8.017,1955.477221
22 Sep 2023 23:33:59.000,263.381,13.289,1609.402281
22 Sep 2023 23:34:59.000,274.387,19.763,1302.631351
22 Sep 2023 23:35:59.000,292.525,26.866,1071.058429
22 Sep 2023 23:36:59.000,319.731,31.023,971.091791
22 Sep 2023 23:37:59.000,348.095,28.051,1041.598726
22 Sep 2023 23:38:59.000,7.910,21.135,1253.810001
22 Sep 2023 23:39:59.000,19.966,14.476,1549.880902
22 Sep 2023 23:40:59.000,27.557,9.016,1889.873147
22 Sep 2023 23:41:59.000,32.686,4.549,2252.906495
22 Sep 2023 23:42:59.000,36.386,0.773,2628.268959
22 Sep 2023 23:43:12.399,37.077,0.000,2713.129450
23 Sep 2023 01:13:07.097,294.561,0.000,2708.830083
23 Sep 2023 01:14:07.000,302.010,2.449,2450.651689
23 Sep 2023 01:15:07.000,311.058,4.738,2234.107711
23 Sep 2023 01:16:07.000,321.795,6.617,2073.744760
23 Sep 2023 01:17:07.000,333.949,7.759,1983.833952
23 Sep 2023 01:18:07.000,346.750,7.891,1974.305919
23 Sep 2023 01:19:07.000,359.139,6.978,2046.246920
23 Sep 2023 01:20:07.000,10.246,5.253,2191.327916
23 Sep 2023 01:21:07.000,19.693,3.047,2395.746838
23 Sep 2023 01:22:07.000,27.513,0.629,2645.049857
23 Sep 2023 01:22:22.295,29.273,0.000,2714.235733
23 Sep 2023 02:55:25.526,326.600,0.000,2713.573657
23 Sep 2023 02:56:25.000,334.803,1.894,2511.098958
23 Sep 2023 02:57:25.000,344.329,3.457,2356.323150
23 Sep 2023 02:58:25.000,354.916,4.468,2262.094217
23 Sep 2023 02:59:25.000,6.083,4.751,2236.466987
23 Sep 2023 03:00:25.000,17.152,4.251,2281.867490
23 Sep 2023 03:01:25.000,27.477,3.065,2394.112326
23 Sep 2023 03:02:25.000,36.658,1.383,2564.065432
23 Sep 2023 03:03:07.587,42.404,0.000,2713.613736
23 Sep 2023 04:35:15.808,329.156,0.000,2714.275963
23 Sep 2023 04:36:15.000,335.352,2.908,2409.518587
23 Sep 2023 04:37:15.000,343.344,5.957,2131.083151
23 Sep 2023 04:38:15.000,353.561,8.926,1898.208320
23 Sep 2023 04:39:15.000,6.314,11.398,1730.549086
23 Sep 2023 04:40:15.000,21.195,12.731,1648.951276
23 Sep 2023 04:41:15.000,36.713,12.425,1666.534479
23 Sep 2023 04:42:15.000,50.964,10.601,1780.397684
23 Sep 2023 04:43:15.000,62.821,7.875,1973.651459
23 Sep 2023 04:44:15.000,72.192,4.829,2225.154442
23 Sep 2023 04:45:15.000,79.499,1.790,2516.760014
23 Sep 2023 04:45:51.548,83.155,0.000,2708.210734
23 Sep 2023 06:14:23.622,316.960,0.000,2713.501950
23 Sep 2023 06:15:23.000,317.992,3.855,2317.571022
23 Sep 2023 06:16:23.000,319.399,8.610,1920.152134
23 Sep 2023 06:17:23.000,321.493,14.873,1529.725503
23 Sep 2023 06:18:23.000,325.119,24.046,1155.810995
23 Sep 2023 06:19:23.000,333.330,39.324,823.815853
23 Sep 2023 06:20:23.000,6.578,63.607,609.234244
23 Sep 2023 06:21:23.000,95.628,57.284,644.029439
23 Sep 2023 06:22:23.000,117.206,34.566,899.714533
23 Sep 2023 06:23:23.000,123.626,21.241,1246.545718
23 Sep 2023 06:24:23.000,126.687,12.990,1626.377462
23 Sep 2023 06:25:23.000,128.509,7.187,2019.636791
23 Sep 2023 06:26:23.000,129.739,2.686,2418.623510
23 Sep 2023 06:27:05.123,130.396,0.000,2700.107434
23 Sep 2023 07:54:42.431,291.419,0.000,2710.488294
23 Sep 2023 07:55:42.000,285.202,2.936,2402.203699
23 Sep 2023 07:56:42.000,277.118,5.956,2125.839991
23 Sep 2023 07:57:42.000,266.722,8.819,1899.972309
23 Sep 2023 07:58:42.000,253.818,11.064,1745.269798
23 Sep 2023 07:59:42.000,239.032,12.055,1682.046573
23 Sep 2023 08:00:42.000,224.008,11.412,1720.546364
23 Sep 2023 08:01:42.000,210.540,9.385,1854.178490
23 Sep 2023 08:02:42.000,199.512,6.602,2063.967722
23 Sep 2023 08:03:42.000,190.870,3.583,2328.606126
23 Sep 2023 08:04:42.000,184.159,0.598,2630.604983
23 Sep 2023 08:04:54.318,182.975,0.000,2696.010037
23 Sep 2023 20:10:46.377,138.273,0.000,2695.452792
23 Sep 2023 20:11:46.000,129.158,0.970,2591.280542
23 Sep 2023 20:12:46.000,119.440,1.395,2548.064740
23 Sep 2023 20:13:46.000,109.640,1.201,2570.098312
23 Sep 2023 20:14:46.000,100.248,0.420,2655.820116
23 Sep 2023 20:15:08.277,96.946,-0.000,2702.751440
23 Sep 2023 21:45:25.484,207.376,0.000,2693.698912
23 Sep 2023 21:46:25.000,205.100,3.809,2304.628124
23 Sep 2023 21:47:25.000,201.811,8.428,1919.243143
23 Sep 2023 21:48:25.000,196.721,14.318,1548.037287
23 Sep 2023 21:49:25.000,187.974,22.271,1206.399955
23 Sep 2023 21:50:25.000,170.890,32.838,929.702565
23 Sep 2023 21:51:25.000,137.179,41.431,791.037078
23 Sep 2023 21:52:25.000,98.192,36.759,860.600707
23 Sep 2023 21:53:25.000,76.110,25.825,1099.384748
23 Sep 2023 21:54:25.000,65.218,16.954,1424.063664
23 Sep 2023 21:55:25.000,59.184,10.453,1787.543712
23 Sep 2023 21:56:25.000,55.445,5.460,2169.343888
23 Sep 2023 21:57:25.000,52.934,1.390,2560.101924
23 Sep 2023 21:57:47.948,52.184,0.000,2710.832467
23 Sep 2023 23:25:18.587,255.615,0.000,2701.280520
23 Sep 2023 23:26:18.000,259.875,3.494,2341.507105
23 Sep 2023 23:27:18.000,265.709,7.525,1994.316382
23 Sep 2023 23:28:18.000,273.992,12.182,1675.112493
23 Sep 2023 23:29:18.000,286.187,17.364,1404.664334
23 Sep 2023 23:30:18.000,303.973,22.113,1217.170527
23 Sep 2023 23:31:18.000,326.777,24.038,1154.506282
23 Sep 2023 23:32:18.000,349.137,21.623,1235.915110
23 Sep 2023 23:33:18.000,6.133,16.738,1436.737892
23 Sep 2023 23:34:18.000,17.727,11.622,1714.826818
23 Sep 2023 23:35:18.000,25.648,7.070,2037.879438
23 Sep 2023 23:36:18.000,31.282,3.128,2386.646758
23 Sep 2023 23:37:11.963,35.104,0.000,2713.163045
24 Sep 2023 01:07:42.904,301.243,0.000,2709.767460
24 Sep 2023 01:08:42.000,308.898,2.235,2473.002921
24 Sep 2023 01:09:42.000,318.145,4.270,2277.292005
24 Sep 2023 01:10:42.000,328.863,5.833,2139.685104
24 Sep 2023 01:11:42.000,340.682,6.649,2072.293543
24 Sep 2023 01:12:42.000,352.842,6.534,2082.147367
24 Sep 2023 01:13:42.000,4.442,5.518,2168.099174
24 Sep 2023 01:14:42.000,14.810,3.822,2321.357144
24 Sep 2023 01:15:42.000,23.681,1.720,2529.147805
24 Sep 2023 01:16:27.264,29.405,0.000,2714.065418
24 Sep 2023 02:49:40.936,328.696,0.000,2713.622397
24 Sep 2023 02:50:40.000,336.726,1.965,2503.705809
24 Sep 2023 02:51:40.000,346.187,3.642,2338.604804
24 Sep 2023 02:52:40.000,356.809,4.782,2233.452687
24 Sep 2023 02:53:40.000,8.131,5.189,2197.323320
24 Sep 2023 02:54:40.000,19.452,4.777,2233.737112
24 Sep 2023 02:55:40.000,30.070,3.631,2339.208187
24 Sep 2023 02:56:40.000,39.525,1.951,2504.690689
24 Sep 2023 02:57:38.511,47.477,0.000,2712.907992
24 Sep 2023 04:29:15.433,327.933,0.000,2714.014320
24 Sep 2023 04:30:15.000,333.570,3.129,2387.684190
24 Sep 2023 04:31:15.000,340.954,6.512,2084.486805
24 Sep 2023 04:32:15.000,350.721,10.016,1821.238527
24 Sep 2023 04:33:15.000,3.539,13.251,1618.907387
24 Sep 2023 04:34:15.000,19.425,15.395,1503.330902
24 Sep 2023 04:35:15.000,36.829,15.543,1495.359431
24 Sep 2023 04:36:15.000,53.064,13.613,1596.746070
24 Sep 2023 04:37:15.000,66.334,10.454,1788.750122
24 Sep 2023 04:38:15.000,76.479,6.938,2045.481448
24 Sep 2023 04:39:15.000,84.126,3.512,2345.035641
24 Sep 2023 04:40:15.000,89.965,0.313,2672.154008
24 Sep 2023 04:40:21.137,90.483,0.000,2706.736187
24 Sep 2023 06:08:26.533,314.099,0.000,2713.004022
24 Sep 2023 06:09:26.000,314.065,3.884,2314.273001
24 Sep 2023 06:10:26.000,313.930,8.684,1914.094253
24 Sep 2023 06:11:26.000,313.613,15.050,1519.996763
24 Sep 2023 06:12:26.000,312.892,24.516,1140.734512
24 Sep 2023 06:13:26.000,310.908,40.964,800.343533
24 Sep 2023 06:14:26.000,298.162,72.448,575.285101
24 Sep 2023 06:15:26.000,147.343,62.979,611.407637
24 Sep 2023 06:16:26.000,140.675,35.816,876.966152
24 Sep 2023 06:17:26.000,139.154,21.653,1230.932425
24 Sep 2023 06:18:26.000,138.529,13.165,1615.320779
24 Sep 2023 06:19:26.000,138.215,7.273,2011.698133
24 Sep 2023 06:20:26.000,138.043,2.730,2412.979132
24 Sep 2023 06:21:08.578,137.968,0.000,2698.806441
24 Sep 2023 07:49:14.716,284.554,0.000,2709.200629
24 Sep 2023 07:50:14.000,277.283,2.456,2448.277383
24 Sep 2023 07:51:14.000,268.260,4.757,2228.795898
24 Sep 2023 07:52:14.000,257.477,6.603,2069.319942
24 Sep 2023 07:53:14.000,245.266,7.648,1984.939152
24 Sep 2023 07:54:14.000,232.496,7.623,1985.464778
24 Sep 2023 07:55:14.000,220.298,6.534,2070.693301
24 Sep 2023 07:56:14.000,209.529,4.658,2230.491565
24 Sep 2023 07:57:14.000,200.508,2.341,2449.619616
24 Sep 2023 07:58:10.414,193.536,0.000,2696.130689
24 Sep 2023 20:03:09.367,155.376,0.000,2693.374729
24 Sep 2023 20:04:09.000,147.070,1.913,2490.465599
24 Sep 2023 20:05:09.000,137.409,3.448,2340.245196
24 Sep 2023 20:06:09.000,126.697,4.370,2255.752851
24 Sep 2023 20:07:09.000,115.505,4.507,2244.932206
24 Sep 2023 20:08:09.000,104.584,3.829,2309.009417
24 Sep 2023 20:09:09.000,94.587,2.473,2441.987022
24 Sep 2023 20:10:09.000,85.866,0.653,2633.079531
24 Sep 2023 20:10:28.390,83.337,0.000,2705.230864
24 Sep 2023 21:39:18.369,215.230,0.000,2694.482410
24 Sep 2023 21:40:18.000,214.112,3.901,2296.656222
24 Sep 2023 21:41:18.000,212.463,8.701,1899.837861
24 Sep 2023 21:42:18.000,209.822,15.026,1511.470029
24 Sep 2023 21:43:18.000,204.976,24.245,1142.568795
24 Sep 2023 21:44:18.000,193.676,39.148,822.257252
24 Sep 2023 21:45:18.000,154.451,58.992,631.672283
24 Sep 2023 21:46:18.000,85.736,51.028,689.411713
24 Sep 2023 21:47:18.000,63.796,31.920,951.121193
24 Sep 2023 21:48:18.000,56.271,19.917,1298.187703
24 Sep 2023 21:49:18.000,52.657,12.192,1677.526603
24 Sep 2023 21:50:18.000,50.584,6.639,2070.379182
24 Sep 2023 21:51:18.000,49.268,2.275,2469.099303
24 Sep 2023 21:51:54.241,48.693,0.000,2711.131041
24 Sep 2023 23:19:41.010,263.021,0.000,2702.587340
24 Sep 2023 23:20:41.000,268.105,3.349,2356.627854
24 Sep 2023 23:21:41.000,274.878,7.057,2032.269299
24 Sep 2023 23:22:41.000,284.155,11.102,1743.223542
24 Sep 2023 23:23:41.000,296.973,15.163,1511.216150
24 Sep 2023 23:24:41.000,313.921,18.265,1366.593947
24 Sep 2023 23:25:41.000,333.516,18.950,1338.480954
24 Sep 2023 23:26:41.000,352.013,16.798,1433.730544
24 Sep 2023 23:27:41.000,6.698,13.025,1630.445326
24 Sep 2023 23:28:41.000,17.453,8.925,1896.609062
24 Sep 2023 23:29:41.000,25.261,5.070,2206.327183
24 Sep 2023 23:30:41.000,31.064,1.579,2542.693822
24 Sep 2023 23:31:10.275,33.375,0.000,2713.176057
25 Sep 2023 01:02:17.208,307.498,0.000,2710.572402
25 Sep 2023 01:03:17.000,315.493,2.102,2487.218752
25 Sep 2023 01:04:17.000,324.903,3.919,2310.438419
25 Sep 2023 01:05:17.000,335.597,5.218,2193.269438
25 Sep 2023 01:06:17.000,347.136,5.770,2145.923286
25 Sep 2023 01:07:17.000,358.786,5.459,2173.102978
25 Sep 2023 01:08:17.000,9.769,4.352,2271.992794
25 Sep 2023 01:09:17.000,19.555,2.661,2433.481710
25 Sep 2023 01:10:17.000,27.956,0.621,2645.548028
25 Sep 2023 01:10:34.176,30.111,0.000,2713.868061
25 Sep 2023 02:43:51.060,330.010,0.000,2713.588200
25 Sep 2023 02:44:51.000,337.988,2.119,2487.890160
25 Sep 2023 02:45:51.000,347.368,3.957,2308.779641
25 Sep 2023 02:46:51.000,358.052,5.283,2188.826866
25 Sep 2023 02:47:51.000,9.613,5.865,2138.540192
25 Sep 2023 02:48:51.000,21.317,5.577,2163.023021
25 Sep 2023 02:49:51.000,32.373,4.481,2259.802262
25 Sep 2023 02:50:51.000,42.230,2.788,2419.924277
25 Sep 2023 02:51:51.000,50.690,0.737,2631.346859
25 Sep 2023 02:52:11.225,53.232,0.000,2712.034604
25 Sep 2023 04:23:13.648,326.435,0.000,2713.711507
25 Sep 2023 04:24:13.000,331.366,3.307,2370.071802
25 Sep 2023 04:25:13.000,337.974,7.021,2042.806023
25 Sep 2023 04:26:13.000,347.025,11.103,1748.848351
25 Sep 2023 04:27:13.000,359.599,15.276,1509.364811
25 Sep 2023 04:28:13.000,16.447,18.598,1354.838986
25 Sep 2023 04:29:13.000,36.298,19.520,1316.347142
25 Sep 2023 04:30:13.000,55.310,17.447,1403.736251
25 Sep 2023 04:31:13.000,70.446,13.597,1596.282341
25 Sep 2023 04:32:13.000,81.469,9.374,1861.119514
25 Sep 2023 04:33:13.000,89.401,5.411,2171.210527
25 Sep 2023 04:34:13.000,95.239,1.838,2508.922540
25 Sep 2023 04:34:46.481,97.855,0.000,2705.188321
25 Sep 2023 06:02:30.366,310.930,0.000,2712.473082
25 Sep 2023 06:03:30.000,309.777,3.867,2315.263259
25 Sep 2023 06:04:30.000,308.037,8.605,1919.223830
25 Sep 2023 06:05:30.000,305.221,14.809,1531.817947
25 Sep 2023 06:06:30.000,300.070,23.749,1164.034037
25 Sep 2023 06:07:30.000,288.359,37.897,844.364252
25 Sep 2023 06:08:30.000,251.185,56.269,650.374575
25 Sep 2023 06:09:30.000,186.621,50.159,697.324881
25 Sep 2023 06:10:30.000,162.864,31.918,950.015372
25 Sep 2023 06:11:30.000,154.421,19.980,1292.325379
25 Sep 2023 06:12:30.000,150.313,12.229,1669.093898
25 Sep 2023 06:13:30.000,147.915,6.650,2060.415535
25 Sep 2023 06:14:30.000,146.352,2.265,2458.147736
25 Sep 2023 06:15:05.924,145.653,0.000,2697.627915
25 Sep 2023 07:44:01.993,275.529,0.000,2707.491702
25 Sep 2023 07:45:01.000,267.301,1.816,2511.538907
25 Sep 2023 07:46:01.000,257.682,3.253,2366.827896
25 Sep 2023 07:47:01.000,247.079,4.072,2287.981411
25 Sep 2023 07:48:01.000,236.061,4.120,2282.019027
25 Sep 2023 07:49:01.000,225.346,3.388,2349.373099
25 Sep 2023 07:50:01.000,215.538,2.014,2483.688835
25 Sep 2023 07:51:01.000,206.956,0.205,2674.267981
25 Sep 2023 07:51:07.229,206.139,0.000,2696.797624
25 Sep 2023 19:56:08.335,167.676,0.000,2692.442088
25 Sep 2023 19:57:08.000,160.359,2.532,2427.031831
25 Sep 2023 19:58:08.000,151.308,4.917,2203.901303
25 Sep 2023 19:59:08.000,140.437,6.869,2040.270093
25 Sep 2023 20:00:08.000,128.052,8.019,1952.041235
25 Sep 2023 20:01:08.000,115.042,8.066,1949.994484
25 Sep 2023 20:02:08.000,102.603,6.997,2034.534769
25 Sep 2023 20:03:08.000,91.656,5.099,2195.493106
25 Sep 2023 20:04:08.000,82.540,2.742,2417.187759
25 Sep 2023 20:05:08.000,75.153,0.205,2683.930393
25 Sep 2023 20:05:12.778,74.630,0.000,2706.700798
25 Sep 2023 21:33:15.724,222.901,0.000,2695.376264
25 Sep 2023 21:34:15.000,222.913,3.902,2297.456952
25 Sep 2023 21:35:15.000,222.892,8.751,1896.933585
25 Sep 2023 21:36:15.000,222.803,15.209,1502.713991
25 Sep 2023 21:37:15.000,222.548,24.879,1123.835919
25 Sep 2023 21:38:15.000,221.742,41.851,785.401912
25 Sep 2023 21:39:15.000,215.475,74.755,567.635320
25 Sep 2023 21:40:15.000,48.578,61.851,616.578592
25 Sep 2023 21:41:15.000,46.087,35.164,889.054411
25 Sep 2023 21:42:15.000,45.580,21.324,1245.476385
25 Sep 2023 21:43:15.000,45.439,12.989,1630.763804
25 Sep 2023 21:44:15.000,45.433,7.177,2027.412632
25 Sep 2023 21:45:15.000,45.493,2.681,2428.645594
25 Sep 2023 21:45:57.145,45.560,0.000,2711.412376
25 Sep 2023 23:14:06.003,270.392,0.000,2703.865742
25 Sep 2023 23:15:06.000,276.167,3.151,2376.894696
25 Sep 2023 23:16:06.000,283.696,6.518,2076.952335
25 Sep 2023 23:17:06.000,293.640,9.973,1818.840171
25 Sep 2023 23:18:06.000,306.608,13.100,1623.747674
25 Sep 2023 23:19:06.000,322.497,15.081,1516.948862
25 Sep 2023 23:20:06.000,339.667,15.084,1517.520076
25 Sep 2023 23:21:06.000,355.535,13.113,1625.236677
25 Sep 2023 23:22:06.000,8.482,10.003,1820.724532
25 Sep 2023 23:23:06.000,18.419,6.567,2078.656852
25 Sep 2023 23:24:06.000,25.958,3.218,2377.908489
25 Sep 2023 23:25:06.000,31.759,0.084,2703.773996
25 Sep 2023 23:25:07.673,31.902,0.000,2713.136489
26 Sep 2023 00:56:48.772,313.185,0.000,2711.213076
26 Sep 2023 00:57:48.000,321.268,1.960,2502.194778
26 Sep 2023 00:58:48.000,330.756,3.619,2339.111523
26 Sep 2023 00:59:48.000,341.387,4.737,2236.328866
26 Sep 2023 01:00:48.000,352.695,5.118,2202.680159
26 Sep 2023 01:01:48.000,3.976,4.687,2241.376483
26 Sep 2023 01:02:48.000,14.539,3.531,2348.675394
26 Sep 2023 01:03:48.000,23.938,1.849,2515.413719
26 Sep 2023 01:04:43.753,31.500,0.000,2713.601630
26 Sep 2023 02:37:56.581,330.650,0.000,2713.515374
26 Sep 2023 02:38:56.000,338.301,2.260,2473.508722
26 Sep 2023 02:39:56.000,347.511,4.317,2275.206241
26 Sep 2023 02:40:56.000,358.213,5.912,2134.396664
26 Sep 2023 02:41:56.000,10.054,6.765,2063.523293
26 Sep 2023 02:42:56.000,22.280,6.680,2070.118946
26 Sep 2023 02:43:56.000,33.974,5.678,2153.506479
26 Sep 2023 02:44:56.000,44.436,3.978,2305.130029
26 Sep 2023 02:45:56.000,53.382,1.861,2512.201012
26 Sep 2023 02:46:44.484,59.526,0.000,2711.029692
26 Sep 2023 04:17:10.824,324.683,0.000,2713.378413
26 Sep 2023 04:18:10.000,328.837,3.469,2354.142338
26 Sep 2023 04:19:10.000,334.514,7.496,2004.778714
26 Sep 2023 04:20:10.000,342.557,12.175,1681.581392
26 Sep 2023 04:21:10.000,354.442,17.458,1404.537310
26 Sep 2023 04:22:10.000,12.010,22.466,1207.413635
26 Sep 2023 04:23:10.000,35.078,24.745,1133.769898
26 Sep 2023 04:24:10.000,58.154,22.447,1206.850997
26 Sep 2023 04:25:10.000,75.732,17.415,1403.802751
26 Sep 2023 04:26:10.000,87.610,12.110,1681.142775
26 Sep 2023 04:27:10.000,95.629,7.413,2005.033084
26 Sep 2023 04:28:10.000,101.266,3.371,2355.418554
26 Sep 2023 04:29:07.188,105.247,0.000,2703.661848
26 Sep 2023 05:56:35.670,307.400,0.000,2711.824366
26 Sep 2023 05:57:35.000,305.110,3.759,2324.722894
26 Sep 2023 05:58:35.000,301.762,8.309,1940.468430
26 Sep 2023 05:59:35.000,296.570,14.063,1570.867646
26 Sep 2023 06:00:35.000,287.718,21.726,1231.312159
26 Sep 2023 06:01:35.000,270.830,31.691,956.398542
26 Sep 2023 06:02:35.000,238.705,39.725,815.893128
26 Sep 2023 06:03:35.000,201.252,35.754,877.499774
26 Sep 2023 06:04:35.000,178.878,25.468,1107.773906
26 Sep 2023 06:05:35.000,167.485,16.805,1426.606038
26 Sep 2023 06:06:35.000,161.074,10.362,1786.267197
26 Sep 2023 06:07:35.000,157.050,5.386,2165.410406
26 Sep 2023 06:08:35.000,154.307,1.320,2554.166614
26 Sep 2023 06:08:56.780,153.515,0.000,2696.593187
26 Sep 2023 07:39:28.111,260.852,0.000,2704.707312
26 Sep 2023 07:40:28.000,251.675,0.827,2612.721727
26 Sep 2023 07:41:28.000,242.035,1.093,2582.693380
26 Sep 2023 07:42:28.000,232.412,0.759,2616.955486
26 Sep 2023 07:43:21.028,224.288,0.000,2698.678989
26 Sep 2023 19:49:23.599,178.067,0.000,2692.088403
26 Sep 2023 19:50:23.000,171.868,2.976,2382.836275
26 Sep 2023 19:51:23.000,163.779,6.073,2103.617165
26 Sep 2023 19:52:23.000,153.334,9.050,1874.114167
26 Sep 2023 19:53:23.000,140.276,11.432,1715.632449
26 Sep 2023 19:54:23.000,125.209,12.538,1649.622974
26 Sep 2023 19:55:23.000,109.852,11.933,1687.377058
26 Sep 2023 19:56:23.000,96.126,9.869,1822.435833
26 Sep 2023 19:57:23.000,84.969,7.018,2035.150371
26 Sep 2023 19:58:23.000,76.307,3.934,2303.474688
26 Sep 2023 19:59:23.000,69.649,0.895,2609.481461
26 Sep 2023 19:59:41.210,67.944,0.000,2707.756457
26 Sep 2023 21:27:17.138,230.449,0.000,2696.433575
26 Sep 2023 21:28:17.000,231.549,3.917,2297.015707
26 Sep 2023 21:29:17.000,233.090,8.724,1899.785034
26 Sep 2023 21:30:17.000,235.453,15.075,1510.296880
26 Sep 2023 21:31:17.000,239.640,24.402,1138.815924
26 Sep 2023 21:32:17.000,249.294,39.855,812.829395
26 Sep 2023 21:33:17.000,287.031,62.668,612.174343
26 Sep 2023 21:34:17.000,7.248,54.372,663.391406
26 Sep 2023 21:35:17.000,28.359,33.230,925.346674
26 Sep 2023 21:36:17.000,35.177,20.579,1273.365792
26 Sep 2023 21:37:17.000,38.533,12.614,1653.008126
26 Sep 2023 21:38:17.000,40.577,6.952,2045.624580
26 Sep 2023 21:39:17.000,41.992,2.532,2443.750139
26 Sep 2023 21:39:57.181,42.736,0.000,2711.580937
26 Sep 2023 23:08:33.128,277.701,0.000,2705.109675
26 Sep 2023 23:09:33.000,284.064,2.937,2398.897603
26 Sep 2023 23:10:33.000,292.192,5.964,2124.134883
26 Sep 2023 23:11:33.000,302.558,8.878,1896.714117
26 Sep 2023 23:12:33.000,315.412,11.251,1736.273688
26 Sep 2023 23:13:33.000,330.260,12.455,1662.898521
26 Sep 2023 23:14:33.000,345.579,12.047,1688.164130
26 Sep 2023 23:15:33.000,359.548,10.192,1807.751510
26 Sep 2023 23:16:33.000,11.151,7.494,2004.359844
26 Sep 2023 23:17:33.000,20.346,4.503,2257.236566
26 Sep 2023 23:18:33.000,27.553,1.521,2548.806078
26 Sep 2023 23:19:04.536,30.709,0.000,2713.078310
27 Sep 2023 00:51:16.371,318.167,0.000,2711.678867
27 Sep 2023 00:52:16.000,326.412,1.892,2509.634576
27 Sep 2023 00:53:16.000,335.955,3.443,2356.165796
27 Sep 2023 00:54:16.000,346.550,4.439,2263.462014
27 Sep 2023 00:55:16.000,357.710,4.706,2239.429543
27 Sep 2023 00:56:16.000,8.755,4.194,2286.307859
27 Sep 2023 00:57:16.000,19.048,3.000,2399.760955
27 Sep 2023 00:58:16.000,28.196,1.317,2570.582192
27 Sep 2023 00:58:56.656,33.676,0.000,2713.295246
27 Sep 2023 02:31:58.258,330.729,0.000,2713.368203
27 Sep 2023 02:32:58.000,338.098,2.454,2453.735634
27 Sep 2023 02:33:58.000,347.082,4.768,2233.995009
27 Sep 2023 02:34:58.000,357.774,6.689,2069.496553
27 Sep 2023 02:35:58.000,9.935,7.885,1974.860791
27 Sep 2023 02:36:58.000,22.810,8.067,1960.682464
27 Sep 2023 02:37:58.000,35.323,7.183,2028.774914
27 Sep 2023 02:38:58.000,46.565,5.460,2171.239504
27 Sep 2023 02:39:58.000,56.124,3.236,2374.305262
27 Sep 2023 02:40:58.000,64.022,0.792,2623.317657
27 Sep 2023 02:41:17.055,66.219,0.000,2709.903891
27 Sep 2023 04:11:07.296,322.692,-0.000,2713.041340
27 Sep 2023 04:12:07.000,326.040,3.652,2336.287175
27 Sep 2023 04:13:07.000,330.647,7.970,1967.844875
27 Sep 2023 04:14:07.000,337.379,13.239,1618.607174
27 Sep 2023 04:15:07.000,347.977,19.780,1306.100492
27 Sep 2023 04:16:07.000,5.660,27.177,1065.053731
27 Sep 2023 04:17:07.000,33.047,31.926,952.765211
27 Sep 2023 04:18:07.000,62.537,29.175,1013.584490
27 Sep 2023 04:19:07.000,83.158,21.974,1221.855968
27 Sep 2023 04:20:07.000,95.498,15.020,1517.542172
27 Sep 2023 04:21:07.000,103.139,9.370,1858.607503
27 Sep 2023 04:22:07.000,108.230,4.785,2223.306295
27 Sep 2023 04:23:07.000,111.853,0.932,2600.632614
27 Sep 2023 04:23:22.931,112.647,0.000,2702.113294
27 Sep 2023 05:50:43.126,303.435,0.000,2711.146064
27 Sep 2023 05:51:43.000,299.947,3.642,2334.983685
27 Sep 2023 05:52:43.000,295.019,7.892,1971.149214
27 Sep 2023 05:53:43.000,287.705,12.973,1631.160491
27 Sep 2023 05:54:43.000,276.261,18.990,1335.183217
27 Sep 2023 05:55:43.000,258.058,25.107,1120.224986
