xian_to_starlink-1172_Access_AER.csv

"Time (UTCG)","Azimuth (deg)","Elevation (deg)","Range (km)"
14 Sep 2023 04:00:00.000,329.140,15.498,1517.981423
14 Sep 2023 04:00:05.000,329.618,16.109,1487.581606
14 Sep 2023 04:00:10.000,330.120,16.737,1457.360517
14 Sep 2023 04:00:15.000,330.644,17.384,1427.330408
14 Sep 2023 04:00:20.000,331.195,18.050,1397.504492
14 Sep 2023 04:00:25.000,331.773,18.737,1367.897019
14 Sep 2023 04:00:30.000,332.381,19.445,1338.523375
14 Sep 2023 04:00:35.000,333.021,20.176,1309.400182
14 Sep 2023 04:00:40.000,333.696,20.930,1280.545404
14 Sep 2023 04:00:45.000,334.408,21.708,1251.978473
14 Sep 2023 04:00:50.000,335.160,22.512,1223.720418
14 Sep 2023 04:00:55.000,335.957,23.342,1195.793991
14 Sep 2023 04:01:00.000,336.801,24.199,1168.223829
14 Sep 2023 04:01:05.000,337.696,25.085,1141.036598
14 Sep 2023 04:01:10.000,338.648,25.999,1114.261163
14 Sep 2023 04:01:15.000,339.662,26.944,1087.928751
14 Sep 2023 04:01:20.000,340.743,27.919,1062.073128
14 Sep 2023 04:01:25.000,341.897,28.924,1036.730769
14 Sep 2023 04:01:30.000,343.131,29.960,1011.941021
14 Sep 2023 04:01:35.000,344.454,31.026,987.746267
14 Sep 2023 04:01:40.000,345.873,32.122,964.192057
14 Sep 2023 04:01:45.000,347.397,33.246,941.327219
14 Sep 2023 04:01:50.000,349.037,34.395,919.203918
14 Sep 2023 04:01:55.000,350.804,35.567,897.877676
14 Sep 2023 04:02:00.000,352.710,36.758,877.407295
14 Sep 2023 04:02:05.000,354.766,37.962,857.854707
14 Sep 2023 04:02:10.000,356.987,39.171,839.284694
14 Sep 2023 04:02:15.000,359.386,40.379,821.764477
14 Sep 2023 04:02:20.000,1.975,41.574,805.363153
14 Sep 2023 04:02:25.000,4.768,42.744,790.150948
14 Sep 2023 04:02:30.000,7.774,43.875,776.198296
14 Sep 2023 04:02:35.000,11.001,44.950,763.574728
14 Sep 2023 04:02:40.000,14.453,45.952,752.347592
14 Sep 2023 04:02:45.000,18.126,46.861,742.580637
14 Sep 2023 04:02:50.000,22.010,47.659,734.332491
14 Sep 2023 04:02:55.000,26.085,48.325,727.655127
14 Sep 2023 04:03:00.000,30.324,48.843,722.592373
14 Sep 2023 04:03:05.000,34.688,49.197,719.178563
14 Sep 2023 04:03:10.000,39.131,49.378,717.437422
14 Sep 2023 04:03:15.000,43.601,49.380,717.381290
14 Sep 2023 04:03:20.000,48.046,49.201,719.010639
14 Sep 2023 04:03:25.000,52.413,48.849,722.314115
14 Sep 2023 04:03:30.000,56.657,48.333,727.268901
14 Sep 2023 04:03:35.000,60.739,47.668,733.841510
14 Sep 2023 04:03:40.000,64.630,46.871,741.988863
14 Sep 2023 04:03:45.000,68.311,45.961,751.659619
14 Sep 2023 04:03:50.000,71.770,44.958,762.795665
14 Sep 2023 04:03:55.000,75.005,43.881,775.333654
14 Sep 2023 04:04:00.000,78.019,42.748,789.206518
14 Sep 2023 04:04:05.000,80.818,41.575,804.344895
14 Sep 2023 04:04:10.000,83.414,40.376,820.678433
14 Sep 2023 04:04:15.000,85.818,39.165,838.136900
14 Sep 2023 04:04:20.000,88.045,37.951,856.651132
14 Sep 2023 04:04:25.000,90.106,36.743,876.153780
14 Sep 2023 04:04:30.000,92.016,35.549,896.579895
14 Sep 2023 04:04:35.000,93.786,34.372,917.867353
14 Sep 2023 04:04:40.000,95.430,33.219,939.957136
14 Sep 2023 04:04:45.000,96.957,32.091,962.793498
14 Sep 2023 04:04:50.000,98.378,30.991,986.324036
14 Sep 2023 04:04:55.000,99.702,29.920,1010.499695
14 Sep 2023 04:05:00.000,100.938,28.880,1035.274699
14 Sep 2023 04:05:05.000,102.093,27.871,1060.606443
14 Sep 2023 04:05:10.000,103.174,26.893,1086.455374
14 Sep 2023 04:05:15.000,104.188,25.945,1112.784812
14 Sep 2023 04:05:20.000,105.141,25.027,1139.560806
14 Sep 2023 04:05:25.000,106.036,24.138,1166.751951
14 Sep 2023 04:05:30.000,106.880,23.277,1194.329219
14 Sep 2023 04:05:35.000,107.675,22.444,1222.265789
14 Sep 2023 04:05:40.000,108.427,21.638,1250.536884
14 Sep 2023 04:05:45.000,109.138,20.857,1279.119612
14 Sep 2023 04:05:50.000,109.811,20.100,1307.992831
14 Sep 2023 04:05:55.000,110.450,19.368,1337.136998
14 Sep 2023 04:06:00.000,111.056,18.657,1366.534038
14 Sep 2023 04:06:05.000,111.633,17.968,1396.167236
14 Sep 2023 04:06:10.000,112.181,17.300,1426.021120
14 Sep 2023 04:06:15.000,112.704,16.651,1456.081357
14 Sep 2023 04:06:20.000,113.203,16.020,1486.334662
14 Sep 2023 04:06:25.000,113.680,15.408,1516.769033
14 Sep 2023 04:06:30.000,114.135,14.813,1547.372385
14 Sep 2023 04:06:35.000,114.571,14.233,1578.134405
14 Sep 2023 04:06:40.000,114.988,13.670,1609.045201
14 Sep 2023 04:06:45.000,115.388,13.120,1640.095574
14 Sep 2023 04:06:50.000,115.772,12.585,1671.276941
14 Sep 2023 04:06:55.000,116.141,12.064,1702.581298
14 Sep 2023 04:07:00.000,116.495,11.555,1734.001183
14 Sep 2023 04:07:05.000,116.836,11.058,1765.529609
14 Sep 2023 04:07:10.000,117.165,10.573,1797.160054
14 Sep 2023 04:07:15.000,117.481,10.099,1828.886399
14 Sep 2023 04:07:20.000,117.786,9.636,1860.702919
14 Sep 2023 04:07:25.000,118.080,9.183,1892.604236
14 Sep 2023 04:07:30.000,118.364,8.739,1924.585304
14 Sep 2023 04:07:35.000,118.639,8.305,1956.641383
14 Sep 2023 04:07:40.000,118.904,7.879,1988.768004
14 Sep 2023 04:07:45.000,119.161,7.462,2020.960966
14 Sep 2023 04:07:50.000,119.409,7.054,2053.216307
14 Sep 2023 04:07:55.000,119.650,6.652,2085.530293
14 Sep 2023 04:08:00.000,119.883,6.259,2117.899386
14 Sep 2023 04:08:05.000,120.109,5.872,2150.320251
14 Sep 2023 04:08:10.000,120.328,5.492,2182.789732
14 Sep 2023 04:08:15.000,120.541,5.119,2215.304836
14 Sep 2023 04:08:20.000,120.748,4.752,2247.862733
14 Sep 2023 04:08:25.000,120.949,4.391,2280.460727
14 Sep 2023 04:08:30.000,121.144,4.036,2313.096266
14 Sep 2023 04:08:35.000,121.334,3.687,2345.766924
14 Sep 2023 04:08:40.000,121.519,3.343,2378.470391
14 Sep 2023 04:08:45.000,121.699,3.004,2411.204468
14 Sep 2023 04:08:50.000,121.874,2.670,2443.967061
14 Sep 2023 04:08:55.000,122.045,2.340,2476.756172
14 Sep 2023 04:09:00.000,122.211,2.016,2509.569892
14 Sep 2023 04:09:05.000,122.374,1.695,2542.406402
14 Sep 2023 04:09:10.000,122.532,1.379,2575.263957
14 Sep 2023 04:09:15.000,122.686,1.067,2608.140892
14 Sep 2023 04:09:20.000,122.837,0.759,2641.035611
14 Sep 2023 04:09:25.000,122.984,0.455,2673.946582
14 Sep 2023 04:09:30.000,123.128,0.155,2706.872343
14 Sep 2023 04:09:32.595,123.201,0.000,2723.963686
14 Sep 2023 05:36:59.759,297.075,0.000,2734.708260
14 Sep 2023 05:37:04.000,296.762,0.224,2709.827939
14 Sep 2023 05:37:09.000,296.384,0.489,2680.590074
14 Sep 2023 05:37:14.000,295.997,0.757,2651.462026
14 Sep 2023 05:37:19.000,295.602,1.026,2622.448259
14 Sep 2023 05:37:24.000,295.197,1.298,2593.553399
14 Sep 2023 05:37:29.000,294.783,1.571,2564.782264
14 Sep 2023 05:37:34.000,294.359,1.847,2536.139858
14 Sep 2023 05:37:39.000,293.924,2.125,2507.631370
14 Sep 2023 05:37:44.000,293.480,2.404,2479.262211
14 Sep 2023 05:37:49.000,293.024,2.686,2451.037989
14 Sep 2023 05:37:54.000,292.558,2.970,2422.964548
14 Sep 2023 05:37:59.000,292.079,3.257,2395.047957
14 Sep 2023 05:38:04.000,291.589,3.545,2367.294524
14 Sep 2023 05:38:09.000,291.087,3.835,2339.710821
14 Sep 2023 05:38:14.000,290.572,4.128,2312.303673
14 Sep 2023 05:38:19.000,290.044,4.423,2285.080178
14 Sep 2023 05:38:24.000,289.503,4.720,2258.047723
14 Sep 2023 05:38:29.000,288.948,5.019,2231.213986
14 Sep 2023 05:38:34.000,288.378,5.320,2204.586955
14 Sep 2023 05:38:39.000,287.793,5.623,2178.174932
14 Sep 2023 05:38:44.000,287.194,5.929,2151.986552
14 Sep 2023 05:38:49.000,286.578,6.236,2126.030792
14 Sep 2023 05:38:54.000,285.947,6.545,2100.316973
14 Sep 2023 05:38:59.000,285.298,6.856,2074.854788
14 Sep 2023 05:39:04.000,284.633,7.169,2049.654305
14 Sep 2023 05:39:09.000,283.949,7.484,2024.725973
14 Sep 2023 05:39:14.000,283.247,7.800,2000.080634
14 Sep 2023 05:39:19.000,282.527,8.118,1975.729549
14 Sep 2023 05:39:24.000,281.787,8.436,1951.684381
14 Sep 2023 05:39:29.000,281.027,8.757,1927.957219
14 Sep 2023 05:39:34.000,280.247,9.078,1904.560582
14 Sep 2023 05:39:39.000,279.445,9.399,1881.507429
14 Sep 2023 05:39:44.000,278.622,9.722,1858.811145
14 Sep 2023 05:39:49.000,277.777,10.044,1836.485566
14 Sep 2023 05:39:54.000,276.909,10.367,1814.544971
14 Sep 2023 05:39:59.000,276.018,10.690,1793.004067
14 Sep 2023 05:40:04.000,275.104,11.011,1771.877998
14 Sep 2023 05:40:09.000,274.165,11.332,1751.182333
14 Sep 2023 05:40:14.000,273.201,11.652,1730.933051
14 Sep 2023 05:40:19.000,272.212,11.969,1711.146525
14 Sep 2023 05:40:24.000,271.198,12.285,1691.839510
14 Sep 2023 05:40:29.000,270.158,12.597,1673.029097
14 Sep 2023 05:40:34.000,269.091,12.907,1654.732714
14 Sep 2023 05:40:39.000,267.998,13.212,1636.968059
14 Sep 2023 05:40:44.000,266.879,13.513,1619.753082
14 Sep 2023 05:40:49.000,265.733,13.809,1603.105928
14 Sep 2023 05:40:54.000,264.559,14.099,1587.044878
14 Sep 2023 05:40:59.000,263.359,14.383,1571.588309
14 Sep 2023 05:41:04.000,262.133,14.660,1556.754605
14 Sep 2023 05:41:09.000,260.880,14.928,1542.562098
14 Sep 2023 05:41:14.000,259.600,15.188,1529.028989
14 Sep 2023 05:41:19.000,258.296,15.438,1516.173263
14 Sep 2023 05:41:24.000,256.966,15.678,1504.012593
14 Sep 2023 05:41:29.000,255.612,15.907,1492.564250
14 Sep 2023 05:41:34.000,254.234,16.123,1481.845009
14 Sep 2023 05:41:39.000,252.834,16.327,1471.871044
14 Sep 2023 05:41:44.000,251.412,16.518,1462.657818
14 Sep 2023 05:41:49.000,249.970,16.693,1454.219988
14 Sep 2023 05:41:54.000,248.510,16.854,1446.571297
14 Sep 2023 05:41:59.000,247.032,16.999,1439.724474
14 Sep 2023 05:42:04.000,245.539,17.127,1433.691140
14 Sep 2023 05:42:09.000,244.031,17.239,1428.481704
14 Sep 2023 05:42:14.000,242.512,17.332,1424.105293
14 Sep 2023 05:42:19.000,240.983,17.408,1420.569658
14 Sep 2023 05:42:24.000,239.447,17.465,1417.881120
14 Sep 2023 05:42:29.000,237.904,17.504,1416.044523
14 Sep 2023 05:42:34.000,236.358,17.523,1415.063158
14 Sep 2023 05:42:39.000,234.810,17.524,1414.938771
14 Sep 2023 05:42:44.000,233.263,17.505,1415.671519
14 Sep 2023 05:42:49.000,231.720,17.468,1417.260001
14 Sep 2023 05:42:54.000,230.181,17.412,1419.701216
14 Sep 2023 05:42:59.000,228.650,17.337,1422.990644
14 Sep 2023 05:43:04.000,227.128,17.244,1427.122257
14 Sep 2023 05:43:09.000,225.618,17.134,1432.088586
14 Sep 2023 05:43:14.000,224.121,17.006,1437.880771
14 Sep 2023 05:43:19.000,222.639,16.862,1444.488650
14 Sep 2023 05:43:24.000,221.174,16.702,1451.900833
14 Sep 2023 05:43:29.000,219.727,16.526,1460.104800
14 Sep 2023 05:43:34.000,218.300,16.337,1469.086987
14 Sep 2023 05:43:39.000,216.894,16.133,1478.832898
14 Sep 2023 05:43:44.000,215.510,15.916,1489.327200
14 Sep 2023 05:43:49.000,214.149,15.688,1500.553837
14 Sep 2023 05:43:54.000,212.812,15.448,1512.496121
14 Sep 2023 05:43:59.000,211.501,15.197,1525.136843
14 Sep 2023 05:44:04.000,210.214,14.937,1538.458371
14 Sep 2023 05:44:09.000,208.954,14.668,1552.442746
14 Sep 2023 05:44:14.000,207.720,14.391,1567.071766
14 Sep 2023 05:44:19.000,206.512,14.107,1582.327086
14 Sep 2023 05:44:24.000,205.331,13.816,1598.190285
14 Sep 2023 05:44:29.000,204.177,13.519,1614.642939
14 Sep 2023 05:44:34.000,203.049,13.217,1631.666702
14 Sep 2023 05:44:39.000,201.948,12.910,1649.243354
14 Sep 2023 05:44:44.000,200.874,12.600,1667.354863
14 Sep 2023 05:44:49.000,199.826,12.286,1685.983428
14 Sep 2023 05:44:54.000,198.803,11.970,1705.111528
14 Sep 2023 05:44:59.000,197.806,11.651,1724.721952
14 Sep 2023 05:45:04.000,196.834,11.330,1744.797835
14 Sep 2023 05:45:09.000,195.887,11.008,1765.322684
14 Sep 2023 05:45:14.000,194.964,10.685,1786.280394
14 Sep 2023 05:45:19.000,194.065,10.361,1807.655275
14 Sep 2023 05:45:24.000,193.189,10.037,1829.432054
14 Sep 2023 05:45:29.000,192.335,9.713,1851.595893
14 Sep 2023 05:45:34.000,191.504,9.390,1874.132390
14 Sep 2023 05:45:39.000,190.695,9.067,1897.027585
14 Sep 2023 05:45:44.000,189.906,8.744,1920.267961
14 Sep 2023 05:45:49.000,189.138,8.423,1943.840439
14 Sep 2023 05:45:54.000,188.390,8.103,1967.732378
14 Sep 2023 05:45:59.000,187.661,7.784,1991.931569
14 Sep 2023 05:46:04.000,186.951,7.467,2016.426228
14 Sep 2023 05:46:09.000,186.260,7.151,2041.204989
14 Sep 2023 05:46:14.000,185.586,6.837,2066.256893
14 Sep 2023 05:46:19.000,184.930,6.525,2091.571383
14 Sep 2023 05:46:24.000,184.290,6.214,2117.138288
14 Sep 2023 05:46:29.000,183.666,5.906,2142.947817
14 Sep 2023 05:46:34.000,183.058,5.600,2168.990544
14 Sep 2023 05:46:39.000,182.466,5.295,2195.257401
14 Sep 2023 05:46:44.000,181.888,4.993,2221.739663
14 Sep 2023 05:46:49.000,181.325,4.693,2248.428938
14 Sep 2023 05:46:54.000,180.775,4.395,2275.317156
14 Sep 2023 05:46:59.000,180.239,4.100,2302.396555
14 Sep 2023 05:47:04.000,179.716,3.806,2329.659672
14 Sep 2023 05:47:09.000,179.205,3.515,2357.099332
14 Sep 2023 05:47:14.000,178.707,3.226,2384.708635
14 Sep 2023 05:47:19.000,178.221,2.939,2412.480948
14 Sep 2023 05:47:24.000,177.746,2.654,2440.409892
14 Sep 2023 05:47:29.000,177.282,2.371,2468.489331
14 Sep 2023 05:47:34.000,176.829,2.091,2496.713369
14 Sep 2023 05:47:39.000,176.386,1.813,2525.076329
14 Sep 2023 05:47:44.000,175.954,1.537,2553.572755
14 Sep 2023 05:47:49.000,175.531,1.263,2582.197395
14 Sep 2023 05:47:54.000,175.118,0.990,2610.945198
14 Sep 2023 05:47:59.000,174.713,0.721,2639.811302
14 Sep 2023 05:48:04.000,174.318,0.453,2668.791026
14 Sep 2023 05:48:09.000,173.932,0.187,2697.879865
14 Sep 2023 05:48:12.525,173.664,0.000,2718.452212
14 Sep 2023 19:29:52.433,200.555,0.000,2715.684746
14 Sep 2023 19:29:57.000,200.340,0.265,2686.514042
14 Sep 2023 19:30:02.000,200.100,0.558,2654.614344
14 Sep 2023 19:30:07.000,199.853,0.853,2622.758932
14 Sep 2023 19:30:12.000,199.600,1.153,2590.950374
14 Sep 2023 19:30:17.000,199.341,1.455,2559.191350
14 Sep 2023 19:30:22.000,199.075,1.762,2527.484658
14 Sep 2023 19:30:27.000,198.802,2.072,2495.833225
14 Sep 2023 19:30:32.000,198.522,2.385,2464.240107
14 Sep 2023 19:30:37.000,198.234,2.703,2432.708507
14 Sep 2023 19:30:42.000,197.938,3.025,2401.241775
14 Sep 2023 19:30:47.000,197.635,3.351,2369.843419
14 Sep 2023 19:30:52.000,197.322,3.681,2338.517118
14 Sep 2023 19:30:57.000,197.001,4.015,2307.266730
14 Sep 2023 19:31:02.000,196.671,4.354,2276.096300
14 Sep 2023 19:31:07.000,196.331,4.698,2245.010081
14 Sep 2023 19:31:12.000,195.981,5.047,2214.012533
14 Sep 2023 19:31:17.000,195.620,5.401,2183.108351
14 Sep 2023 19:31:22.000,195.248,5.760,2152.302468
14 Sep 2023 19:31:27.000,194.865,6.125,2121.600077
14 Sep 2023 19:31:32.000,194.470,6.495,2091.006642
14 Sep 2023 19:31:37.000,194.063,6.871,2060.527924
14 Sep 2023 19:31:42.000,193.642,7.252,2030.169991
14 Sep 2023 19:31:47.000,193.208,7.640,1999.939243
14 Sep 2023 19:31:52.000,192.759,8.034,1969.842432
14 Sep 2023 19:31:57.000,192.296,8.435,1939.886684
14 Sep 2023 19:32:02.000,191.816,8.842,1910.079527
14 Sep 2023 19:32:07.000,191.320,9.256,1880.428911
14 Sep 2023 19:32:12.000,190.807,9.678,1850.943241
14 Sep 2023 19:32:17.000,190.276,10.106,1821.631406
14 Sep 2023 19:32:22.000,189.725,10.542,1792.502805
14 Sep 2023 19:32:27.000,189.155,10.986,1763.567387
14 Sep 2023 19:32:32.000,188.563,11.437,1734.835681
14 Sep 2023 19:32:37.000,187.950,11.897,1706.318836
14 Sep 2023 19:32:42.000,187.313,12.365,1678.028659
14 Sep 2023 19:32:47.000,186.652,12.841,1649.977655
14 Sep 2023 19:32:52.000,185.965,13.325,1622.179073
14 Sep 2023 19:32:57.000,185.251,13.819,1594.646947
14 Sep 2023 19:33:02.000,184.509,14.320,1567.396145
14 Sep 2023 19:33:07.000,183.737,14.831,1540.442417
14 Sep 2023 19:33:12.000,182.933,15.351,1513.802440
14 Sep 2023 19:33:17.000,182.097,15.879,1487.493877
14 Sep 2023 19:33:22.000,181.225,16.416,1461.535416
14 Sep 2023 19:33:27.000,180.317,16.962,1435.946830
14 Sep 2023 19:33:32.000,179.370,17.516,1410.749019
14 Sep 2023 19:33:37.000,178.382,18.078,1385.964061
14 Sep 2023 19:33:42.000,177.352,18.648,1361.615251
14 Sep 2023 19:33:47.000,176.277,19.225,1337.727146
14 Sep 2023 19:33:52.000,175.156,19.809,1314.325594
14 Sep 2023 19:33:57.000,173.985,20.399,1291.437758
14 Sep 2023 19:34:02.000,172.762,20.994,1269.092131
14 Sep 2023 19:34:07.000,171.486,21.593,1247.318540
14 Sep 2023 19:34:12.000,170.154,22.195,1226.148125
14 Sep 2023 19:34:17.000,168.763,22.798,1205.613315
14 Sep 2023 19:34:22.000,167.312,23.401,1185.747762
14 Sep 2023 19:34:27.000,165.798,24.002,1166.586274
14 Sep 2023 19:34:32.000,164.219,24.598,1148.164694
14 Sep 2023 19:34:37.000,162.574,25.187,1130.519765
14 Sep 2023 19:34:42.000,160.862,25.767,1113.688954
14 Sep 2023 19:34:47.000,159.081,26.335,1097.710237
14 Sep 2023 19:34:52.000,157.230,26.887,1082.621847
14 Sep 2023 19:34:57.000,155.311,27.420,1068.461980
14 Sep 2023 19:35:02.000,153.322,27.931,1055.268466
14 Sep 2023 19:35:07.000,151.266,28.415,1043.078399
14 Sep 2023 19:35:12.000,149.144,28.869,1031.927735
14 Sep 2023 19:35:17.000,146.959,29.288,1021.850868
14 Sep 2023 19:35:22.000,144.716,29.670,1012.880180
14 Sep 2023 19:35:27.000,142.419,30.010,1005.045595
14 Sep 2023 19:35:32.000,140.073,30.304,998.374129
14 Sep 2023 19:35:37.000,137.684,30.551,992.889468
14 Sep 2023 19:35:42.000,135.262,30.745,988.611568
14 Sep 2023 19:35:47.000,132.812,30.887,985.556311
14 Sep 2023 19:35:52.000,130.344,30.973,983.735226
14 Sep 2023 19:35:57.000,127.868,31.003,983.155281
14 Sep 2023 19:36:02.000,125.391,30.976,983.818725
14 Sep 2023 19:36:07.000,122.924,30.894,985.723077
14 Sep 2023 19:36:12.000,120.475,30.756,988.861160
14 Sep 2023 19:36:17.000,118.053,30.564,993.221242
14 Sep 2023 19:36:22.000,115.666,30.322,998.787242
14 Sep 2023 19:36:27.000,113.321,30.030,1005.539030
14 Sep 2023 19:36:32.000,111.025,29.694,1013.452764
14 Sep 2023 19:36:37.000,108.783,29.316,1022.501288
14 Sep 2023 19:36:42.000,106.601,28.900,1032.654570
14 Sep 2023 19:36:47.000,104.481,28.449,1043.880132
14 Sep 2023 19:36:52.000,102.427,27.969,1056.143522
14 Sep 2023 19:36:57.000,100.440,27.461,1069.408738
14 Sep 2023 19:37:02.000,98.523,26.932,1083.638664
14 Sep 2023 19:37:07.000,96.675,26.383,1098.795472
14 Sep 2023 19:37:12.000,94.896,25.818,1114.840981
14 Sep 2023 19:37:17.000,93.186,25.242,1131.736991
14 Sep 2023 19:37:22.000,91.544,24.655,1149.445567
14 Sep 2023 19:37:27.000,89.968,24.062,1167.929305
14 Sep 2023 19:37:32.000,88.457,23.464,1187.151522
14 Sep 2023 19:37:37.000,87.009,22.864,1207.076457
14 Sep 2023 19:37:42.000,85.621,22.264,1227.669376
14 Sep 2023 19:37:47.000,84.292,21.665,1248.896710
14 Sep 2023 19:37:52.000,83.019,21.068,1270.726120
14 Sep 2023 19:37:57.000,81.799,20.476,1293.126548
14 Sep 2023 19:38:02.000,80.632,19.888,1316.068255
14 Sep 2023 19:38:07.000,79.513,19.306,1339.522836
14 Sep 2023 19:38:12.000,78.442,18.731,1363.463213
14 Sep 2023 19:38:17.000,77.415,18.164,1387.863621
14 Sep 2023 19:38:22.000,76.431,17.603,1412.699586
14 Sep 2023 19:38:27.000,75.488,17.051,1437.947888
14 Sep 2023 19:38:32.000,74.583,16.508,1463.586522
14 Sep 2023 19:38:37.000,73.715,15.972,1489.594666
14 Sep 2023 19:38:42.000,72.882,15.446,1515.952611
14 Sep 2023 19:38:47.000,72.082,14.928,1542.641735
14 Sep 2023 19:38:52.000,71.314,14.419,1569.644441
14 Sep 2023 19:38:57.000,70.576,13.918,1596.944107
14 Sep 2023 19:39:02.000,69.866,13.426,1624.525040
14 Sep 2023 19:39:07.000,69.183,12.943,1652.372426
14 Sep 2023 19:39:12.000,68.526,12.468,1680.472276
14 Sep 2023 19:39:17.000,67.894,12.002,1708.811396
14 Sep 2023 19:39:22.000,67.285,11.543,1737.377623
14 Sep 2023 19:39:27.000,66.698,11.093,1766.158591
14 Sep 2023 19:39:32.000,66.132,10.650,1795.143485
14 Sep 2023 19:39:37.000,65.586,10.215,1824.321821
14 Sep 2023 19:39:42.000,65.060,9.788,1853.683678
14 Sep 2023 19:39:47.000,64.551,9.367,1883.219692
14 Sep 2023 19:39:52.000,64.060,8.954,1912.921005
14 Sep 2023 19:39:57.000,63.586,8.548,1942.779243
14 Sep 2023 19:40:02.000,63.127,8.148,1972.786480
14 Sep 2023 19:40:07.000,62.684,7.754,2002.935216
14 Sep 2023 19:40:12.000,62.255,7.367,2033.218349
14 Sep 2023 19:40:17.000,61.839,6.986,2063.629148
14 Sep 2023 19:40:22.000,61.437,6.611,2094.161236
14 Sep 2023 19:40:27.000,61.048,6.241,2124.808564
14 Sep 2023 19:40:32.000,60.670,5.878,2155.565390
14 Sep 2023 19:40:37.000,60.305,5.519,2186.426270
14 Sep 2023 19:40:42.000,59.950,5.166,2217.386028
14 Sep 2023 19:40:47.000,59.605,4.817,2248.439741
14 Sep 2023 19:40:52.000,59.271,4.474,2279.582739
14 Sep 2023 19:40:57.000,58.947,4.135,2310.810569
14 Sep 2023 19:41:02.000,58.632,3.801,2342.118992
14 Sep 2023 19:41:07.000,58.326,3.471,2373.503980
14 Sep 2023 19:41:12.000,58.029,3.145,2404.961681
14 Sep 2023 19:41:17.000,57.740,2.824,2436.488436
14 Sep 2023 19:41:22.000,57.458,2.507,2468.080740
14 Sep 2023 19:41:27.000,57.185,2.193,2499.735258
14 Sep 2023 19:41:32.000,56.919,1.883,2531.448795
14 Sep 2023 19:41:37.000,56.659,1.577,2563.218306
14 Sep 2023 19:41:42.000,56.407,1.275,2595.040871
14 Sep 2023 19:41:47.000,56.161,0.976,2626.913700
14 Sep 2023 19:41:52.000,55.922,0.680,2658.834127
14 Sep 2023 19:41:57.000,55.689,0.388,2690.799584
14 Sep 2023 19:42:02.000,55.461,0.098,2722.807622
14 Sep 2023 19:42:03.707,55.385,0.000,2733.746992
14 Sep 2023 21:09:30.105,249.164,0.000,2722.900794
14 Sep 2023 21:09:35.000,249.416,0.281,2691.963767
14 Sep 2023 21:09:40.000,249.678,0.570,2660.407485
14 Sep 2023 21:09:45.000,249.947,0.863,2628.898349
14 Sep 2023 21:09:50.000,250.222,1.159,2597.438921
14 Sep 2023 21:09:55.000,250.503,1.458,2566.031886
14 Sep 2023 21:10:00.000,250.792,1.760,2534.680032
14 Sep 2023 21:10:05.000,251.087,2.066,2503.386285
14 Sep 2023 21:10:10.000,251.390,2.376,2472.153693
14 Sep 2023 21:10:15.000,251.700,2.689,2440.985441
14 Sep 2023 21:10:20.000,252.018,3.007,2409.884873
14 Sep 2023 21:10:25.000,252.345,3.328,2378.855474
14 Sep 2023 21:10:30.000,252.680,3.654,2347.900907
14 Sep 2023 21:10:35.000,253.024,3.983,2317.025001
14 Sep 2023 21:10:40.000,253.377,4.317,2286.231774
14 Sep 2023 21:10:45.000,253.740,4.656,2255.525433
14 Sep 2023 21:10:50.000,254.114,4.999,2224.910410
14 Sep 2023 21:10:55.000,254.497,5.347,2194.391344
14 Sep 2023 21:11:00.000,254.892,5.700,2163.973112
14 Sep 2023 21:11:05.000,255.298,6.058,2133.660842
14 Sep 2023 21:11:10.000,255.716,6.422,2103.459923
14 Sep 2023 21:11:15.000,256.146,6.791,2073.376036
14 Sep 2023 21:11:20.000,256.589,7.165,2043.415150
14 Sep 2023 21:11:25.000,257.046,7.545,2013.583556
14 Sep 2023 21:11:30.000,257.517,7.931,1983.887881
14 Sep 2023 21:11:35.000,258.003,8.324,1954.335117
14 Sep 2023 21:11:40.000,258.505,8.722,1924.932626
14 Sep 2023 21:11:45.000,259.023,9.127,1895.688185
14 Sep 2023 21:11:50.000,259.558,9.539,1866.609999
14 Sep 2023 21:11:55.000,260.111,9.957,1837.706737
14 Sep 2023 21:12:00.000,260.682,10.383,1808.987540
14 Sep 2023 21:12:05.000,261.273,10.815,1780.462081
14 Sep 2023 21:12:10.000,261.885,11.255,1752.140578
14 Sep 2023 21:12:15.000,262.518,11.702,1724.033828
14 Sep 2023 21:12:20.000,263.174,12.157,1696.153243
14 Sep 2023 21:12:25.000,263.853,12.619,1668.510901
14 Sep 2023 21:12:30.000,264.558,13.090,1641.119563
14 Sep 2023 21:12:35.000,265.288,13.568,1613.992728
14 Sep 2023 21:12:40.000,266.046,14.054,1587.144666
14 Sep 2023 21:12:45.000,266.833,14.548,1560.590468
14 Sep 2023 21:12:50.000,267.651,15.051,1534.346081
14 Sep 2023 21:12:55.000,268.500,15.561,1508.428358
14 Sep 2023 21:13:00.000,269.383,16.079,1482.855105
14 Sep 2023 21:13:05.000,270.300,16.605,1457.645104
14 Sep 2023 21:13:10.000,271.255,17.138,1432.818188
14 Sep 2023 21:13:15.000,272.248,17.678,1408.395249
14 Sep 2023 21:13:20.000,273.281,18.226,1384.398292
14 Sep 2023 21:13:25.000,274.357,18.780,1360.850466
14 Sep 2023 21:13:30.000,275.478,19.339,1337.776085
14 Sep 2023 21:13:35.000,276.645,19.904,1315.200653
14 Sep 2023 21:13:40.000,277.860,20.473,1293.150874
14 Sep 2023 21:13:45.000,279.126,21.046,1271.654635
14 Sep 2023 21:13:50.000,280.444,21.621,1250.741021
14 Sep 2023 21:13:55.000,281.817,22.196,1230.440258
14 Sep 2023 21:14:00.000,283.246,22.771,1210.783664
14 Sep 2023 21:14:05.000,284.733,23.344,1191.803596
14 Sep 2023 21:14:10.000,286.281,23.913,1173.533342
14 Sep 2023 21:14:15.000,287.890,24.475,1156.006992
14 Sep 2023 21:14:20.000,289.562,25.028,1139.259296
14 Sep 2023 21:14:25.000,291.297,25.570,1123.325469
14 Sep 2023 21:14:30.000,293.096,26.098,1108.240988
14 Sep 2023 21:14:35.000,294.960,26.609,1094.041328
14 Sep 2023 21:14:40.000,296.887,27.099,1080.761679
14 Sep 2023 21:14:45.000,298.877,27.566,1068.436641
14 Sep 2023 21:14:50.000,300.928,28.005,1057.099862
14 Sep 2023 21:14:55.000,303.037,28.414,1046.783688
14 Sep 2023 21:15:00.000,305.203,28.789,1037.518761
14 Sep 2023 21:15:05.000,307.419,29.127,1029.333647
14 Sep 2023 21:15:10.000,309.682,29.424,1022.254426
14 Sep 2023 21:15:15.000,311.987,29.678,1016.304317
14 Sep 2023 21:15:20.000,314.327,29.885,1011.503326
14 Sep 2023 21:15:25.000,316.694,30.045,1007.867920
14 Sep 2023 21:15:30.000,319.083,30.154,1005.410761
14 Sep 2023 21:15:35.000,321.484,30.212,1004.140462
14 Sep 2023 21:15:40.000,323.890,30.218,1004.061523
14 Sep 2023 21:15:45.000,326.292,30.172,1005.174111
14 Sep 2023 21:15:50.000,328.683,30.075,1007.474163
14 Sep 2023 21:15:55.000,331.055,29.927,1010.953428
14 Sep 2023 21:16:00.000,333.399,29.731,1015.599607
14 Sep 2023 21:16:05.000,335.710,29.488,1021.396564
14 Sep 2023 21:16:10.000,337.981,29.201,1028.324595
14 Sep 2023 21:16:15.000,340.205,28.874,1036.360747
14 Sep 2023 21:16:20.000,342.379,28.508,1045.479169
14 Sep 2023 21:16:25.000,344.498,28.108,1055.651486
14 Sep 2023 21:16:30.000,346.559,27.676,1066.847197
14 Sep 2023 21:16:35.000,348.559,27.217,1079.034066
14 Sep 2023 21:16:40.000,350.497,26.734,1092.178505
14 Sep 2023 21:16:45.000,352.371,26.230,1106.245952
14 Sep 2023 21:16:50.000,354.181,25.708,1121.201208
14 Sep 2023 21:16:55.000,355.927,25.171,1137.008764
14 Sep 2023 21:17:00.000,357.610,24.623,1153.633086
14 Sep 2023 21:17:05.000,359.229,24.065,1171.038868
14 Sep 2023 21:17:10.000,0.787,23.500,1189.191260
14 Sep 2023 21:17:15.000,2.285,22.931,1208.056046
14 Sep 2023 21:17:20.000,3.725,22.359,1227.599810
14 Sep 2023 21:17:25.000,5.108,21.786,1247.790056
14 Sep 2023 21:17:30.000,6.436,21.214,1268.595308
14 Sep 2023 21:17:35.000,7.711,20.644,1289.985187
14 Sep 2023 21:17:40.000,8.936,20.076,1311.930460
14 Sep 2023 21:17:45.000,10.112,19.513,1334.403074
14 Sep 2023 21:17:50.000,11.241,18.955,1357.376172
14 Sep 2023 21:17:55.000,12.326,18.403,1380.824100
14 Sep 2023 21:18:00.000,13.368,17.857,1404.722392
14 Sep 2023 21:18:05.000,14.369,17.317,1429.047754
14 Sep 2023 21:18:10.000,15.332,16.785,1453.778038
14 Sep 2023 21:18:15.000,16.257,16.260,1478.892215
14 Sep 2023 21:18:20.000,17.147,15.743,1504.370329
14 Sep 2023 21:18:25.000,18.004,15.233,1530.193464
14 Sep 2023 21:18:30.000,18.829,14.731,1556.343701
14 Sep 2023 21:18:35.000,19.623,14.238,1582.804077
14 Sep 2023 21:18:40.000,20.388,13.752,1609.558534
14 Sep 2023 21:18:45.000,21.125,13.274,1636.591883
14 Sep 2023 21:18:50.000,21.837,12.804,1663.889757
14 Sep 2023 21:18:55.000,22.523,12.342,1691.438568
14 Sep 2023 21:19:00.000,23.185,11.888,1719.225466
14 Sep 2023 21:19:05.000,23.825,11.441,1747.238303
14 Sep 2023 21:19:10.000,24.443,11.001,1775.465587
14 Sep 2023 21:19:15.000,25.040,10.569,1803.896447
14 Sep 2023 21:19:20.000,25.618,10.144,1832.520605
14 Sep 2023 21:19:25.000,26.177,9.726,1861.328328
14 Sep 2023 21:19:30.000,26.718,9.314,1890.310411
14 Sep 2023 21:19:35.000,27.242,8.910,1919.458439
14 Sep 2023 21:19:40.000,27.750,8.511,1948.763551
14 Sep 2023 21:19:45.000,28.242,8.119,1978.218227
14 Sep 2023 21:19:50.000,28.719,7.733,2007.815056
14 Sep 2023 21:19:55.000,29.182,7.353,2037.547008
14 Sep 2023 21:20:00.000,29.631,6.979,2067.407419
14 Sep 2023 21:20:05.000,30.068,6.611,2097.389960
14 Sep 2023 21:20:10.000,30.491,6.248,2127.488627
14 Sep 2023 21:20:15.000,30.903,5.890,2157.697712
14 Sep 2023 21:20:20.000,31.304,5.537,2188.011798
14 Sep 2023 21:20:25.000,31.694,5.189,2218.425731
14 Sep 2023 21:20:30.000,32.073,4.846,2248.934606
14 Sep 2023 21:20:35.000,32.442,4.508,2279.533757
14 Sep 2023 21:20:40.000,32.801,4.174,2310.218742
14 Sep 2023 21:20:45.000,33.151,3.845,2340.985324
14 Sep 2023 21:20:50.000,33.492,3.520,2371.829473
14 Sep 2023 21:20:55.000,33.825,3.199,2402.747338
14 Sep 2023 21:21:00.000,34.149,2.882,2433.735244
14 Sep 2023 21:21:05.000,34.466,2.569,2464.789690
14 Sep 2023 21:21:10.000,34.775,2.259,2495.907323
14 Sep 2023 21:21:15.000,35.076,1.954,2527.084940
14 Sep 2023 21:21:20.000,35.371,1.651,2558.319484
14 Sep 2023 21:21:25.000,35.659,1.353,2589.608022
14 Sep 2023 21:21:30.000,35.940,1.057,2620.947748
14 Sep 2023 21:21:35.000,36.215,0.765,2652.335979
14 Sep 2023 21:21:40.000,36.484,0.476,2683.770137
14 Sep 2023 21:21:45.000,36.747,0.190,2715.247757
14 Sep 2023 21:21:48.351,36.921,0.000,2736.368440
14 Sep 2023 22:51:51.840,295.204,0.000,2732.009644
14 Sep 2023 22:51:56.000,295.671,0.171,2713.074364
14 Sep 2023 22:52:01.000,296.242,0.377,2690.509432
14 Sep 2023 22:52:06.000,296.822,0.582,2668.163096
14 Sep 2023 22:52:11.000,297.412,0.787,2646.041463
14 Sep 2023 22:52:16.000,298.011,0.992,2624.150778
14 Sep 2023 22:52:21.000,298.620,1.196,2602.497435
14 Sep 2023 22:52:26.000,299.239,1.400,2581.087954
14 Sep 2023 22:52:31.000,299.868,1.603,2559.929001
14 Sep 2023 22:52:36.000,300.508,1.805,2539.027376
14 Sep 2023 22:52:41.000,301.158,2.007,2518.390018
14 Sep 2023 22:52:46.000,301.818,2.207,2498.023998
14 Sep 2023 22:52:51.000,302.490,2.407,2477.936523
14 Sep 2023 22:52:56.000,303.172,2.606,2458.134929
14 Sep 2023 22:53:01.000,303.865,2.804,2438.626683
14 Sep 2023 22:53:06.000,304.569,3.000,2419.419367
14 Sep 2023 22:53:11.000,305.284,3.195,2400.520691
14 Sep 2023 22:53:16.000,306.011,3.388,2381.938475
14 Sep 2023 22:53:21.000,306.749,3.580,2363.680646
14 Sep 2023 22:53:26.000,307.498,3.770,2345.755235
14 Sep 2023 22:53:31.000,308.259,3.958,2328.170368
14 Sep 2023 22:53:36.000,309.031,4.144,2310.934254
14 Sep 2023 22:53:41.000,309.815,4.328,2294.055184
14 Sep 2023 22:53:46.000,310.611,4.509,2277.541515
14 Sep 2023 22:53:51.000,311.418,4.688,2261.401653
14 Sep 2023 22:53:56.000,312.237,4.864,2245.644062
14 Sep 2023 22:54:01.000,313.068,5.037,2230.277226
14 Sep 2023 22:54:06.000,313.910,5.208,2215.309654
14 Sep 2023 22:54:11.000,314.764,5.374,2200.749854
14 Sep 2023 22:54:16.000,315.629,5.538,2186.606326
14 Sep 2023 22:54:21.000,316.506,5.698,2172.887541
14 Sep 2023 22:54:26.000,317.394,5.854,2159.601923
14 Sep 2023 22:54:31.000,318.293,6.006,2146.757828
14 Sep 2023 22:54:36.000,319.202,6.154,2134.363538
14 Sep 2023 22:54:41.000,320.123,6.298,2122.427222
14 Sep 2023 22:54:46.000,321.054,6.437,2110.956931
14 Sep 2023 22:54:51.000,321.995,6.571,2099.960570
14 Sep 2023 22:54:56.000,322.947,6.700,2089.445871
14 Sep 2023 22:55:01.000,323.908,6.824,2079.420385
14 Sep 2023 22:55:06.000,324.878,6.942,2069.891452
14 Sep 2023 22:55:11.000,325.858,7.056,2060.866170
14 Sep 2023 22:55:16.000,326.846,7.163,2052.351384
14 Sep 2023 22:55:21.000,327.843,7.264,2044.353660
14 Sep 2023 22:55:26.000,328.847,7.359,2036.879264
14 Sep 2023 22:55:31.000,329.859,7.448,2029.934130
14 Sep 2023 22:55:36.000,330.878,7.531,2023.523856
14 Sep 2023 22:55:41.000,331.903,7.607,2017.653667
14 Sep 2023 22:55:46.000,332.935,7.676,2012.328405
14 Sep 2023 22:55:51.000,333.971,7.738,2007.552509
14 Sep 2023 22:55:56.000,335.013,7.794,2003.329989
14 Sep 2023 22:56:01.000,336.059,7.842,1999.664425
14 Sep 2023 22:56:06.000,337.108,7.883,1996.558938
14 Sep 2023 22:56:11.000,338.161,7.917,1994.016187
14 Sep 2023 22:56:16.000,339.216,7.943,1992.038350
14 Sep 2023 22:56:21.000,340.273,7.962,1990.627123
14 Sep 2023 22:56:26.000,341.331,7.974,1989.783708
14 Sep 2023 22:56:31.000,342.390,7.978,1989.508806
14 Sep 2023 22:56:36.000,343.449,7.975,1989.802618
14 Sep 2023 22:56:41.000,344.507,7.964,1990.664842
14 Sep 2023 22:56:46.000,345.564,7.946,1992.094675
14 Sep 2023 22:56:51.000,346.619,7.921,1994.090817
14 Sep 2023 22:56:56.000,347.672,7.888,1996.651473
14 Sep 2023 22:57:01.000,348.721,7.848,1999.774366
14 Sep 2023 22:57:06.000,349.767,7.800,2003.456741
14 Sep 2023 22:57:11.000,350.809,7.746,2007.695382
14 Sep 2023 22:57:16.000,351.845,7.685,2012.486619
14 Sep 2023 22:57:21.000,352.876,7.616,2017.826348
14 Sep 2023 22:57:26.000,353.901,7.541,2023.710044
14 Sep 2023 22:57:31.000,354.920,7.460,2030.132782
14 Sep 2023 22:57:36.000,355.932,7.372,2037.089252
14 Sep 2023 22:57:41.000,356.936,7.278,2044.573857
14 Sep 2023 22:57:46.000,357.932,7.177,2052.580436
14 Sep 2023 22:57:51.000,358.920,7.071,2061.102723
14 Sep 2023 22:57:56.000,359.900,6.959,2070.134084
14 Sep 2023 22:58:01.000,0.870,6.841,2079.667609
14 Sep 2023 22:58:06.000,1.831,6.718,2089.696133
14 Sep 2023 22:58:11.000,2.782,6.590,2100.212262
14 Sep 2023 22:58:16.000,3.723,6.457,2111.208392
14 Sep 2023 22:58:21.000,4.654,6.319,2122.676735
14 Sep 2023 22:58:26.000,5.575,6.177,2134.609339
14 Sep 2023 22:58:31.000,6.484,6.030,2146.998111
14 Sep 2023 22:58:36.000,7.383,5.879,2159.834835
14 Sep 2023 22:58:41.000,8.271,5.724,2173.111198
14 Sep 2023 22:58:46.000,9.148,5.565,2186.818805
14 Sep 2023 22:58:51.000,10.013,5.402,2200.949201
14 Sep 2023 22:58:56.000,10.867,5.236,2215.493888
14 Sep 2023 22:59:01.000,11.709,5.067,2230.444340
14 Sep 2023 22:59:06.000,12.540,4.895,2245.792025
14 Sep 2023 22:59:11.000,13.359,4.720,2261.528416
14 Sep 2023 22:59:16.000,14.166,4.542,2277.645006
14 Sep 2023 22:59:21.000,14.962,4.362,2294.133322
14 Sep 2023 22:59:26.000,15.746,4.179,2310.984941
14 Sep 2023 22:59:31.000,16.519,3.994,2328.191494
14 Sep 2023 22:59:36.000,17.280,3.807,2345.744685
14 Sep 2023 22:59:41.000,18.030,3.618,2363.636297
14 Sep 2023 22:59:46.000,18.768,3.428,2381.858197
14 Sep 2023 22:59:51.000,19.495,3.235,2400.402354
14 Sep 2023 22:59:56.000,20.211,3.042,2419.260835
14 Sep 2023 23:00:01.000,20.916,2.846,2438.425820
14 Sep 2023 23:00:06.000,21.610,2.650,2457.889601
14 Sep 2023 23:00:11.000,22.292,2.452,2477.644596
14 Sep 2023 23:00:16.000,22.964,2.253,2497.683343
14 Sep 2023 23:00:21.000,23.626,2.054,2517.998509
14 Sep 2023 23:00:26.000,24.276,1.853,2538.582895
14 Sep 2023 23:00:31.000,24.917,1.652,2559.429432
14 Sep 2023 23:00:36.000,25.547,1.450,2580.531191
14 Sep 2023 23:00:41.000,26.167,1.247,2601.881377
14 Sep 2023 23:00:46.000,26.777,1.044,2623.473335
14 Sep 2023 23:00:51.000,27.377,0.840,2645.300547
14 Sep 2023 23:00:56.000,27.968,0.636,2667.356636
14 Sep 2023 23:01:01.000,28.549,0.432,2689.635363
14 Sep 2023 23:01:06.000,29.121,0.228,2712.130630
14 Sep 2023 23:01:11.000,29.684,0.023,2734.836471
14 Sep 2023 23:01:11.558,29.746,0.000,2737.384927
15 Sep 2023 00:34:18.347,326.379,0.000,2736.694260
15 Sep 2023 00:34:23.000,326.965,0.159,2719.039792
15 Sep 2023 00:34:28.000,327.604,0.329,2700.324283
15 Sep 2023 00:34:33.000,328.250,0.498,2681.880394
15 Sep 2023 00:34:38.000,328.906,0.665,2663.714271
15 Sep 2023 00:34:43.000,329.570,0.831,2645.832126
15 Sep 2023 00:34:48.000,330.243,0.995,2628.240238
15 Sep 2023 00:34:53.000,330.925,1.158,2610.944955
15 Sep 2023 00:34:58.000,331.616,1.318,2593.952674
15 Sep 2023 00:35:03.000,332.315,1.477,2577.269850
15 Sep 2023 00:35:08.000,333.024,1.635,2560.902987
15 Sep 2023 00:35:13.000,333.741,1.790,2544.858621
15 Sep 2023 00:35:18.000,334.467,1.942,2529.143330
15 Sep 2023 00:35:23.000,335.202,2.093,2513.763709
15 Sep 2023 00:35:28.000,335.946,2.241,2498.726376
15 Sep 2023 00:35:33.000,336.699,2.387,2484.037957
15 Sep 2023 00:35:38.000,337.461,2.530,2469.705075
15 Sep 2023 00:35:43.000,338.231,2.671,2455.734348
15 Sep 2023 00:35:48.000,339.010,2.808,2442.132373
15 Sep 2023 00:35:53.000,339.798,2.943,2428.905713
15 Sep 2023 00:35:58.000,340.594,3.074,2416.060896
15 Sep 2023 00:36:03.000,341.398,3.203,2403.604393
15 Sep 2023 00:36:08.000,342.211,3.328,2391.542614
15 Sep 2023 00:36:13.000,343.032,3.449,2379.881890
15 Sep 2023 00:36:18.000,343.861,3.567,2368.628464
15 Sep 2023 00:36:23.000,344.697,3.682,2357.788477
15 Sep 2023 00:36:28.000,345.541,3.792,2347.367955
15 Sep 2023 00:36:33.000,346.393,3.898,2337.372795
15 Sep 2023 00:36:38.000,347.252,4.001,2327.808752
15 Sep 2023 00:36:43.000,348.118,4.099,2318.681425
15 Sep 2023 00:36:48.000,348.990,4.193,2309.996242
15 Sep 2023 00:36:53.000,349.870,4.282,2301.758451
15 Sep 2023 00:36:58.000,350.755,4.367,2293.973101
15 Sep 2023 00:37:03.000,351.646,4.447,2286.645029
15 Sep 2023 00:37:08.000,352.543,4.523,2279.778851
15 Sep 2023 00:37:13.000,353.445,4.593,2273.378944
15 Sep 2023 00:37:18.000,354.352,4.659,2267.449438
15 Sep 2023 00:37:23.000,355.264,4.719,2261.994199
15 Sep 2023 00:37:28.000,356.180,4.774,2257.016823
15 Sep 2023 00:37:33.000,357.100,4.825,2252.520620
15 Sep 2023 00:37:38.000,358.024,4.869,2248.508608
15 Sep 2023 00:37:43.000,358.950,4.909,2244.983499
15 Sep 2023 00:37:48.000,359.880,4.943,2241.947695
15 Sep 2023 00:37:53.000,0.812,4.971,2239.403278
15 Sep 2023 00:37:58.000,1.745,4.994,2237.352003
15 Sep 2023 00:38:03.000,2.681,5.012,2235.795294
15 Sep 2023 00:38:08.000,3.617,5.024,2234.734238
15 Sep 2023 00:38:13.000,4.554,5.030,2234.169579
15 Sep 2023 00:38:18.000,5.492,5.031,2234.101722
15 Sep 2023 00:38:23.000,6.429,5.026,2234.530725
15 Sep 2023 00:38:28.000,7.365,5.016,2235.456304
15 Sep 2023 00:38:33.000,8.301,5.000,2236.877829
15 Sep 2023 00:38:38.000,9.235,4.978,2238.794330
15 Sep 2023 00:38:43.000,10.168,4.951,2241.204499
15 Sep 2023 00:38:48.000,11.098,4.918,2244.106695
15 Sep 2023 00:38:53.000,12.025,4.880,2247.498946
15 Sep 2023 00:38:58.000,12.950,4.837,2251.378961
15 Sep 2023 00:39:03.000,13.871,4.788,2255.744133
15 Sep 2023 00:39:08.000,14.788,4.734,2260.591549
15 Sep 2023 00:39:13.000,15.701,4.675,2265.917999
15 Sep 2023 00:39:18.000,16.610,4.611,2271.719984
15 Sep 2023 00:39:23.000,17.513,4.541,2277.993733
15 Sep 2023 00:39:28.000,18.411,4.467,2284.735205
15 Sep 2023 00:39:33.000,19.304,4.388,2291.940110
15 Sep 2023 00:39:38.000,20.191,4.305,2299.603912
15 Sep 2023 00:39:43.000,21.072,4.216,2307.721853
15 Sep 2023 00:39:48.000,21.947,4.124,2316.288956
15 Sep 2023 00:39:53.000,22.814,4.026,2325.300044
15 Sep 2023 00:39:58.000,23.675,3.925,2334.749752
15 Sep 2023 00:40:03.000,24.529,3.820,2344.632542
15 Sep 2023 00:40:08.000,25.375,3.710,2354.942712
15 Sep 2023 00:40:13.000,26.214,3.597,2365.674420
15 Sep 2023 00:40:18.000,27.045,3.480,2376.821806
15 Sep 2023 00:40:23.000,27.868,3.359,2388.378531
15 Sep 2023 00:40:28.000,28.683,3.235,2400.338510
15 Sep 2023 00:40:33.000,29.489,3.107,2412.695444
15 Sep 2023 00:40:38.000,30.288,2.977,2425.442955
15 Sep 2023 00:40:43.000,31.078,2.843,2438.574595
15 Sep 2023 00:40:48.000,31.859,2.706,2452.083859
15 Sep 2023 00:40:53.000,32.632,2.566,2465.964203
15 Sep 2023 00:40:58.000,33.395,2.423,2480.209042
15 Sep 2023 00:41:03.000,34.151,2.278,2494.811773
15 Sep 2023 00:41:08.000,34.897,2.130,2509.765779
15 Sep 2023 00:41:13.000,35.634,1.980,2525.064438
15 Sep 2023 00:41:18.000,36.363,1.828,2540.701137
15 Sep 2023 00:41:23.000,37.082,1.673,2556.669276
15 Sep 2023 00:41:28.000,37.793,1.516,2572.962278
15 Sep 2023 00:41:33.000,38.495,1.358,2589.573594
15 Sep 2023 00:41:38.000,39.188,1.197,2606.496720
15 Sep 2023 00:41:43.000,39.872,1.035,2623.725186
15 Sep 2023 00:41:48.000,40.547,0.871,2641.252581
15 Sep 2023 00:41:53.000,41.214,0.705,2659.072547
15 Sep 2023 00:41:58.000,41.871,0.538,2677.178786
15 Sep 2023 00:42:03.000,42.520,0.370,2695.565067
15 Sep 2023 00:42:08.000,43.160,0.200,2714.225231
15 Sep 2023 00:42:13.000,43.792,0.029,2733.153191
15 Sep 2023 00:42:13.850,43.899,0.000,2736.396547
15 Sep 2023 02:14:18.539,328.617,0.000,2737.301041
15 Sep 2023 02:14:23.000,329.022,0.217,2713.248602
15 Sep 2023 02:14:28.000,329.484,0.461,2686.414774
15 Sep 2023 02:14:33.000,329.954,0.706,2659.720635
15 Sep 2023 02:14:38.000,330.434,0.953,2633.171195
15 Sep 2023 02:14:43.000,330.924,1.200,2606.771638
15 Sep 2023 02:14:48.000,331.423,1.449,2580.527320
15 Sep 2023 02:14:53.000,331.932,1.699,2554.443776
15 Sep 2023 02:14:58.000,332.451,1.950,2528.526732
15 Sep 2023 02:15:03.000,332.980,2.203,2502.782107
15 Sep 2023 02:15:08.000,333.521,2.456,2477.216014
15 Sep 2023 02:15:13.000,334.073,2.711,2451.834778
15 Sep 2023 02:15:18.000,334.635,2.966,2426.644927
15 Sep 2023 02:15:23.000,335.210,3.223,2401.653216
15 Sep 2023 02:15:28.000,335.796,3.480,2376.866611
15 Sep 2023 02:15:33.000,336.395,3.738,2352.292319
15 Sep 2023 02:15:38.000,337.007,3.998,2327.937773
15 Sep 2023 02:15:43.000,337.631,4.258,2303.810648
15 Sep 2023 02:15:48.000,338.268,4.518,2279.918867
15 Sep 2023 02:15:53.000,338.919,4.779,2256.270599
15 Sep 2023 02:15:58.000,339.584,5.041,2232.874272
15 Sep 2023 02:16:03.000,340.263,5.303,2209.738571
15 Sep 2023 02:16:08.000,340.956,5.566,2186.872444
15 Sep 2023 02:16:13.000,341.665,5.829,2164.285103
15 Sep 2023 02:16:18.000,342.388,6.092,2141.986032
15 Sep 2023 02:16:23.000,343.127,6.355,2119.984980
15 Sep 2023 02:16:28.000,343.881,6.617,2098.291972
15 Sep 2023 02:16:33.000,344.652,6.879,2076.917298
15 Sep 2023 02:16:38.000,345.439,7.141,2055.871518
15 Sep 2023 02:16:43.000,346.243,7.402,2035.165459
15 Sep 2023 02:16:48.000,347.064,7.662,2014.810209
15 Sep 2023 02:16:53.000,347.902,7.921,1994.817112
15 Sep 2023 02:16:58.000,348.758,8.179,1975.197762
15 Sep 2023 02:17:03.000,349.631,8.435,1955.963991
15 Sep 2023 02:17:08.000,350.522,8.689,1937.127861
15 Sep 2023 02:17:13.000,351.432,8.940,1918.701648
15 Sep 2023 02:17:18.000,352.360,9.190,1900.697829
15 Sep 2023 02:17:23.000,353.306,9.436,1883.129064
15 Sep 2023 02:17:28.000,354.271,9.680,1866.008174
15 Sep 2023 02:17:33.000,355.255,9.920,1849.348118
15 Sep 2023 02:17:38.000,356.258,10.156,1833.161970
15 Sep 2023 02:17:43.000,357.279,10.388,1817.462888
15 Sep 2023 02:17:48.000,358.319,10.615,1802.264084
15 Sep 2023 02:17:53.000,359.378,10.838,1787.578790
15 Sep 2023 02:17:58.000,0.455,11.055,1773.420218
15 Sep 2023 02:18:03.000,1.551,11.266,1759.801524
15 Sep 2023 02:18:08.000,2.664,11.471,1746.735766
15 Sep 2023 02:18:13.000,3.796,11.669,1734.235855
15 Sep 2023 02:18:18.000,4.944,11.860,1722.314509
15 Sep 2023 02:18:23.000,6.110,12.043,1710.984206
15 Sep 2023 02:18:28.000,7.293,12.219,1700.257130
15 Sep 2023 02:18:33.000,8.491,12.386,1690.145117
15 Sep 2023 02:18:38.000,9.704,12.543,1680.659605
15 Sep 2023 02:18:43.000,10.932,12.692,1671.811577
15 Sep 2023 02:18:48.000,12.174,12.830,1663.611505
15 Sep 2023 02:18:53.000,13.429,12.959,1656.069299
15 Sep 2023 02:18:58.000,14.696,13.076,1649.194250
15 Sep 2023 02:19:03.000,15.974,13.183,1642.994983
15 Sep 2023 02:19:08.000,17.262,13.278,1637.479404
15 Sep 2023 02:19:13.000,18.559,13.362,1632.654654
15 Sep 2023 02:19:18.000,19.864,13.434,1628.527066
15 Sep 2023 02:19:23.000,21.176,13.494,1625.102127
15 Sep 2023 02:19:28.000,22.493,13.541,1622.384444
15 Sep 2023 02:19:33.000,23.814,13.576,1620.377712
15 Sep 2023 02:19:38.000,25.139,13.598,1619.084691
15 Sep 2023 02:19:43.000,26.465,13.608,1618.507194
15 Sep 2023 02:19:48.000,27.791,13.604,1618.646062
15 Sep 2023 02:19:53.000,29.117,13.588,1619.501171
15 Sep 2023 02:19:58.000,30.440,13.560,1621.071432
15 Sep 2023 02:20:03.000,31.760,13.518,1623.354787
15 Sep 2023 02:20:08.000,33.075,13.464,1626.348284
15 Sep 2023 02:20:13.000,34.384,13.398,1630.047906
15 Sep 2023 02:20:18.000,35.686,13.320,1634.448864
15 Sep 2023 02:20:23.000,36.980,13.230,1639.545453
15 Sep 2023 02:20:28.000,38.264,13.129,1645.331138
15 Sep 2023 02:20:33.000,39.538,13.016,1651.798581
15 Sep 2023 02:20:38.000,40.800,12.892,1658.939698
15 Sep 2023 02:20:43.000,42.050,12.758,1666.745705
15 Sep 2023 02:20:48.000,43.286,12.614,1675.207156
15 Sep 2023 02:20:53.000,44.509,12.461,1684.314010
15 Sep 2023 02:20:58.000,45.716,12.298,1694.055676
15 Sep 2023 02:21:03.000,46.908,12.126,1704.421070
15 Sep 2023 02:21:08.000,48.083,11.946,1715.398665
15 Sep 2023 02:21:13.000,49.242,11.758,1726.976556
15 Sep 2023 02:21:18.000,50.384,11.562,1739.142506
15 Sep 2023 02:21:23.000,51.508,11.360,1751.883996
15 Sep 2023 02:21:28.000,52.614,11.151,1765.188283
15 Sep 2023 02:21:33.000,53.702,10.936,1779.042440
15 Sep 2023 02:21:38.000,54.772,10.715,1793.433419
15 Sep 2023 02:21:43.000,55.823,10.489,1808.348070
15 Sep 2023 02:21:48.000,56.855,10.258,1823.773209
15 Sep 2023 02:21:53.000,57.868,10.023,1839.695635
15 Sep 2023 02:21:58.000,58.863,9.784,1856.102190
15 Sep 2023 02:22:03.000,59.839,9.541,1872.979766
15 Sep 2023 02:22:08.000,60.795,9.295,1890.315348
15 Sep 2023 02:22:13.000,61.734,9.046,1908.096049
15 Sep 2023 02:22:18.000,62.654,8.794,1926.309123
15 Sep 2023 02:22:23.000,63.555,8.540,1944.941990
15 Sep 2023 02:22:28.000,64.438,8.283,1963.982261
15 Sep 2023 02:22:33.000,65.303,8.025,1983.417742
15 Sep 2023 02:22:38.000,66.151,7.766,2003.236473
15 Sep 2023 02:22:43.000,66.981,7.505,2023.426709
15 Sep 2023 02:22:48.000,67.794,7.243,2043.976956
15 Sep 2023 02:22:53.000,68.590,6.980,2064.875969
15 Sep 2023 02:22:58.000,69.369,6.717,2086.112759
15 Sep 2023 02:23:03.000,70.132,6.453,2107.676600
15 Sep 2023 02:23:08.000,70.878,6.189,2129.557030
15 Sep 2023 02:23:13.000,71.609,5.925,2151.743853
15 Sep 2023 02:23:18.000,72.325,5.661,2174.227155
15 Sep 2023 02:23:23.000,73.026,5.397,2196.997272
15 Sep 2023 02:23:28.000,73.711,5.133,2220.044829
15 Sep 2023 02:23:33.000,74.383,4.870,2243.360698
15 Sep 2023 02:23:38.000,75.040,4.607,2266.936029
15 Sep 2023 02:23:43.000,75.683,4.345,2290.762228
15 Sep 2023 02:23:48.000,76.313,4.083,2314.830959
15 Sep 2023 02:23:53.000,76.930,3.822,2339.134138
15 Sep 2023 02:23:58.000,77.534,3.562,2363.663928
15 Sep 2023 02:24:03.000,78.126,3.303,2388.412739
15 Sep 2023 02:24:08.000,78.705,3.045,2413.373214
15 Sep 2023 02:24:13.000,79.272,2.787,2438.538227
15 Sep 2023 02:24:18.000,79.828,2.531,2463.900890
15 Sep 2023 02:24:23.000,80.373,2.276,2489.454519
15 Sep 2023 02:24:28.000,80.906,2.021,2515.192662
15 Sep 2023 02:24:33.000,81.429,1.768,2541.109057
15 Sep 2023 02:24:38.000,81.941,1.517,2567.197663
15 Sep 2023 02:24:43.000,82.443,1.266,2593.452619
15 Sep 2023 02:24:48.000,82.935,1.016,2619.868266
15 Sep 2023 02:24:53.000,83.418,0.768,2646.439128
15 Sep 2023 02:24:58.000,83.891,0.521,2673.159903
15 Sep 2023 02:25:03.000,84.355,0.275,2700.025468
15 Sep 2023 02:25:08.000,84.810,0.030,2727.030862
15 Sep 2023 02:25:08.612,84.865,0.000,2730.347839
15 Sep 2023 03:53:38.896,316.371,0.000,2736.326684
15 Sep 2023 03:53:43.000,316.421,0.247,2708.938745
15 Sep 2023 03:53:48.000,316.483,0.551,2675.570014
15 Sep 2023 03:53:53.000,316.546,0.859,2642.203852
15 Sep 2023 03:53:58.000,316.611,1.171,2608.841319
15 Sep 2023 03:54:03.000,316.677,1.487,2575.483509
15 Sep 2023 03:54:08.000,316.744,1.807,2542.131563
15 Sep 2023 03:54:13.000,316.812,2.132,2508.786672
15 Sep 2023 03:54:18.000,316.882,2.462,2475.450078
15 Sep 2023 03:54:23.000,316.953,2.797,2442.123078
15 Sep 2023 03:54:28.000,317.026,3.136,2408.807026
15 Sep 2023 03:54:33.000,317.100,3.481,2375.503340
15 Sep 2023 03:54:38.000,317.177,3.832,2342.213509
15 Sep 2023 03:54:43.000,317.254,4.188,2308.939089
15 Sep 2023 03:54:48.000,317.334,4.550,2275.681713
15 Sep 2023 03:54:53.000,317.416,4.919,2242.443098
15 Sep 2023 03:54:58.000,317.500,5.294,2209.225049
15 Sep 2023 03:55:03.000,317.586,5.676,2176.029468
15 Sep 2023 03:55:08.000,317.674,6.065,2142.858356
15 Sep 2023 03:55:13.000,317.764,6.462,2109.713827
15 Sep 2023 03:55:18.000,317.857,6.866,2076.598112
15 Sep 2023 03:55:23.000,317.953,7.279,2043.513570
15 Sep 2023 03:55:28.000,318.051,7.700,2010.462698
15 Sep 2023 03:55:33.000,318.153,8.131,1977.448143
15 Sep 2023 03:55:38.000,318.257,8.570,1944.472714
15 Sep 2023 03:55:43.000,318.365,9.020,1911.539391
15 Sep 2023 03:55:48.000,318.476,9.480,1878.651348
15 Sep 2023 03:55:53.000,318.591,9.951,1845.811960
15 Sep 2023 03:55:58.000,318.710,10.434,1813.024829
15 Sep 2023 03:56:03.000,318.833,10.929,1780.293796
15 Sep 2023 03:56:08.000,318.960,11.437,1747.622971
15 Sep 2023 03:56:13.000,319.092,11.958,1715.016746
15 Sep 2023 03:56:18.000,319.229,12.494,1682.479832
15 Sep 2023 03:56:23.000,319.372,13.045,1650.017281
15 Sep 2023 03:56:28.000,319.520,13.611,1617.634523
15 Sep 2023 03:56:33.000,319.674,14.195,1585.337398
15 Sep 2023 03:56:38.000,319.835,14.796,1553.132193
15 Sep 2023 03:56:43.000,320.002,15.417,1521.025697
15 Sep 2023 03:56:48.000,320.178,16.057,1489.025241
15 Sep 2023 03:56:53.000,320.361,16.719,1457.138757
15 Sep 2023 03:56:58.000,320.554,17.404,1425.374831
15 Sep 2023 03:57:03.000,320.755,18.112,1393.742787
15 Sep 2023 03:57:08.000,320.967,18.847,1362.252745
15 Sep 2023 03:57:13.000,321.191,19.608,1330.915723
15 Sep 2023 03:57:18.000,321.426,20.399,1299.743717
15 Sep 2023 03:57:23.000,321.675,21.220,1268.749821
15 Sep 2023 03:57:28.000,321.938,22.075,1237.948337
15 Sep 2023 03:57:33.000,322.217,22.965,1207.354908
15 Sep 2023 03:57:38.000,322.514,23.893,1176.986679
15 Sep 2023 03:57:43.000,322.830,24.861,1146.862449
15 Sep 2023 03:57:48.000,323.167,25.872,1117.002866
15 Sep 2023 03:57:53.000,323.529,26.930,1087.430629
15 Sep 2023 03:57:58.000,323.916,28.037,1058.170724
15 Sep 2023 03:58:03.000,324.333,29.196,1029.250677
15 Sep 2023 03:58:08.000,324.783,30.413,1000.700826
15 Sep 2023 03:58:13.000,325.271,31.689,972.554648
15 Sep 2023 03:58:18.000,325.801,33.030,944.849075
15 Sep 2023 03:58:23.000,326.379,34.440,917.624867
15 Sep 2023 03:58:28.000,327.013,35.923,890.926990
15 Sep 2023 03:58:33.000,327.711,37.483,864.805012
15 Sep 2023 03:58:38.000,328.482,39.126,839.313516
15 Sep 2023 03:58:43.000,329.340,40.854,814.512489
15 Sep 2023 03:58:48.000,330.299,42.673,790.467702
15 Sep 2023 03:58:53.000,331.379,44.585,767.251006
15 Sep 2023 03:58:58.000,332.604,46.593,744.940565
15 Sep 2023 03:59:03.000,334.003,48.697,723.620909
15 Sep 2023 03:59:08.000,335.615,50.897,703.382820
15 Sep 2023 03:59:13.000,337.491,53.187,684.322909
15 Sep 2023 03:59:18.000,339.697,55.560,666.542873
15 Sep 2023 03:59:23.000,342.320,58.001,650.148302
15 Sep 2023 03:59:28.000,345.478,60.488,635.247019
15 Sep 2023 03:59:33.000,349.328,62.987,621.946864
15 Sep 2023 03:59:38.000,354.077,65.449,610.352970
15 Sep 2023 03:59:43.000,359.991,67.805,600.564570
15 Sep 2023 03:59:48.000,7.378,69.953,592.671482
15 Sep 2023 03:59:53.000,16.513,71.760,586.750500
15 Sep 2023 03:59:58.000,27.462,73.064,582.861949
15 Sep 2023 04:00:03.000,39.816,73.706,581.046898
15 Sep 2023 04:00:08.000,52.594,73.590,581.324851
15 Sep 2023 04:00:13.000,64.606,72.733,583.692890
15 Sep 2023 04:00:18.000,75.028,71.257,588.125786
15 Sep 2023 04:00:23.000,83.619,69.329,594.577311
15 Sep 2023 04:00:28.000,90.531,67.102,602.982577
15 Sep 2023 04:00:33.000,96.065,64.702,613.261103
15 Sep 2023 04:00:38.000,100.519,62.217,625.320316
15 Sep 2023 04:00:43.000,104.142,59.713,639.059167
15 Sep 2023 04:00:48.000,107.124,57.231,654.371568
15 Sep 2023 04:00:53.000,109.611,54.804,671.149483
15 Sep 2023 04:00:58.000,111.709,52.449,689.285517
15 Sep 2023 04:01:03.000,113.499,50.181,708.674988
15 Sep 2023 04:01:08.000,115.042,48.004,729.217465
15 Sep 2023 04:01:13.000,116.384,45.924,750.817821
15 Sep 2023 04:01:18.000,117.561,43.941,773.386904
15 Sep 2023 04:01:23.000,118.602,42.053,796.841863
15 Sep 2023 04:01:28.000,119.527,40.257,821.106211
15 Sep 2023 04:01:33.000,120.356,38.551,846.109723
15 Sep 2023 04:01:38.000,121.103,36.930,871.788184
15 Sep 2023 04:01:43.000,121.779,35.390,898.083065
15 Sep 2023 04:01:48.000,122.393,33.926,924.941430
15 Sep 2023 04:01:53.000,122.955,32.534,952.314386
15 Sep 2023 04:01:58.000,123.469,31.210,980.158394
15 Sep 2023 04:02:03.000,123.943,29.950,1008.433735
15 Sep 2023 04:02:08.000,124.381,28.748,1037.104412
15 Sep 2023 04:02:13.000,124.787,27.602,1066.137811
15 Sep 2023 04:02:18.000,125.164,26.508,1095.504350
15 Sep 2023 04:02:23.000,125.515,25.463,1125.177199
15 Sep 2023 04:02:28.000,125.843,24.463,1155.131996
15 Sep 2023 04:02:33.000,126.151,23.506,1185.346598
15 Sep 2023 04:02:38.000,126.439,22.588,1215.800860
15 Sep 2023 04:02:43.000,126.711,21.707,1246.476433
15 Sep 2023 04:02:48.000,126.967,20.861,1277.356580
15 Sep 2023 04:02:53.000,127.209,20.047,1308.426019
15 Sep 2023 04:02:58.000,127.437,19.264,1339.670779
15 Sep 2023 04:03:03.000,127.654,18.510,1371.078059
15 Sep 2023 04:03:08.000,127.860,17.782,1402.636132
15 Sep 2023 04:03:13.000,128.055,17.080,1434.334218
15 Sep 2023 04:03:18.000,128.242,16.401,1466.162415
15 Sep 2023 04:03:23.000,128.419,15.745,1498.111594
15 Sep 2023 04:03:28.000,128.589,15.110,1530.173345
15 Sep 2023 04:03:33.000,128.751,14.494,1562.339901
15 Sep 2023 04:03:38.000,128.906,13.897,1594.604070
15 Sep 2023 04:03:43.000,129.054,13.318,1626.959201
15 Sep 2023 04:03:48.000,129.197,12.755,1659.399123
15 Sep 2023 04:03:53.000,129.333,12.208,1691.918108
15 Sep 2023 04:03:58.000,129.465,11.676,1724.510821
15 Sep 2023 04:04:03.000,129.591,11.158,1757.172303
15 Sep 2023 04:04:08.000,129.713,10.654,1789.897926
15 Sep 2023 04:04:13.000,129.831,10.162,1822.683371
15 Sep 2023 04:04:18.000,129.944,9.682,1855.524599
15 Sep 2023 04:04:23.000,130.053,9.213,1888.417829
15 Sep 2023 04:04:28.000,130.159,8.756,1921.359520
15 Sep 2023 04:04:33.000,130.261,8.308,1954.346346
15 Sep 2023 04:04:38.000,130.359,7.871,1987.375184
15 Sep 2023 04:04:43.000,130.455,7.443,2020.443095
15 Sep 2023 04:04:48.000,130.548,7.023,2053.547312
15 Sep 2023 04:04:53.000,130.637,6.613,2086.685226
15 Sep 2023 04:04:58.000,130.725,6.210,2119.854373
15 Sep 2023 04:05:03.000,130.809,5.815,2153.052425
15 Sep 2023 04:05:08.000,130.891,5.428,2186.277179
15 Sep 2023 04:05:13.000,130.971,5.047,2219.526549
15 Sep 2023 04:05:18.000,131.049,4.674,2252.798556
15 Sep 2023 04:05:23.000,131.124,4.306,2286.091319
15 Sep 2023 04:05:28.000,131.198,3.945,2319.403058
15 Sep 2023 04:05:33.000,131.269,3.590,2352.732073
15 Sep 2023 04:05:38.000,131.339,3.241,2386.076746
15 Sep 2023 04:05:43.000,131.407,2.897,2419.435536
15 Sep 2023 04:05:48.000,131.473,2.558,2452.806972
15 Sep 2023 04:05:53.000,131.538,2.225,2486.189648
15 Sep 2023 04:05:58.000,131.601,1.896,2519.582221
15 Sep 2023 04:06:03.000,131.663,1.572,2552.983402
15 Sep 2023 04:06:08.000,131.723,1.252,2586.391965
15 Sep 2023 04:06:13.000,131.782,0.937,2619.806725
15 Sep 2023 04:06:18.000,131.839,0.626,2653.226550
15 Sep 2023 04:06:23.000,131.896,0.319,2686.650349
15 Sep 2023 04:06:28.000,131.951,0.015,2720.077076
15 Sep 2023 04:06:28.253,131.953,0.000,2721.766589
15 Sep 2023 05:34:13.948,290.424,0.000,2732.842284
15 Sep 2023 05:34:18.000,290.039,0.192,2711.523127
15 Sep 2023 05:34:23.000,289.556,0.429,2685.372327
15 Sep 2023 05:34:28.000,289.062,0.666,2659.397069
15 Sep 2023 05:34:33.000,288.559,0.905,2633.603251
15 Sep 2023 05:34:38.000,288.045,1.144,2607.996953
15 Sep 2023 05:34:43.000,287.521,1.383,2582.584431
15 Sep 2023 05:34:48.000,286.986,1.623,2557.372152
15 Sep 2023 05:34:53.000,286.440,1.864,2532.366766
15 Sep 2023 05:34:58.000,285.882,2.106,2507.575129
15 Sep 2023 05:35:03.000,285.314,2.347,2483.004310
15 Sep 2023 05:35:08.000,284.733,2.589,2458.661582
15 Sep 2023 05:35:13.000,284.140,2.832,2434.554434
15 Sep 2023 05:35:18.000,283.535,3.074,2410.690573
15 Sep 2023 05:35:23.000,282.918,3.317,2387.077928
15 Sep 2023 05:35:28.000,282.287,3.560,2363.724653
15 Sep 2023 05:35:33.000,281.643,3.803,2340.639128
15 Sep 2023 05:35:38.000,280.987,4.045,2317.829966
15 Sep 2023 05:35:43.000,280.316,4.288,2295.305996
15 Sep 2023 05:35:48.000,279.631,4.530,2273.076296
15 Sep 2023 05:35:53.000,278.933,4.771,2251.150158
15 Sep 2023 05:35:58.000,278.220,5.012,2229.537117
15 Sep 2023 05:36:03.000,277.492,5.252,2208.246926
15 Sep 2023 05:36:08.000,276.749,5.492,2187.289565
15 Sep 2023 05:36:13.000,275.992,5.730,2166.675234
15 Sep 2023 05:36:18.000,275.218,5.966,2146.414349
15 Sep 2023 05:36:23.000,274.430,6.202,2126.517534
15 Sep 2023 05:36:28.000,273.626,6.435,2106.995616
15 Sep 2023 05:36:33.000,272.805,6.667,2087.859602
15 Sep 2023 05:36:38.000,271.969,6.896,2069.120694
15 Sep 2023 05:36:43.000,271.117,7.124,2050.790248
15 Sep 2023 05:36:48.000,270.248,7.348,2032.879774
15 Sep 2023 05:36:53.000,269.363,7.570,2015.400920
15 Sep 2023 05:36:58.000,268.462,7.788,1998.365446
15 Sep 2023 05:37:03.000,267.544,8.003,1981.785210
15 Sep 2023 05:37:08.000,266.610,8.215,1965.672144
15 Sep 2023 05:37:13.000,265.659,8.422,1950.038220
15 Sep 2023 05:37:18.000,264.692,8.625,1934.895432
15 Sep 2023 05:37:23.000,263.708,8.823,1920.255765
15 Sep 2023 05:37:28.000,262.709,9.017,1906.131161
15 Sep 2023 05:37:33.000,261.694,9.205,1892.533489
15 Sep 2023 05:37:38.000,260.663,9.387,1879.474508
15 Sep 2023 05:37:43.000,259.616,9.563,1866.965817
15 Sep 2023 05:37:48.000,258.555,9.733,1855.018842
15 Sep 2023 05:37:53.000,257.479,9.896,1843.644771
15 Sep 2023 05:37:58.000,256.389,10.052,1832.854525
15 Sep 2023 05:38:03.000,255.285,10.200,1822.658702
15 Sep 2023 05:38:08.000,254.168,10.341,1813.067555
15 Sep 2023 05:38:13.000,253.038,10.473,1804.090925
15 Sep 2023 05:38:18.000,251.897,10.597,1795.738209
15 Sep 2023 05:38:23.000,250.744,10.713,1788.018316
15 Sep 2023 05:38:28.000,249.580,10.819,1780.939624
15 Sep 2023 05:38:33.000,248.407,10.916,1774.509928
15 Sep 2023 05:38:38.000,247.225,11.003,1768.736416
15 Sep 2023 05:38:43.000,246.035,11.080,1763.625619
15 Sep 2023 05:38:48.000,244.837,11.148,1759.183383
15 Sep 2023 05:38:53.000,243.634,11.205,1755.414838
15 Sep 2023 05:38:58.000,242.425,11.251,1752.324356
15 Sep 2023 05:39:03.000,241.213,11.287,1749.915542
15 Sep 2023 05:39:08.000,239.997,11.312,1748.191206
15 Sep 2023 05:39:13.000,238.779,11.327,1747.153348
15 Sep 2023 05:39:18.000,237.560,11.331,1746.803139
15 Sep 2023 05:39:23.000,236.340,11.323,1747.140931
15 Sep 2023 05:39:28.000,235.122,11.306,1748.166239
15 Sep 2023 05:39:33.000,233.907,11.277,1749.877742
15 Sep 2023 05:39:38.000,232.694,11.238,1752.273309
15 Sep 2023 05:39:43.000,231.485,11.188,1755.349994
15 Sep 2023 05:39:48.000,230.282,11.127,1759.104083
15 Sep 2023 05:39:53.000,229.085,11.057,1763.531023
15 Sep 2023 05:39:58.000,227.895,10.976,1768.625582
15 Sep 2023 05:40:03.000,226.713,10.886,1774.381785
15 Sep 2023 05:40:08.000,225.539,10.786,1780.792979
15 Sep 2023 05:40:13.000,224.376,10.676,1787.851860
15 Sep 2023 05:40:18.000,223.223,10.558,1795.550514
15 Sep 2023 05:40:23.000,222.081,10.431,1803.880461
15 Sep 2023 05:40:28.000,220.952,10.296,1812.832685
15 Sep 2023 05:40:33.000,219.834,10.152,1822.397690
15 Sep 2023 05:40:38.000,218.730,10.001,1832.565537
15 Sep 2023 05:40:43.000,217.640,9.842,1843.325891
15 Sep 2023 05:40:48.000,216.564,9.677,1854.668060
15 Sep 2023 05:40:53.000,215.502,9.505,1866.581050
15 Sep 2023 05:40:58.000,214.455,9.326,1879.053594
15 Sep 2023 05:41:03.000,213.424,9.142,1892.074206
15 Sep 2023 05:41:08.000,212.408,8.951,1905.631210
15 Sep 2023 05:41:13.000,211.408,8.756,1919.712793
15 Sep 2023 05:41:18.000,210.424,8.556,1934.307030
15 Sep 2023 05:41:23.000,209.456,8.351,1949.401930
15 Sep 2023 05:41:28.000,208.505,8.141,1964.985460
15 Sep 2023 05:41:33.000,207.569,7.928,1981.045584
15 Sep 2023 05:41:38.000,206.650,7.711,1997.570284
15 Sep 2023 05:41:43.000,205.748,7.491,2014.547600
15 Sep 2023 05:41:48.000,204.861,7.268,2031.965642
15 Sep 2023 05:41:53.000,203.991,7.042,2049.812618
15 Sep 2023 05:41:58.000,203.138,6.813,2068.076860
15 Sep 2023 05:42:03.000,202.300,6.582,2086.746833
15 Sep 2023 05:42:08.000,201.478,6.349,2105.811156
15 Sep 2023 05:42:13.000,200.672,6.115,2125.258617
15 Sep 2023 05:42:18.000,199.881,5.878,2145.078190
15 Sep 2023 05:42:23.000,199.106,5.640,2165.259035
15 Sep 2023 05:42:28.000,198.346,5.401,2185.790518
15 Sep 2023 05:42:33.000,197.601,5.161,2206.662215
15 Sep 2023 05:42:38.000,196.870,4.920,2227.863918
15 Sep 2023 05:42:43.000,196.155,4.678,2249.385640
15 Sep 2023 05:42:48.000,195.453,4.436,2271.217623
15 Sep 2023 05:42:53.000,194.766,4.193,2293.350331
15 Sep 2023 05:42:58.000,194.092,3.950,2315.774465
15 Sep 2023 05:43:03.000,193.432,3.707,2338.480955
15 Sep 2023 05:43:08.000,192.785,3.464,2361.460962
15 Sep 2023 05:43:13.000,192.151,3.220,2384.705877
15 Sep 2023 05:43:18.000,191.529,2.977,2408.207323
15 Sep 2023 05:43:23.000,190.921,2.734,2431.957146
15 Sep 2023 05:43:28.000,190.324,2.491,2455.947422
15 Sep 2023 05:43:33.000,189.739,2.249,2480.170446
15 Sep 2023 05:43:38.000,189.166,2.007,2504.618731
15 Sep 2023 05:43:43.000,188.605,1.765,2529.285007
15 Sep 2023 05:43:48.000,188.054,1.524,2554.162214
15 Sep 2023 05:43:53.000,187.514,1.284,2579.243500
15 Sep 2023 05:43:58.000,186.985,1.044,2604.522212
15 Sep 2023 05:44:03.000,186.467,0.805,2629.991900
15 Sep 2023 05:44:08.000,185.958,0.567,2655.646302
15 Sep 2023 05:44:13.000,185.460,0.329,2681.479350
15 Sep 2023 05:44:18.000,184.971,0.092,2707.485153
15 Sep 2023 05:44:19.949,184.783,0.000,2717.666973
15 Sep 2023 17:50:55.969,145.257,0.000,2716.423039
15 Sep 2023 17:51:00.000,144.695,0.105,2704.889725
15 Sep 2023 17:51:05.000,143.991,0.233,2690.897950
