xian_to_starlink-1155_Access_AER.csv

"Time (UTCG)","Azimuth (deg)","Elevation (deg)","Range (km)"
14 Sep 2023 15:02:06.702,146.228,0.000,2457.180690
14 Sep 2023 15:02:11.000,145.558,0.113,2444.804040
14 Sep 2023 15:02:16.000,144.770,0.242,2430.782653
14 Sep 2023 15:02:21.000,143.973,0.368,2417.175385
14 Sep 2023 15:02:26.000,143.167,0.490,2403.989748
14 Sep 2023 15:02:31.000,142.352,0.610,2391.233194
14 Sep 2023 15:02:36.000,141.529,0.726,2378.913080
14 Sep 2023 15:02:41.000,140.697,0.838,2367.036669
14 Sep 2023 15:02:46.000,139.856,0.947,2355.611107
14 Sep 2023 15:02:51.000,139.008,1.052,2344.643404
14 Sep 2023 15:02:56.000,138.151,1.153,2334.140418
14 Sep 2023 15:03:01.000,137.287,1.251,2324.108848
14 Sep 2023 15:03:06.000,136.415,1.344,2314.555197
14 Sep 2023 15:03:11.000,135.536,1.433,2305.485774
14 Sep 2023 15:03:16.000,134.651,1.517,2296.906665
14 Sep 2023 15:03:21.000,133.758,1.597,2288.823720
14 Sep 2023 15:03:26.000,132.860,1.673,2281.242531
14 Sep 2023 15:03:31.000,131.955,1.743,2274.168427
14 Sep 2023 15:03:36.000,131.045,1.809,2267.606441
14 Sep 2023 15:03:41.000,130.130,1.871,2261.561308
14 Sep 2023 15:03:46.000,129.210,1.927,2256.037445
14 Sep 2023 15:03:51.000,128.285,1.978,2251.038933
14 Sep 2023 15:03:56.000,127.356,2.024,2246.569506
14 Sep 2023 15:04:01.000,126.424,2.065,2242.632546
14 Sep 2023 15:04:06.000,125.489,2.101,2239.231055
14 Sep 2023 15:04:11.000,124.551,2.131,2236.367659
14 Sep 2023 15:04:16.000,123.611,2.156,2234.044594
14 Sep 2023 15:04:21.000,122.669,2.176,2232.263696
14 Sep 2023 15:04:26.000,121.726,2.190,2231.026394
14 Sep 2023 15:04:31.000,120.782,2.199,2230.333712
14 Sep 2023 15:04:36.000,119.837,2.202,2230.186263
14 Sep 2023 15:04:41.000,118.893,2.200,2230.584228
14 Sep 2023 15:04:46.000,117.949,2.193,2231.527394
14 Sep 2023 15:04:51.000,117.006,2.180,2233.015119
14 Sep 2023 15:04:56.000,116.065,2.161,2235.046347
14 Sep 2023 15:05:01.000,115.126,2.138,2237.619620
14 Sep 2023 15:05:06.000,114.189,2.109,2240.733077
14 Sep 2023 15:05:11.000,113.255,2.074,2244.384447
14 Sep 2023 15:05:16.000,112.325,2.035,2248.571089
14 Sep 2023 15:05:21.000,111.398,1.990,2253.289971
14 Sep 2023 15:05:26.000,110.475,1.940,2258.537691
14 Sep 2023 15:05:31.000,109.557,1.885,2264.310499
14 Sep 2023 15:05:36.000,108.644,1.825,2270.604296
14 Sep 2023 15:05:41.000,107.737,1.760,2277.414653
14 Sep 2023 15:05:46.000,106.835,1.691,2284.736826
14 Sep 2023 15:05:51.000,105.939,1.617,2292.565767
14 Sep 2023 15:05:56.000,105.050,1.538,2300.896152
14 Sep 2023 15:06:01.000,104.167,1.455,2309.722383
14 Sep 2023 15:06:06.000,103.292,1.367,2319.038614
14 Sep 2023 15:06:11.000,102.424,1.275,2328.838764
14 Sep 2023 15:06:16.000,101.563,1.179,2339.116535
14 Sep 2023 15:06:21.000,100.711,1.079,2349.865427
14 Sep 2023 15:06:26.000,99.866,0.975,2361.078767
14 Sep 2023 15:06:31.000,99.030,0.868,2372.749708
14 Sep 2023 15:06:36.000,98.202,0.756,2384.871261
14 Sep 2023 15:06:41.000,97.383,0.641,2397.436306
14 Sep 2023 15:06:46.000,96.573,0.523,2410.437608
14 Sep 2023 15:06:51.000,95.772,0.402,2423.867832
14 Sep 2023 15:06:56.000,94.980,0.277,2437.719569
14 Sep 2023 15:07:01.000,94.197,0.149,2451.985331
14 Sep 2023 15:07:06.000,93.423,0.018,2466.657586
14 Sep 2023 15:07:06.691,93.317,0.000,2468.716427
14 Sep 2023 16:35:39.855,211.792,0.000,2456.831023
14 Sep 2023 16:35:44.000,211.650,0.253,2428.996044
14 Sep 2023 16:35:49.000,211.473,0.562,2395.439140
14 Sep 2023 16:35:54.000,211.292,0.875,2361.906759
14 Sep 2023 16:35:59.000,211.105,1.192,2328.400967
14 Sep 2023 16:36:04.000,210.912,1.514,2294.923939
14 Sep 2023 16:36:09.000,210.713,1.841,2261.477954
14 Sep 2023 16:36:14.000,210.508,2.173,2228.065423
14 Sep 2023 16:36:19.000,210.296,2.511,2194.688875
14 Sep 2023 16:36:24.000,210.078,2.853,2161.350983
14 Sep 2023 16:36:29.000,209.852,3.202,2128.054567
14 Sep 2023 16:36:34.000,209.618,3.556,2094.802608
14 Sep 2023 16:36:39.000,209.377,3.917,2061.598259
14 Sep 2023 16:36:44.000,209.127,4.284,2028.444858
14 Sep 2023 16:36:49.000,208.868,4.657,1995.345946
14 Sep 2023 16:36:54.000,208.600,5.038,1962.305276
14 Sep 2023 16:36:59.000,208.322,5.427,1929.326840
14 Sep 2023 16:37:04.000,208.034,5.823,1896.414879
14 Sep 2023 16:37:09.000,207.735,6.227,1863.573910
14 Sep 2023 16:37:14.000,207.424,6.640,1830.808743
14 Sep 2023 16:37:19.000,207.101,7.062,1798.124513
14 Sep 2023 16:37:24.000,206.766,7.493,1765.526703
14 Sep 2023 16:37:29.000,206.416,7.934,1733.021176
14 Sep 2023 16:37:34.000,206.052,8.386,1700.614207
14 Sep 2023 16:37:39.000,205.673,8.848,1668.312522
14 Sep 2023 16:37:44.000,205.277,9.322,1636.123334
14 Sep 2023 16:37:49.000,204.864,9.807,1604.054391
14 Sep 2023 16:37:54.000,204.432,10.305,1572.114023
14 Sep 2023 16:37:59.000,203.981,10.817,1540.311200
14 Sep 2023 16:38:04.000,203.508,11.342,1508.655582
14 Sep 2023 16:38:09.000,203.013,11.882,1477.157596
14 Sep 2023 16:38:14.000,202.494,12.437,1445.828503
14 Sep 2023 16:38:19.000,201.949,13.008,1414.680474
14 Sep 2023 16:38:24.000,201.377,13.596,1383.726683
14 Sep 2023 16:38:29.000,200.774,14.202,1352.981406
14 Sep 2023 16:38:34.000,200.140,14.827,1322.460122
14 Sep 2023 16:38:39.000,199.472,15.471,1292.179630
14 Sep 2023 16:38:44.000,198.767,16.135,1262.158187
14 Sep 2023 16:38:49.000,198.022,16.821,1232.415640
14 Sep 2023 16:38:54.000,197.234,17.529,1202.973584
14 Sep 2023 16:38:59.000,196.399,18.261,1173.855526
14 Sep 2023 16:39:04.000,195.514,19.016,1145.087074
14 Sep 2023 16:39:09.000,194.574,19.797,1116.696129
14 Sep 2023 16:39:14.000,193.575,20.603,1088.713092
14 Sep 2023 16:39:19.000,192.512,21.436,1061.171091
14 Sep 2023 16:39:24.000,191.379,22.295,1034.106208
14 Sep 2023 16:39:29.000,190.170,23.182,1007.557724
14 Sep 2023 16:39:34.000,188.878,24.096,981.568354
14 Sep 2023 16:39:39.000,187.496,25.037,956.184488
14 Sep 2023 16:39:44.000,186.016,26.004,931.456409
14 Sep 2023 16:39:49.000,184.429,26.996,907.438489
14 Sep 2023 16:39:54.000,182.727,28.010,884.189341
14 Sep 2023 16:39:59.000,180.899,29.044,861.771901
14 Sep 2023 16:40:04.000,178.935,30.093,840.253430
14 Sep 2023 16:40:09.000,176.825,31.152,819.705389
14 Sep 2023 16:40:14.000,174.559,32.214,800.203172
14 Sep 2023 16:40:19.000,172.126,33.272,781.825646
14 Sep 2023 16:40:24.000,169.516,34.314,764.654472
14 Sep 2023 16:40:29.000,166.723,35.330,748.773175
14 Sep 2023 16:40:34.000,163.741,36.305,734.265946
14 Sep 2023 16:40:39.000,160.568,37.225,721.216155
14 Sep 2023 16:40:44.000,157.206,38.073,709.704605
14 Sep 2023 16:40:49.000,153.664,38.832,699.807568
14 Sep 2023 16:40:54.000,149.955,39.484,691.594665
14 Sep 2023 16:40:59.000,146.102,40.014,685.126723
14 Sep 2023 16:41:04.000,142.131,40.407,680.453707
14 Sep 2023 16:41:09.000,138.079,40.652,677.612894
14 Sep 2023 16:41:14.000,133.982,40.742,676.627500
14 Sep 2023 16:41:19.000,129.884,40.675,677.505632
14 Sep 2023 16:41:24.000,125.825,40.451,680.240061
14 Sep 2023 16:41:29.000,121.845,40.079,684.808488
14 Sep 2023 16:41:34.000,117.979,39.569,691.174425
14 Sep 2023 16:41:39.000,114.256,38.935,699.288615
14 Sep 2023 16:41:44.000,110.697,38.192,709.090823
14 Sep 2023 16:41:49.000,107.318,37.359,720.511890
14 Sep 2023 16:41:54.000,104.126,36.452,733.475883
14 Sep 2023 16:41:59.000,101.126,35.487,747.902214
14 Sep 2023 16:42:04.000,98.315,34.481,763.707619
14 Sep 2023 16:42:09.000,95.689,33.446,780.807918
14 Sep 2023 16:42:14.000,93.240,32.395,799.119510
14 Sep 2023 16:42:19.000,90.958,31.338,818.560601
14 Sep 2023 16:42:24.000,88.835,30.284,839.052140
14 Sep 2023 16:42:29.000,86.858,29.238,860.518519
14 Sep 2023 16:42:34.000,85.019,28.208,882.888038
14 Sep 2023 16:42:39.000,83.306,27.196,906.093184
14 Sep 2023 16:42:44.000,81.710,26.206,930.070770
14 Sep 2023 16:42:49.000,80.221,25.241,954.761931
14 Sep 2023 16:42:54.000,78.832,24.301,980.112052
14 Sep 2023 16:42:59.000,77.533,23.387,1006.070612
14 Sep 2023 16:43:04.000,76.318,22.501,1032.591003
14 Sep 2023 16:43:09.000,75.179,21.642,1059.630301
14 Sep 2023 16:43:14.000,74.112,20.809,1087.149031
14 Sep 2023 16:43:19.000,73.109,20.003,1115.111233
14 Sep 2023 16:43:24.000,72.166,19.222,1143.483014
14 Sep 2023 16:43:29.000,71.278,18.467,1172.234113
14 Sep 2023 16:43:34.000,70.441,17.735,1201.336493
14 Sep 2023 16:43:39.000,69.651,17.027,1230.764424
14 Sep 2023 16:43:44.000,68.904,16.341,1260.494271
14 Sep 2023 16:43:49.000,68.198,15.676,1290.504338
14 Sep 2023 16:43:54.000,67.529,15.032,1320.774681
14 Sep 2023 16:43:59.000,66.894,14.407,1351.286957
14 Sep 2023 16:44:04.000,66.292,13.801,1382.024281
14 Sep 2023 16:44:09.000,65.719,13.212,1412.971107
14 Sep 2023 16:44:14.000,65.175,12.641,1444.113093
14 Sep 2023 16:44:19.000,64.657,12.086,1475.437000
14 Sep 2023 16:44:24.000,64.163,11.545,1506.930606
14 Sep 2023 16:44:29.000,63.691,11.020,1538.582597
14 Sep 2023 16:44:34.000,63.241,10.508,1570.382509
14 Sep 2023 16:44:39.000,62.811,10.010,1602.320630
14 Sep 2023 16:44:44.000,62.400,9.524,1634.387960
14 Sep 2023 16:44:49.000,62.006,9.050,1666.576135
14 Sep 2023 16:44:54.000,61.629,8.587,1698.877373
14 Sep 2023 16:44:59.000,61.267,8.136,1731.284432
14 Sep 2023 16:45:04.000,60.920,7.695,1763.790563
14 Sep 2023 16:45:09.000,60.587,7.263,1796.389472
14 Sep 2023 16:45:14.000,60.267,6.841,1829.075267
14 Sep 2023 16:45:19.000,59.960,6.428,1861.842449
14 Sep 2023 16:45:24.000,59.664,6.023,1894.685867
14 Sep 2023 16:45:29.000,59.379,5.627,1927.600693
14 Sep 2023 16:45:34.000,59.105,5.238,1960.582396
14 Sep 2023 16:45:39.000,58.840,4.857,1993.626722
14 Sep 2023 16:45:44.000,58.585,4.483,2026.729669
14 Sep 2023 16:45:49.000,58.339,4.116,2059.887470
14 Sep 2023 16:45:54.000,58.102,3.755,2093.096577
14 Sep 2023 16:45:59.000,57.872,3.401,2126.353642
14 Sep 2023 16:46:04.000,57.651,3.052,2159.655502
14 Sep 2023 16:46:09.000,57.437,2.709,2192.999174
14 Sep 2023 16:46:14.000,57.230,2.372,2226.381828
14 Sep 2023 16:46:19.000,57.029,2.040,2259.800787
14 Sep 2023 16:46:24.000,56.835,1.713,2293.253512
14 Sep 2023 16:46:29.000,56.647,1.391,2326.737595
14 Sep 2023 16:46:34.000,56.465,1.073,2360.250748
14 Sep 2023 16:46:39.000,56.289,0.760,2393.790792
14 Sep 2023 16:46:44.000,56.118,0.451,2427.355662
14 Sep 2023 16:46:49.000,55.952,0.146,2460.943383
14 Sep 2023 16:46:51.422,55.873,0.000,2477.217996
14 Sep 2023 18:13:22.917,258.278,0.000,2466.521103
14 Sep 2023 18:13:27.000,258.525,0.237,2440.368454
14 Sep 2023 18:13:32.000,258.836,0.531,2408.393244
14 Sep 2023 18:13:37.000,259.154,0.828,2376.478457
14 Sep 2023 18:13:42.000,259.481,1.128,2344.627455
14 Sep 2023 18:13:47.000,259.816,1.433,2312.843776
14 Sep 2023 18:13:52.000,260.161,1.741,2281.131136
14 Sep 2023 18:13:57.000,260.515,2.053,2249.493426
14 Sep 2023 18:14:02.000,260.879,2.369,2217.934752
14 Sep 2023 18:14:07.000,261.253,2.690,2186.459421
14 Sep 2023 18:14:12.000,261.638,3.015,2155.071977
14 Sep 2023 18:14:17.000,262.034,3.344,2123.777194
14 Sep 2023 18:14:22.000,262.442,3.678,2092.580119
14 Sep 2023 18:14:27.000,262.862,4.017,2061.486060
14 Sep 2023 18:14:32.000,263.295,4.361,2030.500621
14 Sep 2023 18:14:37.000,263.742,4.710,1999.629730
14 Sep 2023 18:14:42.000,264.202,5.065,1968.879638
14 Sep 2023 18:14:47.000,264.677,5.425,1938.256955
14 Sep 2023 18:14:52.000,265.168,5.791,1907.768681
14 Sep 2023 18:14:57.000,265.674,6.162,1877.422216
14 Sep 2023 18:15:02.000,266.198,6.540,1847.225398
14 Sep 2023 18:15:07.000,266.739,6.924,1817.186533
14 Sep 2023 18:15:12.000,267.299,7.315,1787.314425
14 Sep 2023 18:15:17.000,267.878,7.712,1757.618410
14 Sep 2023 18:15:22.000,268.478,8.116,1728.108396
14 Sep 2023 18:15:27.000,269.099,8.527,1698.794897
14 Sep 2023 18:15:32.000,269.743,8.945,1669.689081
14 Sep 2023 18:15:37.000,270.411,9.371,1640.802814
14 Sep 2023 18:15:42.000,271.104,9.804,1612.148690
14 Sep 2023 18:15:47.000,271.824,10.245,1583.740115
14 Sep 2023 18:15:52.000,272.571,10.694,1555.591319
14 Sep 2023 18:15:57.000,273.347,11.150,1527.717450
14 Sep 2023 18:16:02.000,274.154,11.615,1500.134597
14 Sep 2023 18:16:07.000,274.993,12.088,1472.859872
14 Sep 2023 18:16:12.000,275.866,12.568,1445.911459
14 Sep 2023 18:16:17.000,276.775,13.057,1419.308697
14 Sep 2023 18:16:22.000,277.722,13.554,1393.072105
14 Sep 2023 18:16:27.000,278.708,14.059,1367.223484
14 Sep 2023 18:16:32.000,279.736,14.571,1341.785964
14 Sep 2023 18:16:37.000,280.808,15.091,1316.784063
14 Sep 2023 18:16:42.000,281.925,15.617,1292.243741
14 Sep 2023 18:16:47.000,283.091,16.150,1268.192458
14 Sep 2023 18:16:52.000,284.308,16.689,1244.659211
14 Sep 2023 18:16:57.000,285.577,17.232,1221.674569
14 Sep 2023 18:17:02.000,286.902,17.780,1199.270691
14 Sep 2023 18:17:07.000,288.284,18.331,1177.481325
14 Sep 2023 18:17:12.000,289.726,18.883,1156.341785
14 Sep 2023 18:17:17.000,291.231,19.435,1135.888907
14 Sep 2023 18:17:22.000,292.799,19.985,1116.160976
14 Sep 2023 18:17:27.000,294.433,20.531,1097.197610
14 Sep 2023 18:17:32.000,296.136,21.071,1079.039606
14 Sep 2023 18:17:37.000,297.907,21.602,1061.728748
14 Sep 2023 18:17:42.000,299.748,22.122,1045.307563
14 Sep 2023 18:17:47.000,301.659,22.627,1029.819022
14 Sep 2023 18:17:52.000,303.641,23.114,1015.306187
14 Sep 2023 18:17:57.000,305.692,23.579,1001.811816
14 Sep 2023 18:18:02.000,307.811,24.019,989.377904
14 Sep 2023 18:18:07.000,309.995,24.430,978.045183
14 Sep 2023 18:18:12.000,312.241,24.809,967.852592
14 Sep 2023 18:18:17.000,314.546,25.151,958.836714
14 Sep 2023 18:18:22.000,316.903,25.452,951.031199
14 Sep 2023 18:18:27.000,319.307,25.710,944.466210
14 Sep 2023 18:18:32.000,321.751,25.922,939.167873
14 Sep 2023 18:18:37.000,324.227,26.084,935.157796
14 Sep 2023 18:18:42.000,326.726,26.195,932.452640
14 Sep 2023 18:18:47.000,329.240,26.254,931.063767
14 Sep 2023 18:18:52.000,331.759,26.259,930.997075
14 Sep 2023 18:18:57.000,334.274,26.211,932.252748
14 Sep 2023 18:19:02.000,336.776,26.110,934.825344
14 Sep 2023 18:19:07.000,339.255,25.958,938.703891
14 Sep 2023 18:19:12.000,341.703,25.756,943.872106
14 Sep 2023 18:19:17.000,344.113,25.508,950.308727
14 Sep 2023 18:19:22.000,346.476,25.216,957.987933
14 Sep 2023 18:19:27.000,348.788,24.882,966.879830
14 Sep 2023 18:19:32.000,351.042,24.512,976.950986
14 Sep 2023 18:19:37.000,353.234,24.109,988.164990
14 Sep 2023 18:19:42.000,355.361,23.675,1000.483031
14 Sep 2023 18:19:47.000,357.421,23.216,1013.864454
14 Sep 2023 18:19:52.000,359.411,22.735,1028.267305
14 Sep 2023 18:19:57.000,1.332,22.236,1043.648825
14 Sep 2023 18:20:02.000,3.182,21.721,1059.965916
14 Sep 2023 18:20:07.000,4.962,21.194,1077.175543
14 Sep 2023 18:20:12.000,6.673,20.658,1095.235090
14 Sep 2023 18:20:17.000,8.316,20.116,1114.102661
14 Sep 2023 18:20:22.000,9.894,19.569,1133.737328
14 Sep 2023 18:20:27.000,11.406,19.020,1154.099337
14 Sep 2023 18:20:32.000,12.857,18.471,1175.150253
14 Sep 2023 18:20:37.000,14.247,17.922,1196.853083
14 Sep 2023 18:20:42.000,15.580,17.377,1219.172354
14 Sep 2023 18:20:47.000,16.857,16.835,1242.074161
14 Sep 2023 18:20:52.000,18.081,16.298,1265.526186
14 Sep 2023 18:20:57.000,19.254,15.767,1289.497706
14 Sep 2023 18:21:02.000,20.379,15.241,1313.959570
14 Sep 2023 18:21:07.000,21.458,14.723,1338.884174
14 Sep 2023 18:21:12.000,22.492,14.212,1364.245410
14 Sep 2023 18:21:17.000,23.485,13.708,1390.018630
14 Sep 2023 18:21:22.000,24.438,13.212,1416.180574
14 Sep 2023 18:21:27.000,25.353,12.724,1442.709323
14 Sep 2023 18:21:32.000,26.232,12.244,1469.584229
14 Sep 2023 18:21:37.000,27.077,11.772,1496.785856
14 Sep 2023 18:21:42.000,27.890,11.308,1524.295913
14 Sep 2023 18:21:47.000,28.672,10.851,1552.097192
14 Sep 2023 18:21:52.000,29.424,10.403,1580.173506
14 Sep 2023 18:21:57.000,30.149,9.963,1608.509631
14 Sep 2023 18:22:02.000,30.847,9.530,1637.091251
14 Sep 2023 18:22:07.000,31.520,9.105,1665.904891
14 Sep 2023 18:22:12.000,32.169,8.687,1694.938185
14 Sep 2023 18:22:17.000,32.796,8.276,1724.178600
14 Sep 2023 18:22:22.000,33.400,7.873,1753.615210
14 Sep 2023 18:22:27.000,33.985,7.476,1783.237445
14 Sep 2023 18:22:32.000,34.549,7.085,1813.035345
14 Sep 2023 18:22:37.000,35.095,6.702,1842.999525
14 Sep 2023 18:22:42.000,35.624,6.324,1873.121135
14 Sep 2023 18:22:47.000,36.135,5.953,1903.391829
14 Sep 2023 18:22:52.000,36.630,5.587,1933.803729
14 Sep 2023 18:22:57.000,37.110,5.227,1964.349397
14 Sep 2023 18:23:02.000,37.575,4.873,1995.021804
14 Sep 2023 18:23:07.000,38.026,4.524,2025.814308
14 Sep 2023 18:23:12.000,38.464,4.181,2056.720622
14 Sep 2023 18:23:17.000,38.888,3.842,2087.734804
14 Sep 2023 18:23:22.000,39.301,3.508,2118.851220
14 Sep 2023 18:23:27.000,39.702,3.179,2150.064532
14 Sep 2023 18:23:32.000,40.091,2.854,2181.369685
14 Sep 2023 18:23:37.000,40.470,2.534,2212.761875
14 Sep 2023 18:23:42.000,40.839,2.218,2244.236549
14 Sep 2023 18:23:47.000,41.197,1.907,2275.789374
14 Sep 2023 18:23:52.000,41.546,1.599,2307.416241
14 Sep 2023 18:23:57.000,41.887,1.295,2339.113232
14 Sep 2023 18:24:02.000,42.218,0.995,2370.876628
14 Sep 2023 18:24:07.000,42.541,0.698,2402.702876
14 Sep 2023 18:24:12.000,42.856,0.405,2434.588601
14 Sep 2023 18:24:17.000,43.164,0.115,2466.530582
14 Sep 2023 18:24:19.000,43.284,0.000,2479.323172
14 Sep 2023 19:52:43.732,296.815,0.000,2475.718589
14 Sep 2023 19:52:48.000,297.282,0.203,2453.313267
14 Sep 2023 19:52:53.000,297.840,0.441,2427.236126
14 Sep 2023 19:52:58.000,298.410,0.680,2401.353019
14 Sep 2023 19:53:03.000,298.992,0.920,2375.671012
14 Sep 2023 19:53:08.000,299.586,1.160,2350.197416
14 Sep 2023 19:53:13.000,300.192,1.402,2324.939783
14 Sep 2023 19:53:18.000,300.812,1.644,2299.905936
14 Sep 2023 19:53:23.000,301.445,1.886,2275.103955
14 Sep 2023 19:53:28.000,302.092,2.129,2250.542193
14 Sep 2023 19:53:33.000,302.753,2.373,2226.229287
14 Sep 2023 19:53:38.000,303.428,2.617,2202.174151
14 Sep 2023 19:53:43.000,304.118,2.861,2178.385992
14 Sep 2023 19:53:48.000,304.823,3.106,2154.874310
14 Sep 2023 19:53:53.000,305.544,3.350,2131.648908
14 Sep 2023 19:53:58.000,306.280,3.595,2108.719882
14 Sep 2023 19:54:03.000,307.033,3.839,2086.097642
14 Sep 2023 19:54:08.000,307.801,4.083,2063.792905
14 Sep 2023 19:54:13.000,308.587,4.327,2041.816684
14 Sep 2023 19:54:18.000,309.390,4.570,2020.180314
14 Sep 2023 19:54:23.000,310.210,4.812,1998.895424
14 Sep 2023 19:54:28.000,311.048,5.053,1977.973946
14 Sep 2023 19:54:33.000,311.904,5.293,1957.428109
14 Sep 2023 19:54:38.000,312.778,5.532,1937.270429
14 Sep 2023 19:54:43.000,313.671,5.769,1917.513703
14 Sep 2023 19:54:48.000,314.582,6.004,1898.170987
14 Sep 2023 19:54:53.000,315.513,6.237,1879.255600
14 Sep 2023 19:54:58.000,316.463,6.467,1860.781086
14 Sep 2023 19:55:03.000,317.432,6.695,1842.761214
14 Sep 2023 19:55:08.000,318.420,6.920,1825.209938
14 Sep 2023 19:55:13.000,319.428,7.141,1808.141384
14 Sep 2023 19:55:18.000,320.456,7.359,1791.569808
14 Sep 2023 19:55:23.000,321.503,7.572,1775.509578
14 Sep 2023 19:55:28.000,322.570,7.782,1759.975123
14 Sep 2023 19:55:33.000,323.656,7.986,1744.980910
14 Sep 2023 19:55:38.000,324.762,8.185,1730.541381
14 Sep 2023 19:55:43.000,325.886,8.379,1716.670924
14 Sep 2023 19:55:48.000,327.029,8.566,1703.383806
14 Sep 2023 19:55:53.000,328.191,8.747,1690.694141
14 Sep 2023 19:55:58.000,329.371,8.921,1678.615813
14 Sep 2023 19:56:03.000,330.568,9.088,1667.162428
14 Sep 2023 19:56:08.000,331.782,9.247,1656.347253
14 Sep 2023 19:56:13.000,333.013,9.398,1646.183150
14 Sep 2023 19:56:18.000,334.259,9.541,1636.682515
14 Sep 2023 19:56:23.000,335.520,9.674,1627.857209
14 Sep 2023 19:56:28.000,336.795,9.798,1619.718498
14 Sep 2023 19:56:33.000,338.083,9.912,1612.276989
14 Sep 2023 19:56:38.000,339.383,10.016,1605.542560
14 Sep 2023 19:56:43.000,340.694,10.110,1599.524312
14 Sep 2023 19:56:48.000,342.015,10.192,1594.230502
14 Sep 2023 19:56:53.000,343.345,10.264,1589.668495
14 Sep 2023 19:56:58.000,344.682,10.325,1585.844711
14 Sep 2023 19:57:03.000,346.025,10.373,1582.764586
14 Sep 2023 19:57:08.000,347.374,10.411,1580.432534
14 Sep 2023 19:57:13.000,348.726,10.436,1578.851911
14 Sep 2023 19:57:18.000,350.080,10.450,1578.024998
14 Sep 2023 19:57:23.000,351.435,10.451,1577.952982
14 Sep 2023 19:57:28.000,352.789,10.441,1578.635946
14 Sep 2023 19:57:33.000,354.142,10.418,1580.072869
14 Sep 2023 19:57:38.000,355.491,10.384,1582.261637
14 Sep 2023 19:57:43.000,356.835,10.338,1585.199052
14 Sep 2023 19:57:48.000,358.174,10.281,1588.880899
14 Sep 2023 19:57:53.000,359.505,10.212,1593.301821
14 Sep 2023 19:57:58.000,0.828,10.132,1598.455573
14 Sep 2023 19:58:03.000,2.141,10.042,1604.334929
14 Sep 2023 19:58:08.000,3.443,9.940,1610.931759
14 Sep 2023 19:58:13.000,4.734,9.829,1618.237086
14 Sep 2023 19:58:18.000,6.011,9.707,1626.241137
14 Sep 2023 19:58:23.000,7.275,9.577,1634.933408
14 Sep 2023 19:58:28.000,8.524,9.437,1644.302723
14 Sep 2023 19:58:33.000,9.758,9.288,1654.337298
14 Sep 2023 19:58:38.000,10.975,9.131,1665.024809
14 Sep 2023 19:58:43.000,12.176,8.967,1676.352451
14 Sep 2023 19:58:48.000,13.359,8.795,1688.307006
14 Sep 2023 19:58:53.000,14.524,8.616,1700.874905
14 Sep 2023 19:58:58.000,15.671,8.430,1714.042290
14 Sep 2023 19:59:03.000,16.800,8.238,1727.795071
14 Sep 2023 19:59:08.000,17.909,8.041,1742.118988
14 Sep 2023 19:59:13.000,18.999,7.838,1756.999656
14 Sep 2023 19:59:18.000,20.070,7.631,1772.422623
14 Sep 2023 19:59:23.000,21.121,7.419,1788.373415
14 Sep 2023 19:59:28.000,22.153,7.202,1804.837581
14 Sep 2023 19:59:33.000,23.165,6.982,1821.800730
14 Sep 2023 19:59:38.000,24.157,6.759,1839.248568
14 Sep 2023 19:59:43.000,25.131,6.532,1857.166939
14 Sep 2023 19:59:48.000,26.084,6.303,1875.541845
14 Sep 2023 19:59:53.000,27.019,6.071,1894.359478
14 Sep 2023 19:59:58.000,27.934,5.837,1913.606241
14 Sep 2023 20:00:03.000,28.831,5.601,1933.268773
14 Sep 2023 20:00:08.000,29.709,5.363,1953.333958
14 Sep 2023 20:00:13.000,30.569,5.124,1973.788949
14 Sep 2023 20:00:18.000,31.411,4.883,1994.621176
14 Sep 2023 20:00:23.000,32.235,4.642,2015.818351
14 Sep 2023 20:00:28.000,33.042,4.400,2037.368487
14 Sep 2023 20:00:33.000,33.831,4.157,2059.259894
14 Sep 2023 20:00:38.000,34.604,3.913,2081.481187
14 Sep 2023 20:00:43.000,35.360,3.669,2104.021284
14 Sep 2023 20:00:48.000,36.100,3.426,2126.869421
14 Sep 2023 20:00:53.000,36.824,3.182,2150.015128
14 Sep 2023 20:00:58.000,37.532,2.938,2173.448251
14 Sep 2023 20:01:03.000,38.226,2.694,2197.158934
14 Sep 2023 20:01:08.000,38.905,2.450,2221.137622
14 Sep 2023 20:01:13.000,39.569,2.207,2245.375056
14 Sep 2023 20:01:18.000,40.219,1.964,2269.862266
14 Sep 2023 20:01:23.000,40.856,1.722,2294.590571
14 Sep 2023 20:01:28.000,41.479,1.481,2319.551564
14 Sep 2023 20:01:33.000,42.089,1.240,2344.737113
14 Sep 2023 20:01:38.000,42.686,0.999,2370.139359
14 Sep 2023 20:01:43.000,43.271,0.760,2395.750692
14 Sep 2023 20:01:48.000,43.844,0.521,2421.563765
14 Sep 2023 20:01:53.000,44.405,0.283,2447.571469
14 Sep 2023 20:01:58.000,44.954,0.046,2473.766943
14 Sep 2023 20:01:58.970,45.060,-0.000,2478.868487
14 Sep 2023 21:31:30.031,316.478,0.000,2479.261708
14 Sep 2023 21:31:35.000,317.001,0.242,2452.497952
14 Sep 2023 21:31:40.000,317.537,0.486,2425.735799
14 Sep 2023 21:31:45.000,318.086,0.731,2399.151637
14 Sep 2023 21:31:50.000,318.646,0.978,2372.752224
14 Sep 2023 21:31:55.000,319.219,1.225,2346.544567
14 Sep 2023 21:32:00.000,319.804,1.474,2320.535924
14 Sep 2023 21:32:05.000,320.402,1.723,2294.733823
14 Sep 2023 21:32:10.000,321.013,1.974,2269.146067
14 Sep 2023 21:32:15.000,321.638,2.225,2243.780732
14 Sep 2023 21:32:20.000,322.277,2.478,2218.646194
14 Sep 2023 21:32:25.000,322.931,2.731,2193.751117
14 Sep 2023 21:32:30.000,323.599,2.984,2169.104480
14 Sep 2023 21:32:35.000,324.283,3.239,2144.715569
14 Sep 2023 21:32:40.000,324.982,3.494,2120.593992
14 Sep 2023 21:32:45.000,325.697,3.749,2096.749684
14 Sep 2023 21:32:50.000,326.428,4.005,2073.192912
14 Sep 2023 21:32:55.000,327.176,4.261,2049.934283
14 Sep 2023 21:33:00.000,327.941,4.517,2026.984744
14 Sep 2023 21:33:05.000,328.724,4.773,2004.355591
14 Sep 2023 21:33:10.000,329.525,5.028,1982.058460
14 Sep 2023 21:33:15.000,330.344,5.284,1960.105346
14 Sep 2023 21:33:20.000,331.182,5.538,1938.508582
14 Sep 2023 21:33:25.000,332.038,5.792,1917.280849
14 Sep 2023 21:33:30.000,332.915,6.045,1896.435170
14 Sep 2023 21:33:35.000,333.810,6.297,1875.984897
14 Sep 2023 21:33:40.000,334.726,6.547,1855.943710
14 Sep 2023 21:33:45.000,335.663,6.795,1836.325597
14 Sep 2023 21:33:50.000,336.619,7.041,1817.144848
14 Sep 2023 21:33:55.000,337.597,7.285,1798.416027
14 Sep 2023 21:34:00.000,338.596,7.526,1780.153956
14 Sep 2023 21:34:05.000,339.615,7.764,1762.373693
14 Sep 2023 21:34:10.000,340.657,7.999,1745.090497
14 Sep 2023 21:34:15.000,341.719,8.229,1728.319802
14 Sep 2023 21:34:20.000,342.803,8.456,1712.077168
14 Sep 2023 21:34:25.000,343.908,8.677,1696.378257
14 Sep 2023 21:34:30.000,345.035,8.894,1681.238775
14 Sep 2023 21:34:35.000,346.182,9.105,1666.674424
14 Sep 2023 21:34:40.000,347.351,9.310,1652.700852
14 Sep 2023 21:34:45.000,348.539,9.508,1639.333595
14 Sep 2023 21:34:50.000,349.749,9.699,1626.588007
14 Sep 2023 21:34:55.000,350.977,9.883,1614.479205
14 Sep 2023 21:35:00.000,352.225,10.059,1603.021994
14 Sep 2023 21:35:05.000,353.492,10.226,1592.230793
14 Sep 2023 21:35:10.000,354.776,10.384,1582.119569
14 Sep 2023 21:35:15.000,356.078,10.532,1572.701754
14 Sep 2023 21:35:20.000,357.395,10.671,1563.990172
14 Sep 2023 21:35:25.000,358.728,10.799,1555.996964
14 Sep 2023 21:35:30.000,0.074,10.916,1548.733512
14 Sep 2023 21:35:35.000,1.434,11.022,1542.210363
14 Sep 2023 21:35:40.000,2.805,11.117,1536.437164
14 Sep 2023 21:35:45.000,4.186,11.199,1531.422592
14 Sep 2023 21:35:50.000,5.577,11.269,1527.174295
14 Sep 2023 21:35:55.000,6.975,11.326,1523.698835
14 Sep 2023 21:36:00.000,8.379,11.370,1521.001642
14 Sep 2023 21:36:05.000,9.788,11.402,1519.086969
14 Sep 2023 21:36:10.000,11.200,11.420,1517.957867
14 Sep 2023 21:36:15.000,12.613,11.425,1517.616154
14 Sep 2023 21:36:20.000,14.026,11.417,1518.062406
14 Sep 2023 21:36:25.000,15.438,11.396,1519.295949
14 Sep 2023 21:36:30.000,16.846,11.361,1521.314868
14 Sep 2023 21:36:35.000,18.250,11.313,1524.116022
14 Sep 2023 21:36:40.000,19.647,11.253,1527.695105
14 Sep 2023 21:36:45.000,21.036,11.180,1532.046520
14 Sep 2023 21:36:50.000,22.416,11.095,1537.163656
14 Sep 2023 21:36:55.000,23.786,10.998,1543.038786
14 Sep 2023 21:37:00.000,25.144,10.889,1549.663159
14 Sep 2023 21:37:05.000,26.489,10.769,1557.027060
14 Sep 2023 21:37:10.000,27.819,10.638,1565.119883
14 Sep 2023 21:37:15.000,29.134,10.497,1573.930188
14 Sep 2023 21:37:20.000,30.433,10.346,1583.445789
14 Sep 2023 21:37:25.000,31.715,10.185,1593.653822
14 Sep 2023 21:37:30.000,32.979,10.015,1604.540817
14 Sep 2023 21:37:35.000,34.224,9.837,1616.092785
14 Sep 2023 21:37:40.000,35.450,9.651,1628.295285
14 Sep 2023 21:37:45.000,36.657,9.458,1641.133500
14 Sep 2023 21:37:50.000,37.843,9.257,1654.592308
14 Sep 2023 21:37:55.000,39.008,9.051,1668.656350
14 Sep 2023 21:38:00.000,40.153,8.838,1683.310098
14 Sep 2023 21:38:05.000,41.276,8.619,1698.537917
14 Sep 2023 21:38:10.000,42.378,8.396,1714.324116
14 Sep 2023 21:38:15.000,43.459,8.168,1730.653011
14 Sep 2023 21:38:20.000,44.518,7.936,1747.508964
14 Sep 2023 21:38:25.000,45.556,7.699,1764.876442
14 Sep 2023 21:38:30.000,46.572,7.460,1782.740041
14 Sep 2023 21:38:35.000,47.568,7.218,1801.084535
14 Sep 2023 21:38:40.000,48.542,6.972,1819.894904
14 Sep 2023 21:38:45.000,49.496,6.725,1839.156365
14 Sep 2023 21:38:50.000,50.429,6.475,1858.854391
14 Sep 2023 21:38:55.000,51.341,6.224,1878.974732
14 Sep 2023 21:39:00.000,52.234,5.971,1899.503444
14 Sep 2023 21:39:05.000,53.107,5.717,1920.426890
14 Sep 2023 21:39:10.000,53.960,5.463,1941.731760
14 Sep 2023 21:39:15.000,54.795,5.207,1963.405076
14 Sep 2023 21:39:20.000,55.611,4.951,1985.434200
14 Sep 2023 21:39:25.000,56.408,4.694,2007.806835
14 Sep 2023 21:39:30.000,57.188,4.437,2030.511042
14 Sep 2023 21:39:35.000,57.950,4.180,2053.535215
14 Sep 2023 21:39:40.000,58.695,3.924,2076.868109
14 Sep 2023 21:39:45.000,59.423,3.667,2100.498810
14 Sep 2023 21:39:50.000,60.135,3.411,2124.416756
14 Sep 2023 21:39:55.000,60.831,3.155,2148.611719
14 Sep 2023 21:40:00.000,61.511,2.900,2173.073802
14 Sep 2023 21:40:05.000,62.177,2.646,2197.793430
14 Sep 2023 21:40:10.000,62.827,2.392,2222.761359
14 Sep 2023 21:40:15.000,63.463,2.139,2247.968646
14 Sep 2023 21:40:20.000,64.085,1.887,2273.406653
14 Sep 2023 21:40:25.000,64.694,1.636,2299.067047
14 Sep 2023 21:40:30.000,65.289,1.386,2324.941773
14 Sep 2023 21:40:35.000,65.871,1.137,2351.023069
14 Sep 2023 21:40:40.000,66.441,0.889,2377.303430
14 Sep 2023 21:40:45.000,66.998,0.642,2403.775626
14 Sep 2023 21:40:50.000,67.544,0.396,2430.432679
14 Sep 2023 21:40:55.000,68.078,0.151,2457.267857
14 Sep 2023 21:40:58.097,68.403,0.000,2473.975156
14 Sep 2023 23:09:02.238,315.570,0.000,2478.940862
14 Sep 2023 23:09:07.000,315.801,0.282,2447.702809
14 Sep 2023 23:09:12.000,316.050,0.581,2414.937849
14 Sep 2023 23:09:17.000,316.305,0.884,2382.209354
14 Sep 2023 23:09:22.000,316.568,1.192,2349.519831
14 Sep 2023 23:09:27.000,316.837,1.503,2316.871911
14 Sep 2023 23:09:32.000,317.113,1.819,2284.268357
14 Sep 2023 23:09:37.000,317.397,2.139,2251.712076
14 Sep 2023 23:09:42.000,317.688,2.464,2219.206128
14 Sep 2023 23:09:47.000,317.988,2.794,2186.753734
14 Sep 2023 23:09:52.000,318.297,3.129,2154.358296
14 Sep 2023 23:09:57.000,318.615,3.469,2122.023393
14 Sep 2023 23:10:02.000,318.942,3.814,2089.752814
14 Sep 2023 23:10:07.000,319.280,4.165,2057.550561
14 Sep 2023 23:10:12.000,319.627,4.522,2025.420867
14 Sep 2023 23:10:17.000,319.986,4.885,1993.368209
14 Sep 2023 23:10:22.000,320.356,5.255,1961.397338
14 Sep 2023 23:10:27.000,320.739,5.631,1929.513289
14 Sep 2023 23:10:32.000,321.134,6.014,1897.721409
14 Sep 2023 23:10:37.000,321.543,6.405,1866.027370
14 Sep 2023 23:10:42.000,321.965,6.802,1834.437213
14 Sep 2023 23:10:47.000,322.403,7.208,1802.957357
14 Sep 2023 23:10:52.000,322.856,7.622,1771.594646
14 Sep 2023 23:10:57.000,323.326,8.044,1740.356368
14 Sep 2023 23:11:02.000,323.814,8.475,1709.250306
14 Sep 2023 23:11:07.000,324.320,8.916,1678.284761
14 Sep 2023 23:11:12.000,324.845,9.366,1647.468606
14 Sep 2023 23:11:17.000,325.391,9.826,1616.811333
14 Sep 2023 23:11:22.000,325.960,10.296,1586.323096
14 Sep 2023 23:11:27.000,326.551,10.777,1556.014772
14 Sep 2023 23:11:32.000,327.167,11.270,1525.898016
14 Sep 2023 23:11:37.000,327.810,11.774,1495.985330
14 Sep 2023 23:11:42.000,328.480,12.290,1466.290130
14 Sep 2023 23:11:47.000,329.180,12.818,1436.826824
14 Sep 2023 23:11:52.000,329.912,13.360,1407.610890
14 Sep 2023 23:11:57.000,330.677,13.915,1378.658964
14 Sep 2023 23:12:02.000,331.478,14.484,1349.988939
14 Sep 2023 23:12:07.000,332.317,15.066,1321.620056
14 Sep 2023 23:12:12.000,333.197,15.664,1293.573021
14 Sep 2023 23:12:17.000,334.120,16.276,1265.870107
14 Sep 2023 23:12:22.000,335.089,16.902,1238.535281
14 Sep 2023 23:12:27.000,336.108,17.545,1211.594320
14 Sep 2023 23:12:32.000,337.180,18.202,1185.074942
14 Sep 2023 23:12:37.000,338.308,18.874,1159.006928
14 Sep 2023 23:12:42.000,339.496,19.561,1133.422257
14 Sep 2023 23:12:47.000,340.749,20.263,1108.355216
14 Sep 2023 23:12:52.000,342.070,20.978,1083.842530
14 Sep 2023 23:12:57.000,343.464,21.706,1059.923450
14 Sep 2023 23:13:02.000,344.935,22.445,1036.639842
14 Sep 2023 23:13:07.000,346.489,23.195,1014.036239
14 Sep 2023 23:13:12.000,348.130,23.952,992.159855
14 Sep 2023 23:13:17.000,349.863,24.714,971.060562
14 Sep 2023 23:13:22.000,351.693,25.478,950.790792
14 Sep 2023 23:13:27.000,353.624,26.241,931.405378
14 Sep 2023 23:13:32.000,355.661,26.998,912.961306
14 Sep 2023 23:13:37.000,357.807,27.744,895.517364
14 Sep 2023 23:13:42.000,0.066,28.472,879.133683
14 Sep 2023 23:13:47.000,2.439,29.178,863.871156
14 Sep 2023 23:13:52.000,4.926,29.853,849.790726
14 Sep 2023 23:13:57.000,7.526,30.490,836.952554
14 Sep 2023 23:14:02.000,10.237,31.081,825.415071
14 Sep 2023 23:14:07.000,13.053,31.618,815.233928
14 Sep 2023 23:14:12.000,15.966,32.092,806.460884
14 Sep 2023 23:14:17.000,18.965,32.497,799.142660
14 Sep 2023 23:14:22.000,22.040,32.824,793.319824
14 Sep 2023 23:14:27.000,25.173,33.067,789.025746
14 Sep 2023 23:14:32.000,28.348,33.223,786.285676
14 Sep 2023 23:14:37.000,31.548,33.288,785.116100
14 Sep 2023 23:14:42.000,34.752,33.260,785.524135
14 Sep 2023 23:14:47.000,37.940,33.140,787.507406
14 Sep 2023 23:14:52.000,41.095,32.931,791.054107
14 Sep 2023 23:14:57.000,44.198,32.636,796.143334
14 Sep 2023 23:15:02.000,47.233,32.261,802.745698
14 Sep 2023 23:15:07.000,50.187,31.813,810.824140
14 Sep 2023 23:15:12.000,53.048,31.299,820.334917
14 Sep 2023 23:15:17.000,55.807,30.726,831.228688
14 Sep 2023 23:15:22.000,58.458,30.104,843.451646
14 Sep 2023 23:15:27.000,60.997,29.441,856.946662
14 Sep 2023 23:15:32.000,63.422,28.744,871.654359
14 Sep 2023 23:15:37.000,65.732,28.020,887.514127
14 Sep 2023 23:15:42.000,67.929,27.277,904.464999
14 Sep 2023 23:15:47.000,70.015,26.521,922.446432
14 Sep 2023 23:15:52.000,71.993,25.756,941.398953
14 Sep 2023 23:15:57.000,73.868,24.988,961.264671
14 Sep 2023 23:16:02.000,75.644,24.221,981.987689
14 Sep 2023 23:16:07.000,77.325,23.457,1003.514394
14 Sep 2023 23:16:12.000,78.917,22.701,1025.793663
14 Sep 2023 23:16:17.000,80.425,21.953,1048.776983
14 Sep 2023 23:16:22.000,81.852,21.217,1072.418525
14 Sep 2023 23:16:27.000,83.205,20.493,1096.675123
14 Sep 2023 23:16:32.000,84.487,19.782,1121.506260
14 Sep 2023 23:16:37.000,85.702,19.086,1146.873998
14 Sep 2023 23:16:42.000,86.856,18.404,1172.742869
14 Sep 2023 23:16:47.000,87.951,17.738,1199.079778
14 Sep 2023 23:16:52.000,88.992,17.086,1225.853887
14 Sep 2023 23:16:57.000,89.982,16.450,1253.036485
14 Sep 2023 23:17:02.000,90.925,15.829,1280.600861
14 Sep 2023 23:17:07.000,91.822,15.224,1308.522476
14 Sep 2023 23:17:12.000,92.677,14.632,1336.777639
14 Sep 2023 23:17:17.000,93.494,14.055,1365.345195
14 Sep 2023 23:17:22.000,94.273,13.493,1394.205190
14 Sep 2023 23:17:27.000,95.017,12.943,1423.339084
14 Sep 2023 23:17:32.000,95.729,12.407,1452.729640
14 Sep 2023 23:17:37.000,96.411,11.884,1482.360814
14 Sep 2023 23:17:42.000,97.064,11.373,1512.217685
14 Sep 2023 23:17:47.000,97.689,10.874,1542.286359
14 Sep 2023 23:17:52.000,98.289,10.387,1572.553893
14 Sep 2023 23:17:57.000,98.866,9.910,1603.008221
14 Sep 2023 23:18:02.000,99.419,9.444,1633.638089
14 Sep 2023 23:18:07.000,99.952,8.989,1664.432990
14 Sep 2023 23:18:12.000,100.464,8.543,1695.383118
14 Sep 2023 23:18:17.000,100.957,8.106,1726.479297
14 Sep 2023 23:18:22.000,101.432,7.679,1757.712943
14 Sep 2023 23:18:27.000,101.890,7.260,1789.076028
14 Sep 2023 23:18:32.000,102.331,6.850,1820.561015
14 Sep 2023 23:18:37.000,102.758,6.447,1852.160852
14 Sep 2023 23:18:42.000,103.170,6.053,1883.868903
14 Sep 2023 23:18:47.000,103.568,5.665,1915.678950
14 Sep 2023 23:18:52.000,103.952,5.285,1947.585132
14 Sep 2023 23:18:57.000,104.325,4.912,1979.581945
14 Sep 2023 23:19:02.000,104.686,4.545,2011.664204
14 Sep 2023 23:19:07.000,105.035,4.184,2043.827011
14 Sep 2023 23:19:12.000,105.373,3.830,2076.065757
14 Sep 2023 23:19:17.000,105.702,3.481,2108.376086
14 Sep 2023 23:19:22.000,106.020,3.137,2140.753884
14 Sep 2023 23:19:27.000,106.329,2.800,2173.195251
14 Sep 2023 23:19:32.000,106.629,2.467,2205.696503
14 Sep 2023 23:19:37.000,106.921,2.139,2238.254149
14 Sep 2023 23:19:42.000,107.205,1.816,2270.864877
14 Sep 2023 23:19:47.000,107.480,1.497,2303.525544
14 Sep 2023 23:19:52.000,107.749,1.183,2336.233170
14 Sep 2023 23:19:57.000,108.010,0.873,2368.984909
14 Sep 2023 23:20:02.000,108.264,0.567,2401.778067
14 Sep 2023 23:20:07.000,108.512,0.265,2434.610074
14 Sep 2023 23:20:11.447,108.727,0.000,2463.842169
15 Sep 2023 00:46:36.491,300.757,0.000,2475.988563
15 Sep 2023 00:46:41.000,300.528,0.266,2446.508674
15 Sep 2023 00:46:46.000,300.268,0.563,2413.862892
15 Sep 2023 00:46:51.000,299.999,0.864,2381.268683
15 Sep 2023 00:46:56.000,299.723,1.170,2348.729160
15 Sep 2023 00:47:01.000,299.438,1.479,2316.247592
15 Sep 2023 00:47:06.000,299.145,1.792,2283.827405
15 Sep 2023 00:47:11.000,298.843,2.109,2251.472214
15 Sep 2023 00:47:16.000,298.531,2.431,2219.185817
15 Sep 2023 00:47:21.000,298.210,2.757,2186.972217
15 Sep 2023 00:47:26.000,297.878,3.088,2154.835633
15 Sep 2023 00:47:31.000,297.536,3.424,2122.780510
15 Sep 2023 00:47:36.000,297.182,3.764,2090.811543
15 Sep 2023 00:47:41.000,296.817,4.111,2058.933697
15 Sep 2023 00:47:46.000,296.439,4.462,2027.152206
15 Sep 2023 00:47:51.000,296.048,4.819,1995.472619
15 Sep 2023 00:47:56.000,295.644,5.182,1963.900807
15 Sep 2023 00:48:01.000,295.226,5.552,1932.442980
15 Sep 2023 00:48:06.000,294.793,5.927,1901.105736
15 Sep 2023 00:48:11.000,294.344,6.309,1869.896061
15 Sep 2023 00:48:16.000,293.878,6.698,1838.821370
15 Sep 2023 00:48:21.000,293.396,7.093,1807.889552
15 Sep 2023 00:48:26.000,292.895,7.496,1777.108975
15 Sep 2023 00:48:31.000,292.375,7.906,1746.488555
15 Sep 2023 00:48:36.000,291.835,8.325,1716.037768
15 Sep 2023 00:48:41.000,291.274,8.751,1685.766708
15 Sep 2023 00:48:46.000,290.690,9.185,1655.686128
15 Sep 2023 00:48:51.000,290.083,9.628,1625.807493
15 Sep 2023 00:48:56.000,289.450,10.080,1596.143028
15 Sep 2023 00:49:01.000,288.792,10.540,1566.705777
15 Sep 2023 00:49:06.000,288.106,11.010,1537.509660
15 Sep 2023 00:49:11.000,287.390,11.490,1508.569547
15 Sep 2023 00:49:16.000,286.643,11.979,1479.901305
15 Sep 2023 00:49:21.000,285.864,12.478,1451.521895
15 Sep 2023 00:49:26.000,285.049,12.987,1423.449434
15 Sep 2023 00:49:31.000,284.198,13.506,1395.703271
15 Sep 2023 00:49:36.000,283.309,14.035,1368.304075
15 Sep 2023 00:49:41.000,282.378,14.574,1341.273916
15 Sep 2023 00:49:46.000,281.404,15.124,1314.636365
15 Sep 2023 00:49:51.000,280.383,15.684,1288.416549
15 Sep 2023 00:49:56.000,279.314,16.253,1262.641268
15 Sep 2023 00:50:01.000,278.194,16.832,1237.339063
15 Sep 2023 00:50:06.000,277.020,17.419,1212.540297
15 Sep 2023 00:50:11.000,275.789,18.015,1188.277215
15 Sep 2023 00:50:16.000,274.497,18.618,1164.584013
15 Sep 2023 00:50:21.000,273.142,19.228,1141.496870
15 Sep 2023 00:50:26.000,271.721,19.842,1119.053979
15 Sep 2023 00:50:31.000,270.231,20.460,1097.295518
15 Sep 2023 00:50:36.000,268.668,21.079,1076.263641
15 Sep 2023 00:50:41.000,267.030,21.697,1056.002371
15 Sep 2023 00:50:46.000,265.313,22.312,1036.557488
15 Sep 2023 00:50:51.000,263.516,22.921,1017.976332
15 Sep 2023 00:50:56.000,261.637,23.520,1000.307579
15 Sep 2023 00:51:01.000,259.674,24.106,983.600905
15 Sep 2023 00:51:06.000,257.626,24.675,967.906610
15 Sep 2023 00:51:11.000,255.494,25.222,953.275141
15 Sep 2023 00:51:16.000,253.278,25.742,939.756556
15 Sep 2023 00:51:21.000,250.980,26.231,927.399908
15 Sep 2023 00:51:26.000,248.603,26.683,916.252547
15 Sep 2023 00:51:31.000,246.153,27.094,906.359402
15 Sep 2023 00:51:36.000,243.634,27.458,897.762211
15 Sep 2023 00:51:41.000,241.054,27.771,890.498738
15 Sep 2023 00:51:46.000,238.422,28.027,884.602025
15 Sep 2023 00:51:51.000,235.747,28.225,880.099695
15 Sep 2023 00:51:56.000,233.041,28.360,877.013332
15 Sep 2023 00:52:01.000,230.314,28.431,875.357954
15 Sep 2023 00:52:06.000,227.580,28.436,875.141769
15 Sep 2023 00:52:11.000,224.850,28.375,876.365782
15 Sep 2023 00:52:16.000,222.138,28.250,879.023917
15 Sep 2023 00:52:21.000,219.453,28.062,883.103124
15 Sep 2023 00:52:26.000,216.809,27.813,888.583683
15 Sep 2023 00:52:31.000,214.215,27.508,895.439683
15 Sep 2023 00:52:36.000,211.679,27.151,903.639593
15 Sep 2023 00:52:41.000,209.210,26.745,913.146947
15 Sep 2023 00:52:46.000,206.814,26.297,923.921084
15 Sep 2023 00:52:51.000,204.495,25.811,935.917923
15 Sep 2023 00:52:56.000,202.256,25.293,949.090727
15 Sep 2023 00:53:01.000,200.102,24.747,963.390857
15 Sep 2023 00:53:06.000,198.031,24.178,978.768468
15 Sep 2023 00:53:11.000,196.046,23.591,995.173146
15 Sep 2023 00:53:16.000,194.144,22.990,1012.554482
15 Sep 2023 00:53:21.000,192.325,22.379,1030.862553
15 Sep 2023 00:53:26.000,190.587,21.760,1050.048338
15 Sep 2023 00:53:31.000,188.928,21.138,1070.064056
15 Sep 2023 00:53:36.000,187.344,20.515,1090.863430
15 Sep 2023 00:53:41.000,185.834,19.893,1112.401887
15 Sep 2023 00:53:46.000,184.394,19.274,1134.636702
15 Sep 2023 00:53:51.000,183.021,18.660,1157.527088
15 Sep 2023 00:53:56.000,181.711,18.051,1181.034256
15 Sep 2023 00:54:01.000,180.463,17.451,1205.121420
15 Sep 2023 00:54:06.000,179.272,16.858,1229.753791
15 Sep 2023 00:54:11.000,178.137,16.274,1254.898542
15 Sep 2023 00:54:16.000,177.053,15.699,1280.524752
15 Sep 2023 00:54:21.000,176.018,15.135,1306.603341
15 Sep 2023 00:54:26.000,175.030,14.580,1333.106997
15 Sep 2023 00:54:31.000,174.085,14.036,1360.010094
15 Sep 2023 00:54:36.000,173.183,13.502,1387.288607
15 Sep 2023 00:54:41.000,172.319,12.978,1414.920024
15 Sep 2023 00:54:46.000,171.493,12.465,1442.883265
15 Sep 2023 00:54:51.000,170.702,11.961,1471.158590
15 Sep 2023 00:54:56.000,169.944,11.468,1499.727524
15 Sep 2023 00:55:01.000,169.218,10.985,1528.573062
15 Sep 2023 00:55:06.000,168.521,10.511,1557.678427
15 Sep 2023 00:55:11.000,167.852,10.046,1587.028750
15 Sep 2023 00:55:16.000,167.210,9.591,1616.609832
15 Sep 2023 00:55:21.000,166.593,9.145,1646.408372
15 Sep 2023 00:55:26.000,166.000,8.707,1676.411906
15 Sep 2023 00:55:31.000,165.429,8.277,1706.608745
15 Sep 2023 00:55:36.000,164.880,7.856,1736.987927
15 Sep 2023 00:55:41.000,164.351,7.443,1767.539165
15 Sep 2023 00:55:46.000,163.842,7.037,1798.252797
15 Sep 2023 00:55:51.000,163.350,6.639,1829.119748
15 Sep 2023 00:55:56.000,162.877,6.247,1860.131484
15 Sep 2023 00:56:01.000,162.419,5.863,1891.279980
15 Sep 2023 00:56:06.000,161.978,5.485,1922.557677
15 Sep 2023 00:56:11.000,161.551,5.113,1953.957462
15 Sep 2023 00:56:16.000,161.139,4.748,1985.472623
15 Sep 2023 00:56:21.000,160.741,4.389,2017.096835
15 Sep 2023 00:56:26.000,160.355,4.035,2048.824124
15 Sep 2023 00:56:31.000,159.982,3.687,2080.648850
15 Sep 2023 00:56:36.000,159.620,3.344,2112.565682
15 Sep 2023 00:56:41.000,159.270,3.007,2144.569573
15 Sep 2023 00:56:46.000,158.931,2.674,2176.655750
15 Sep 2023 00:56:51.000,158.601,2.346,2208.819693
15 Sep 2023 00:56:56.000,158.282,2.023,2241.057110
15 Sep 2023 00:57:01.000,157.972,1.704,2273.363938
15 Sep 2023 00:57:06.000,157.671,1.389,2305.736314
15 Sep 2023 00:57:11.000,157.379,1.079,2338.170573
15 Sep 2023 00:57:16.000,157.095,0.772,2370.663224
15 Sep 2023 00:57:21.000,156.819,0.470,2403.210952
15 Sep 2023 00:57:26.000,156.551,0.171,2435.810597
15 Sep 2023 00:57:28.883,156.399,0.000,2454.631485
15 Sep 2023 16:00:13.236,204.861,0.000,2455.281799
15 Sep 2023 16:00:18.000,204.623,0.284,2424.027965
15 Sep 2023 16:00:23.000,204.366,0.586,2391.271559
15 Sep 2023 16:00:28.000,204.102,0.892,2358.563129
15 Sep 2023 16:00:33.000,203.831,1.202,2325.905691
15 Sep 2023 16:00:38.000,203.551,1.516,2293.302417
15 Sep 2023 16:00:43.000,203.263,1.834,2260.756641
15 Sep 2023 16:00:48.000,202.966,2.157,2228.271872
15 Sep 2023 16:00:53.000,202.660,2.484,2195.851805
15 Sep 2023 16:00:58.000,202.344,2.816,2163.500339
15 Sep 2023 16:01:03.000,202.018,3.153,2131.221578
15 Sep 2023 16:01:08.000,201.682,3.495,2099.019862
15 Sep 2023 16:01:13.000,201.335,3.843,2066.899773
15 Sep 2023 16:01:18.000,200.976,4.196,2034.866157
15 Sep 2023 16:01:23.000,200.606,4.556,2002.924138
15 Sep 2023 16:01:28.000,200.222,4.921,1971.079145
15 Sep 2023 16:01:33.000,199.826,5.292,1939.336931
15 Sep 2023 16:01:38.000,199.415,5.670,1907.703595
15 Sep 2023 16:01:43.000,198.990,6.055,1876.185612
15 Sep 2023 16:01:48.000,198.549,6.447,1844.789856
15 Sep 2023 16:01:53.000,198.092,6.846,1813.523640
15 Sep 2023 16:01:58.000,197.618,7.252,1782.394734
15 Sep 2023 16:02:03.000,197.125,7.667,1751.411416
15 Sep 2023 16:02:08.000,196.614,8.090,1720.582499
15 Sep 2023 16:02:13.000,196.083,8.521,1689.917380
15 Sep 2023 16:02:18.000,195.530,8.961,1659.426081
15 Sep 2023 16:02:23.000,194.955,9.409,1629.119298
15 Sep 2023 16:02:28.000,194.356,9.868,1599.008455
15 Sep 2023 16:02:33.000,193.733,10.336,1569.105757
15 Sep 2023 16:02:38.000,193.082,10.814,1539.424254
15 Sep 2023 16:02:43.000,192.404,11.302,1509.977905
15 Sep 2023 16:02:48.000,191.696,11.801,1480.781646
15 Sep 2023 16:02:53.000,190.957,12.311,1451.851466
15 Sep 2023 16:02:58.000,190.184,12.832,1423.204483
15 Sep 2023 16:03:03.000,189.376,13.365,1394.859032
15 Sep 2023 16:03:08.000,188.530,13.909,1366.834749
15 Sep 2023 16:03:13.000,187.644,14.464,1339.152664
15 Sep 2023 16:03:18.000,186.716,15.032,1311.835299
15 Sep 2023 16:03:23.000,185.743,15.611,1284.906762
15 Sep 2023 16:03:28.000,184.723,16.203,1258.392851
15 Sep 2023 16:03:33.000,183.652,16.805,1232.321153
15 Sep 2023 16:03:38.000,182.527,17.420,1206.721142
15 Sep 2023 16:03:43.000,181.346,18.045,1181.624271
15 Sep 2023 16:03:48.000,180.105,18.680,1157.064064
15 Sep 2023 16:03:53.000,178.800,19.325,1133.076185
15 Sep 2023 16:03:58.000,177.428,19.978,1109.698498
15 Sep 2023 16:04:03.000,175.985,20.638,1086.971106
15 Sep 2023 16:04:08.000,174.468,21.303,1064.936357
15 Sep 2023 16:04:13.000,172.872,21.972,1043.638814
15 Sep 2023 16:04:18.000,171.196,22.642,1023.125186
15 Sep 2023 16:04:23.000,169.434,23.309,1003.444194
15 Sep 2023 16:04:28.000,167.585,23.972,984.646389
15 Sep 2023 16:04:33.000,165.645,24.626,966.783884
15 Sep 2023 16:04:38.000,163.613,25.267,949.910008
15 Sep 2023 16:04:43.000,161.487,25.889,934.078875
15 Sep 2023 16:04:48.000,159.267,26.489,919.344861
15 Sep 2023 16:04:53.000,156.954,27.061,905.761978
15 Sep 2023 16:04:58.000,154.549,27.598,893.383168
15 Sep 2023 16:05:03.000,152.057,28.095,882.259517
15 Sep 2023 16:05:08.000,149.481,28.546,872.439399
15 Sep 2023 16:05:13.000,146.829,28.944,863.967584
15 Sep 2023 16:05:18.000,144.110,29.284,856.884350
15 Sep 2023 16:05:23.000,141.333,29.561,851.224602
15 Sep 2023 16:05:28.000,138.509,29.771,847.017074
15 Sep 2023 16:05:33.000,135.653,29.911,844.283626
15 Sep 2023 16:05:38.000,132.777,29.977,843.038745
15 Sep 2023 16:05:43.000,129.895,29.970,843.289063
15 Sep 2023 16:05:48.000,127.024,29.889,845.033279
15 Sep 2023 16:05:53.000,124.175,29.735,848.262156
15 Sep 2023 16:05:58.000,121.364,29.511,852.958773
15 Sep 2023 16:06:03.000,118.603,29.221,859.098951
15 Sep 2023 16:06:08.000,115.903,28.870,866.651864
15 Sep 2023 16:06:13.000,113.273,28.462,875.580761
15 Sep 2023 16:06:18.000,110.722,28.003,885.843810
15 Sep 2023 16:06:23.000,108.255,27.500,897.394969
15 Sep 2023 16:06:28.000,105.877,26.958,910.184897
15 Sep 2023 16:06:33.000,103.591,26.383,924.161823
15 Sep 2023 16:06:38.000,101.400,25.781,939.272384
15 Sep 2023 16:06:43.000,99.302,25.158,955.462390
15 Sep 2023 16:06:48.000,97.298,24.518,972.677510
15 Sep 2023 16:06:53.000,95.386,23.866,990.863843
15 Sep 2023 16:06:58.000,93.564,23.206,1009.968434
15 Sep 2023 16:07:03.000,91.829,22.541,1029.939661
15 Sep 2023 16:07:08.000,90.177,21.876,1050.727567
15 Sep 2023 16:07:13.000,88.607,21.211,1072.284085
15 Sep 2023 16:07:18.000,87.113,20.551,1094.563215
15 Sep 2023 16:07:23.000,85.693,19.896,1117.521123
15 Sep 2023 16:07:28.000,84.343,19.249,1141.116216
15 Sep 2023 16:07:33.000,83.058,18.610,1165.309132
15 Sep 2023 16:07:38.000,81.837,17.981,1190.062750
15 Sep 2023 16:07:43.000,80.674,17.362,1215.342120
15 Sep 2023 16:07:48.000,79.568,16.753,1241.114425
15 Sep 2023 16:07:53.000,78.514,16.156,1267.348873
15 Sep 2023 16:07:58.000,77.510,15.571,1294.016631
15 Sep 2023 16:08:03.000,76.553,14.997,1321.090718
15 Sep 2023 16:08:08.000,75.640,14.435,1348.545910
15 Sep 2023 16:08:13.000,74.769,13.885,1376.358936
15 Sep 2023 16:08:18.000,73.937,13.346,1404.507186
15 Sep 2023 16:08:23.000,73.142,12.819,1432.970396
15 Sep 2023 16:08:28.000,72.382,12.303,1461.729380
15 Sep 2023 16:08:33.000,71.655,11.798,1490.766211
15 Sep 2023 16:08:38.000,70.959,11.304,1520.064159
15 Sep 2023 16:08:43.000,70.293,10.820,1549.607592
15 Sep 2023 16:08:48.000,69.654,10.346,1579.381910
15 Sep 2023 16:08:53.000,69.041,9.882,1609.373466
15 Sep 2023 16:08:58.000,68.453,9.428,1639.569490
15 Sep 2023 16:09:03.000,67.888,8.983,1669.958052
15 Sep 2023 16:09:08.000,67.345,8.546,1700.527974
15 Sep 2023 16:09:13.000,66.824,8.119,1731.268791
15 Sep 2023 16:09:18.000,66.322,7.699,1762.170695
15 Sep 2023 16:09:23.000,65.839,7.288,1793.224486
15 Sep 2023 16:09:28.000,65.374,6.885,1824.421541
15 Sep 2023 16:09:33.000,64.926,6.489,1855.753753
15 Sep 2023 16:09:38.000,64.494,6.100,1887.213504
15 Sep 2023 16:09:43.000,64.077,5.718,1918.793641
15 Sep 2023 16:09:48.000,63.675,5.342,1950.487420
15 Sep 2023 16:09:53.000,63.287,4.973,1982.288497
15 Sep 2023 16:09:58.000,62.911,4.611,2014.190897
15 Sep 2023 16:10:03.000,62.549,4.254,2046.188973
15 Sep 2023 16:10:08.000,62.199,3.903,2078.277404
15 Sep 2023 16:10:13.000,61.860,3.557,2110.451165
15 Sep 2023 16:10:18.000,61.532,3.217,2142.705496
15 Sep 2023 16:10:23.000,61.214,2.882,2175.035902
15 Sep 2023 16:10:28.000,60.906,2.552,2207.438127
15 Sep 2023 16:10:33.000,60.608,2.226,2239.908137
15 Sep 2023 16:10:38.000,60.319,1.905,2272.442103
15 Sep 2023 16:10:43.000,60.039,1.589,2305.036395
15 Sep 2023 16:10:48.000,59.767,1.276,2337.687567
15 Sep 2023 16:10:53.000,59.503,0.968,2370.392343
15 Sep 2023 16:10:58.000,59.247,0.664,2403.147604
15 Sep 2023 16:11:03.000,58.998,0.363,2435.950386
15 Sep 2023 16:11:08.000,58.756,0.067,2468.797861
15 Sep 2023 16:11:09.125,58.703,0.000,2476.191901
15 Sep 2023 17:37:34.615,252.338,0.000,2464.438201
15 Sep 2023 17:37:39.000,252.558,0.261,2435.716301
15 Sep 2023 17:37:44.000,252.816,0.562,2403.006379
15 Sep 2023 17:37:49.000,253.080,0.866,2370.338337
15 Sep 2023 17:37:54.000,253.351,1.175,2337.714858
15 Sep 2023 17:37:59.000,253.630,1.487,2305.138764
15 Sep 2023 17:38:04.000,253.917,1.804,2272.613016
15 Sep 2023 17:38:09.000,254.211,2.126,2240.140734
15 Sep 2023 17:38:14.000,254.514,2.452,2207.725198
15 Sep 2023 17:38:19.000,254.826,2.783,2175.369869
15 Sep 2023 17:38:24.000,255.147,3.119,2143.078387
15 Sep 2023 17:38:29.000,255.478,3.460,2110.854599
15 Sep 2023 17:38:34.000,255.819,3.807,2078.702570
15 Sep 2023 17:38:39.000,256.170,4.159,2046.626595
15 Sep 2023 17:38:44.000,256.533,4.518,2014.631209
15 Sep 2023 17:38:49.000,256.907,4.882,1982.721224
15 Sep 2023 17:38:54.000,257.294,5.253,1950.901737
15 Sep 2023 17:38:59.000,257.693,5.630,1919.178143
15 Sep 2023 17:39:04.000,258.106,6.014,1887.556176
15 Sep 2023 17:39:09.000,258.533,6.405,1856.041929
15 Sep 2023 17:39:14.000,258.975,6.804,1824.641866
15 Sep 2023 17:39:19.000,259.433,7.210,1793.362878
15 Sep 2023 17:39:24.000,259.907,7.625,1762.212291
15 Sep 2023 17:39:29.000,260.399,8.048,1731.197912
15 Sep 2023 17:39:34.000,260.909,8.480,1700.328073
15 Sep 2023 17:39:39.000,261.439,8.920,1669.611657
15 Sep 2023 17:39:44.000,261.990,9.370,1639.058150
15 Sep 2023 17:39:49.000,262.562,9.830,1608.677700
15 Sep 2023 17:39:54.000,263.158,10.300,1578.481149
15 Sep 2023 17:39:59.000,263.778,10.781,1548.480100
15 Sep 2023 17:40:04.000,264.424,11.272,1518.686982
15 Sep 2023 17:40:09.000,265.097,11.775,1489.115107
15 Sep 2023 17:40:14.000,265.800,12.289,1459.778747
15 Sep 2023 17:40:19.000,266.534,12.816,1430.693211
15 Sep 2023 17:40:24.000,267.300,13.354,1401.874916
15 Sep 2023 17:40:29.000,268.102,13.906,1373.341490
15 Sep 2023 17:40:34.000,268.941,14.470,1345.111857
15 Sep 2023 17:40:39.000,269.820,15.048,1317.206327
15 Sep 2023 17:40:44.000,270.740,15.639,1289.646709
15 Sep 2023 17:40:49.000,271.706,16.244,1262.456424
15 Sep 2023 17:40:54.000,272.719,16.863,1235.660598
15 Sep 2023 17:40:59.000,273.784,17.496,1209.286189
15 Sep 2023 17:41:04.000,274.902,18.142,1183.362100
15 Sep 2023 17:41:09.000,276.079,18.801,1157.919278
15 Sep 2023 17:41:14.000,277.316,19.473,1132.990845
15 Sep 2023 17:41:19.000,278.619,20.157,1108.612170
15 Sep 2023 17:41:24.000,279.991,20.853,1084.820981
15 Sep 2023 17:41:29.000,281.436,21.559,1061.657413
15 Sep 2023 17:41:34.000,282.959,22.273,1039.164050
15 Sep 2023 17:41:39.000,284.564,22.993,1017.385948
15 Sep 2023 17:41:44.000,286.256,23.718,996.370579
15 Sep 2023 17:41:49.000,288.037,24.444,976.167764
15 Sep 2023 17:41:54.000,289.913,25.169,956.829490
15 Sep 2023 17:41:59.000,291.887,25.887,938.409709
15 Sep 2023 17:42:04.000,293.962,26.595,920.964000
15 Sep 2023 17:42:09.000,296.141,27.287,904.549162
15 Sep 2023 17:42:14.000,298.424,27.958,889.222694
15 Sep 2023 17:42:19.000,300.813,28.601,875.042156
15 Sep 2023 17:42:24.000,303.306,29.210,862.064437
15 Sep 2023 17:42:29.000,305.900,29.778,850.344912
15 Sep 2023 17:42:34.000,308.592,30.297,839.936509
15 Sep 2023 17:42:39.000,311.373,30.761,830.888726
15 Sep 2023 17:42:44.000,314.237,31.162,823.246604
15 Sep 2023 17:42:49.000,317.171,31.495,817.049730
15 Sep 2023 17:42:54.000,320.163,31.752,812.331274
15 Sep 2023 17:42:59.000,323.199,31.931,809.117158
15 Sep 2023 17:43:04.000,326.262,32.027,807.425334
15 Sep 2023 17:43:09.000,329.335,32.039,807.265399
15 Sep 2023 17:43:14.000,332.402,31.968,808.638146
15 Sep 2023 17:43:19.000,335.446,31.813,811.535678
15 Sep 2023 17:43:24.000,338.449,31.578,815.941587
15 Sep 2023 17:43:29.000,341.398,31.268,821.831408
15 Sep 2023 17:43:34.000,344.280,30.887,829.173275
15 Sep 2023 17:43:39.000,347.081,30.442,837.928734
15 Sep 2023 17:43:44.000,349.795,29.940,848.053679
15 Sep 2023 17:43:49.000,352.413,29.387,859.499352
15 Sep 2023 17:43:54.000,354.930,28.791,872.213364
15 Sep 2023 17:43:59.000,357.344,28.160,886.140693
15 Sep 2023 17:44:04.000,359.652,27.499,901.224626
15 Sep 2023 17:44:09.000,1.856,26.815,917.407622
15 Sep 2023 17:44:14.000,3.955,26.114,934.632070
15 Sep 2023 17:44:19.000,5.953,25.402,952.840943
15 Sep 2023 17:44:24.000,7.853,24.683,971.978341
15 Sep 2023 17:44:29.000,9.657,23.960,991.989929
15 Sep 2023 17:44:34.000,11.369,23.238,1012.823268
15 Sep 2023 17:44:39.000,12.995,22.519,1034.428067
15 Sep 2023 17:44:44.000,14.538,21.807,1056.756347
15 Sep 2023 17:44:49.000,16.002,21.102,1079.762547
15 Sep 2023 17:44:54.000,17.392,20.407,1103.403564
15 Sep 2023 17:44:59.000,18.712,19.722,1127.638758
15 Sep 2023 17:45:04.000,19.966,19.050,1152.429914
15 Sep 2023 17:45:09.000,21.157,18.390,1177.741181
15 Sep 2023 17:45:14.000,22.290,17.743,1203.538985
15 Sep 2023 17:45:19.000,23.369,17.110,1229.791940
15 Sep 2023 17:45:24.000,24.395,16.490,1256.470738
15 Sep 2023 17:45:29.000,25.374,15.884,1283.548031
15 Sep 2023 17:45:34.000,26.306,15.291,1310.998325
15 Sep 2023 17:45:39.000,27.196,14.712,1338.797871
15 Sep 2023 17:45:44.000,28.046,14.146,1366.924538
15 Sep 2023 17:45:49.000,28.858,13.593,1395.357717
15 Sep 2023 17:45:54.000,29.635,13.053,1424.078510
15 Sep 2023 17:45:59.000,30.378,12.526,1453.068446
15 Sep 2023 17:46:04.000,31.090,12.010,1482.311164
15 Sep 2023 17:46:09.000,31.772,11.506,1511.791137
15 Sep 2023 17:46:14.000,32.427,11.013,1541.493892
15 Sep 2023 17:46:19.000,33.055,10.532,1571.405930
15 Sep 2023 17:46:24.000,33.659,10.060,1601.514651
15 Sep 2023 17:46:29.000,34.239,9.599,1631.808292
15 Sep 2023 17:46:34.000,34.797,9.148,1662.275861
15 Sep 2023 17:46:39.000,35.334,8.706,1692.907080
15 Sep 2023 17:46:44.000,35.852,8.274,1723.692335
15 Sep 2023 17:46:49.000,36.351,7.850,1754.622626
15 Sep 2023 17:46:54.000,36.832,7.435,1785.689518
15 Sep 2023 17:46:59.000,37.297,7.027,1816.885100
15 Sep 2023 17:47:04.000,37.745,6.628,1848.201957
15 Sep 2023 17:47:09.000,38.179,6.236,1879.633116
15 Sep 2023 17:47:14.000,38.598,5.851,1911.172031
15 Sep 2023 17:47:19.000,39.003,5.473,1942.812539
15 Sep 2023 17:47:24.000,39.396,5.102,1974.548844
15 Sep 2023 17:47:29.000,39.776,4.737,2006.375480
15 Sep 2023 17:47:34.000,40.145,4.378,2038.287301
15 Sep 2023 17:47:39.000,40.502,4.025,2070.279440
15 Sep 2023 17:47:44.000,40.849,3.678,2102.347311
15 Sep 2023 17:47:49.000,41.186,3.336,2134.486577
15 Sep 2023 17:47:54.000,41.513,3.000,2166.693130
15 Sep 2023 17:47:59.000,41.830,2.668,2198.963087
15 Sep 2023 17:48:04.000,42.139,2.342,2231.292767
15 Sep 2023 17:48:09.000,42.439,2.020,2263.678683
15 Sep 2023 17:48:14.000,42.732,1.703,2296.117517
15 Sep 2023 17:48:19.000,43.016,1.390,2328.606127
15 Sep 2023 17:48:24.000,43.293,1.081,2361.141523
15 Sep 2023 17:48:29.000,43.563,0.776,2393.720860
15 Sep 2023 17:48:34.000,43.826,0.475,2426.341433
15 Sep 2023 17:48:39.000,44.083,0.178,2459.000661
15 Sep 2023 17:48:42.032,44.236,0.000,2478.819850
15 Sep 2023 19:16:49.204,292.413,0.000,2474.259768
15 Sep 2023 19:16:54.000,292.921,0.233,2448.524578
15 Sep 2023 19:16:59.000,293.463,0.477,2421.869261
15 Sep 2023 19:17:04.000,294.016,0.722,2395.396728
15 Sep 2023 19:17:09.000,294.581,0.968,2369.113841
15 Sep 2023 19:17:14.000,295.159,1.215,2343.027710
15 Sep 2023 19:17:19.000,295.749,1.463,2317.145709
15 Sep 2023 19:17:24.000,296.353,1.712,2291.475464
15 Sep 2023 19:17:29.000,296.969,1.962,2266.024890
15 Sep 2023 19:17:34.000,297.600,2.213,2240.802168
15 Sep 2023 19:17:39.000,298.244,2.465,2215.815786
15 Sep 2023 19:17:44.000,298.904,2.717,2191.074515
15 Sep 2023 19:17:49.000,299.578,2.970,2166.587433
15 Sep 2023 19:17:54.000,300.267,3.223,2142.363938
15 Sep 2023 19:17:59.000,300.972,3.477,2118.413738
15 Sep 2023 19:18:04.000,301.693,3.731,2094.746866
15 Sep 2023 19:18:09.000,302.430,3.986,2071.373686
15 Sep 2023 19:18:14.000,303.184,4.240,2048.304899
15 Sep 2023 19:18:19.000,303.956,4.495,2025.551531
15 Sep 2023 19:18:24.000,304.745,4.749,2003.124961
15 Sep 2023 19:18:29.000,305.552,5.003,1981.036903
15 Sep 2023 19:18:34.000,306.377,5.257,1959.299409
15 Sep 2023 19:18:39.000,307.221,5.510,1937.924871
15 Sep 2023 19:18:44.000,308.084,5.761,1916.926010
15 Sep 2023 19:18:49.000,308.966,6.012,1896.315887
15 Sep 2023 19:18:54.000,309.868,6.261,1876.107874
15 Sep 2023 19:18:59.000,310.790,6.509,1856.315648
15 Sep 2023 19:19:04.000,311.732,6.755,1836.953188
15 Sep 2023 19:19:09.000,312.695,6.998,1818.034755
15 Sep 2023 19:19:14.000,313.678,7.239,1799.574860
15 Sep 2023 19:19:19.000,314.682,7.477,1781.588256
15 Sep 2023 19:19:24.000,315.707,7.711,1764.089905
15 Sep 2023 19:19:29.000,316.753,7.942,1747.094948
15 Sep 2023 19:19:34.000,317.820,8.169,1730.618673
15 Sep 2023 19:19:39.000,318.908,8.392,1714.676468
15 Sep 2023 19:19:44.000,320.017,8.610,1699.283795
15 Sep 2023 19:19:49.000,321.147,8.822,1684.456125
15 Sep 2023 19:19:54.000,322.298,9.029,1670.208898
15 Sep 2023 19:19:59.000,323.469,9.229,1656.557469
15 Sep 2023 19:20:04.000,324.660,9.423,1643.517042
15 Sep 2023 19:20:09.000,325.871,9.610,1631.102613
15 Sep 2023 19:20:14.000,327.101,9.789,1619.328900
15 Sep 2023 19:20:19.000,328.349,9.959,1608.210281
15 Sep 2023 19:20:24.000,329.616,10.121,1597.760718
15 Sep 2023 19:20:29.000,330.899,10.275,1587.993687
15 Sep 2023 19:20:34.000,332.199,10.418,1578.922098
15 Sep 2023 19:20:39.000,333.515,10.551,1570.558229
15 Sep 2023 19:20:44.000,334.844,10.674,1562.913649
15 Sep 2023 19:20:49.000,336.187,10.786,1555.999147
15 Sep 2023 19:20:54.000,337.542,10.887,1549.824657
15 Sep 2023 19:20:59.000,338.908,10.976,1544.399203
15 Sep 2023 19:21:04.000,340.284,11.053,1539.730822
15 Sep 2023 19:21:09.000,341.668,11.118,1535.826521
15 Sep 2023 19:21:14.000,343.059,11.170,1532.692220
15 Sep 2023 19:21:19.000,344.455,11.210,1530.332707
15 Sep 2023 19:21:24.000,345.855,11.237,1528.751608
15 Sep 2023 19:21:29.000,347.257,11.251,1527.951352
15 Sep 2023 19:21:34.000,348.660,11.252,1527.933160
15 Sep 2023 19:21:39.000,350.063,11.240,1528.697030
15 Sep 2023 19:21:44.000,351.463,11.215,1530.241742
15 Sep 2023 19:21:49.000,352.859,11.177,1532.564859
15 Sep 2023 19:21:54.000,354.250,11.126,1535.662791
15 Sep 2023 19:21:59.000,355.635,11.063,1539.530685
15 Sep 2023 19:22:04.000,357.011,10.988,1544.162644
15 Sep 2023 19:22:09.000,358.377,10.900,1549.551657
15 Sep 2023 19:22:14.000,359.733,10.801,1555.689679
15 Sep 2023 19:22:19.000,1.077,10.691,1562.567684
15 Sep 2023 19:22:24.000,2.407,10.570,1570.175727
15 Sep 2023 19:22:29.000,3.723,10.438,1578.503014
15 Sep 2023 19:22:34.000,5.024,10.296,1587.537968
15 Sep 2023 19:22:39.000,6.309,10.145,1597.268300
15 Sep 2023 19:22:44.000,7.576,9.984,1607.681087
15 Sep 2023 19:22:49.000,8.825,9.815,1618.762844
15 Sep 2023 19:22:54.000,10.056,9.637,1630.499597
15 Sep 2023 19:22:59.000,11.268,9.452,1642.876956
15 Sep 2023 19:23:04.000,12.461,9.260,1655.880186
15 Sep 2023 19:23:09.000,13.633,9.061,1669.494278
15 Sep 2023 19:23:14.000,14.785,8.855,1683.704010
15 Sep 2023 19:23:19.000,15.916,8.644,1698.494015
15 Sep 2023 19:23:24.000,17.027,8.427,1713.848836
15 Sep 2023 19:23:29.000,18.116,8.206,1729.752984
15 Sep 2023 19:23:34.000,19.185,7.980,1746.190982
15 Sep 2023 19:23:39.000,20.232,7.750,1763.147422
