xian_to_bluewalker_3_53807_Access_AER.csv

"Time (UTCG)","Azimuth (deg)","Elevation (deg)","Range (km)"
14 Sep 2023 04:35:57.224,317.292,0.000,2608.173455
14 Sep 2023 04:36:57.000,318.361,3.944,2206.151675
14 Sep 2023 04:37:57.000,319.841,8.847,1805.478908
14 Sep 2023 04:38:57.000,322.119,15.469,1412.458181
14 Sep 2023 04:39:57.000,326.302,25.586,1038.370946
14 Sep 2023 04:40:57.000,337.034,43.437,716.333078
14 Sep 2023 04:41:57.000,32.825,67.743,549.745450
14 Sep 2023 04:42:57.000,107.105,48.076,668.185492
14 Sep 2023 04:43:57.000,120.745,28.078,972.338566
14 Sep 2023 04:44:57.000,125.538,16.933,1340.608342
14 Sep 2023 04:45:57.000,128.005,9.835,1731.615693
14 Sep 2023 04:46:57.000,129.536,4.683,2131.773299
14 Sep 2023 04:47:57.000,130.598,0.581,2535.535687
14 Sep 2023 04:48:06.435,130.737,0.000,2599.153745
14 Sep 2023 06:15:14.167,290.095,0.000,2608.329396
14 Sep 2023 06:16:14.000,283.343,2.907,2304.031822
14 Sep 2023 06:17:14.000,274.570,5.834,2037.549999
14 Sep 2023 06:18:14.000,263.334,8.499,1827.985007
14 Sep 2023 06:19:14.000,249.621,10.376,1697.420325
14 Sep 2023 06:20:14.000,234.412,10.860,1664.989640
14 Sep 2023 06:21:14.000,219.583,9.751,1736.200442
14 Sep 2023 06:22:14.000,206.755,7.473,1899.045908
14 Sep 2023 06:23:14.000,196.474,4.645,2131.951642
14 Sep 2023 06:24:14.000,188.486,1.695,2413.825002
14 Sep 2023 06:24:49.043,184.679,-0.000,2594.436187
14 Sep 2023 19:57:13.138,202.468,0.000,2552.980133
14 Sep 2023 19:58:13.000,199.238,3.829,2165.094503
14 Sep 2023 19:59:13.000,194.528,8.451,1787.564634
14 Sep 2023 20:00:13.000,187.138,14.288,1432.432288
14 Sep 2023 20:01:13.000,174.474,21.770,1123.334798
14 Sep 2023 20:02:13.000,151.735,29.752,910.374620
14 Sep 2023 20:03:13.000,118.524,31.886,868.569868
14 Sep 2023 20:04:13.000,90.499,25.427,1019.377111
14 Sep 2023 20:05:13.000,74.299,17.433,1296.835710
14 Sep 2023 20:06:13.000,65.170,10.969,1636.988067
14 Sep 2023 20:07:13.000,59.590,5.917,2007.199034
14 Sep 2023 20:08:13.000,55.901,1.803,2392.396638
14 Sep 2023 20:08:42.784,54.508,0.000,2586.710244
14 Sep 2023 21:35:45.122,252.515,0.000,2565.421080
14 Sep 2023 21:36:45.000,256.800,3.654,2193.569925
14 Sep 2023 21:37:45.000,262.808,7.932,1837.112551
14 Sep 2023 21:38:45.000,271.701,13.027,1510.124010
14 Sep 2023 21:39:45.000,285.511,18.860,1237.847043
14 Sep 2023 21:40:45.000,306.591,23.975,1064.414185
14 Sep 2023 21:41:45.000,333.029,24.847,1041.065560
14 Sep 2023 21:42:45.000,356.210,20.649,1176.678906
14 Sep 2023 21:43:45.000,11.919,14.835,1426.049029
14 Sep 2023 21:44:45.000,21.992,9.534,1740.088695
14 Sep 2023 21:45:45.000,28.712,5.070,2088.785562
14 Sep 2023 21:46:45.000,33.464,1.276,2456.252940
14 Sep 2023 21:47:07.222,34.889,-0.000,2595.259145
14 Sep 2023 23:17:00.082,300.331,0.000,2584.330337
14 Sep 2023 23:18:00.000,308.663,2.235,2349.793398
14 Sep 2023 23:19:00.000,318.624,4.181,2165.260395
14 Sep 2023 23:20:00.000,330.100,5.563,2045.466415
14 Sep 2023 23:21:00.000,342.544,6.100,2002.465040
14 Sep 2023 23:22:00.000,355.015,5.661,2041.189019
14 Sep 2023 23:23:00.000,6.563,4.362,2157.011256
14 Sep 2023 23:24:00.000,16.616,2.478,2338.016095
14 Sep 2023 23:25:00.000,25.053,0.283,2569.778323
14 Sep 2023 23:25:07.411,25.989,0.000,2601.250699
15 Sep 2023 00:58:10.180,331.635,0.000,2598.634268
15 Sep 2023 00:59:10.000,340.586,1.703,2417.502804
15 Sep 2023 01:00:10.000,350.761,2.969,2292.036490
15 Sep 2023 01:01:10.000,1.786,3.601,2232.877954
15 Sep 2023 01:02:10.000,13.043,3.481,2245.509915
15 Sep 2023 01:03:10.000,23.830,2.632,2328.722281
15 Sep 2023 01:04:10.000,33.611,1.210,2475.114753
15 Sep 2023 01:04:51.279,39.617,0.000,2606.912780
15 Sep 2023 02:36:40.574,331.126,0.000,2604.321942
15 Sep 2023 02:37:40.000,337.812,2.910,2301.338798
15 Sep 2023 02:38:40.000,346.471,5.917,2029.909572
15 Sep 2023 02:39:40.000,357.564,8.759,1810.098201
15 Sep 2023 02:40:40.000,11.274,10.940,1663.597346
15 Sep 2023 02:41:40.000,26.840,11.792,1611.256323
15 Sep 2023 02:42:40.000,42.422,10.967,1662.291184
15 Sep 2023 02:43:40.000,56.163,8.803,1807.871576
15 Sep 2023 02:44:40.000,67.281,5.965,2027.318457
15 Sep 2023 02:45:40.000,75.950,2.954,2298.923471
15 Sep 2023 02:46:40.000,82.686,0.009,2605.597330
15 Sep 2023 02:46:40.191,82.704,0.000,2606.618188
15 Sep 2023 04:14:39.877,317.173,0.000,2607.162355
15 Sep 2023 04:15:39.000,318.184,3.900,2209.305614
15 Sep 2023 04:16:39.000,319.591,8.796,1808.308420
15 Sep 2023 04:17:39.000,321.752,15.407,1414.788497
15 Sep 2023 04:18:39.000,325.709,25.514,1039.826492
15 Sep 2023 04:19:39.000,335.864,43.434,716.014160
15 Sep 2023 04:20:39.000,31.139,68.676,546.233098
15 Sep 2023 04:21:39.000,108.198,48.641,662.816043
15 Sep 2023 04:22:39.000,121.469,28.289,967.005296
15 Sep 2023 04:23:39.000,126.070,17.039,1335.588659
15 Sep 2023 04:24:39.000,128.430,9.902,1726.869481
15 Sep 2023 04:25:39.000,129.894,4.732,2127.245733
15 Sep 2023 04:26:39.000,130.910,0.620,2531.186555
15 Sep 2023 04:26:49.055,131.052,0.000,2599.013739
15 Sep 2023 05:53:57.787,289.814,0.000,2607.608589
15 Sep 2023 05:54:57.000,283.089,2.858,2308.104654
15 Sep 2023 05:55:57.000,274.290,5.757,2043.473965
15 Sep 2023 05:56:57.000,263.055,8.382,1836.046200
15 Sep 2023 05:57:57.000,249.391,10.214,1707.650699
15 Sep 2023 05:58:57.000,234.286,10.667,1676.970757
15 Sep 2023 05:59:57.000,219.580,9.558,1749.146305
15 Sep 2023 06:00:57.000,206.852,7.300,1912.176899
15 Sep 2023 06:01:57.000,196.632,4.501,2144.761153
15 Sep 2023 06:02:57.000,188.672,1.576,2426.077992
15 Sep 2023 06:03:29.802,185.100,0.000,2594.513641
15 Sep 2023 19:35:54.681,202.802,0.000,2552.008830
15 Sep 2023 19:36:54.000,199.657,3.798,2166.933464
15 Sep 2023 19:37:54.000,195.032,8.426,1788.328632
15 Sep 2023 19:38:54.000,187.763,14.286,1431.567384
15 Sep 2023 19:39:54.000,175.257,21.846,1119.929288
15 Sep 2023 19:40:54.000,152.571,30.043,903.353518
15 Sep 2023 19:41:54.000,118.918,32.382,858.295900
15 Sep 2023 19:42:54.000,90.425,25.808,1008.210034
15 Sep 2023 19:43:54.000,74.103,17.656,1286.221476
15 Sep 2023 19:44:54.000,64.978,11.106,1627.169560
15 Sep 2023 19:45:54.000,59.428,6.011,1998.080630
15 Sep 2023 19:46:54.000,55.770,1.872,2383.850225
15 Sep 2023 19:47:24.844,54.347,0.000,2585.355278
15 Sep 2023 21:14:27.888,252.834,0.000,2564.302437
15 Sep 2023 21:15:27.000,257.097,3.597,2197.759399
15 Sep 2023 21:16:27.000,263.133,7.852,1841.934171
15 Sep 2023 21:17:27.000,272.047,12.906,1515.754848
15 Sep 2023 21:18:27.000,285.841,18.669,1244.413152
15 Sep 2023 21:19:27.000,306.792,23.700,1071.681691
15 Sep 2023 21:20:27.000,332.991,24.567,1048.110125
15 Sep 2023 21:21:27.000,356.031,20.457,1182.562751
15 Sep 2023 21:22:27.000,11.732,14.722,1430.606456
15 Sep 2023 21:23:27.000,21.840,9.465,1743.571379
15 Sep 2023 21:24:27.000,28.599,5.024,2091.470564
15 Sep 2023 21:25:27.000,33.384,1.243,2458.347788
15 Sep 2023 21:25:48.696,34.788,-0.000,2593.876195
15 Sep 2023 22:55:43.534,300.650,0.000,2583.037371
15 Sep 2023 22:56:43.000,308.935,2.209,2351.127018
15 Sep 2023 22:57:43.000,318.901,4.143,2167.411528
15 Sep 2023 22:58:43.000,330.371,5.512,2048.487923
15 Sep 2023 22:59:43.000,342.796,6.038,2006.308675
15 Sep 2023 23:00:43.000,355.239,5.593,2045.697236
15 Sep 2023 23:01:43.000,6.757,4.293,2161.967956
15 Sep 2023 23:02:43.000,16.784,2.413,2343.217070
15 Sep 2023 23:03:43.000,25.203,0.223,2575.071074
15 Sep 2023 23:03:48.867,25.944,0.000,2599.942396
16 Sep 2023 00:36:52.661,331.762,0.000,2597.317127
16 Sep 2023 00:37:52.000,340.641,1.692,2417.316650
16 Sep 2023 00:38:52.000,350.814,2.964,2291.276323
16 Sep 2023 00:39:52.000,1.842,3.603,2231.539495
16 Sep 2023 00:40:52.000,13.108,3.488,2243.646828
16 Sep 2023 00:41:52.000,23.909,2.644,2326.436760
16 Sep 2023 00:42:52.000,33.704,1.223,2472.528787
16 Sep 2023 00:43:33.755,39.784,0.000,2605.833222
16 Sep 2023 02:15:22.161,331.088,0.000,2603.101431
16 Sep 2023 02:16:22.000,337.809,2.939,2297.278445
16 Sep 2023 02:17:22.000,346.468,5.961,2025.136180
16 Sep 2023 02:18:22.000,357.578,8.822,1804.604849
16 Sep 2023 02:19:22.000,11.328,11.021,1657.523116
16 Sep 2023 02:20:22.000,26.959,11.883,1604.942417
16 Sep 2023 02:21:22.000,42.605,11.051,1656.185946
16 Sep 2023 02:22:22.000,56.388,8.870,1802.321378
16 Sep 2023 02:23:22.000,67.524,6.014,2022.467874
16 Sep 2023 02:24:22.000,76.194,2.990,2294.768559
16 Sep 2023 02:25:22.000,82.923,0.035,2602.069281
16 Sep 2023 02:25:22.732,82.995,0.000,2605.982904
16 Sep 2023 03:53:21.443,317.057,0.000,2606.102741
16 Sep 2023 03:54:21.000,318.032,3.934,2205.130155
16 Sep 2023 03:55:21.000,319.378,8.845,1803.906392
16 Sep 2023 03:56:21.000,321.443,15.487,1410.117088
16 Sep 2023 03:57:21.000,325.231,25.675,1034.845497
16 Sep 2023 03:58:21.000,335.040,43.858,710.876082
16 Sep 2023 03:59:21.000,31.671,69.764,542.367900
16 Sep 2023 04:00:21.000,109.746,48.691,662.074623
16 Sep 2023 04:01:21.000,122.302,28.224,968.206021
16 Sep 2023 04:02:21.000,126.646,16.982,1337.716501
16 Sep 2023 04:03:21.000,128.877,9.858,1729.499249
16 Sep 2023 04:04:21.000,130.265,4.695,2130.182731
16 Sep 2023 04:05:21.000,131.229,0.589,2534.327235
16 Sep 2023 04:05:30.557,131.357,0.000,2598.820225
16 Sep 2023 05:32:40.309,289.537,0.000,2606.819001
16 Sep 2023 05:33:40.000,282.700,2.864,2306.838502
16 Sep 2023 05:34:40.000,273.834,5.733,2044.893900
16 Sep 2023 05:35:40.000,262.554,8.310,1840.803735
16 Sep 2023 05:36:40.000,248.900,10.079,1716.168063
16 Sep 2023 05:37:40.000,233.885,10.474,1689.078421
16 Sep 2023 05:38:40.000,219.323,9.337,1764.008737
16 Sep 2023 05:39:40.000,206.734,7.085,1928.704702
16 Sep 2023 05:40:40.000,196.616,4.307,2162.059266
16 Sep 2023 05:41:40.000,188.722,1.407,2443.576888
16 Sep 2023 05:42:09.480,185.512,0.000,2594.546167
16 Sep 2023 19:14:35.146,203.126,0.000,2551.105121
16 Sep 2023 19:15:35.000,199.996,3.842,2161.947079
16 Sep 2023 19:16:35.000,195.421,8.493,1782.578848
16 Sep 2023 19:17:35.000,188.208,14.400,1424.790588
16 Sep 2023 19:18:35.000,175.729,22.067,1111.834504
16 Sep 2023 19:19:35.000,152.872,30.449,894.082572
16 Sep 2023 19:20:35.000,118.695,32.818,849.419426
16 Sep 2023 19:21:35.000,89.960,26.030,1001.464304
16 Sep 2023 19:22:35.000,73.697,17.741,1281.600092
16 Sep 2023 19:23:35.000,64.666,11.137,1624.063617
16 Sep 2023 19:24:35.000,59.191,6.020,1996.012502
16 Sep 2023 19:25:35.000,55.589,1.872,2382.515048
16 Sep 2023 19:26:05.793,54.191,0.000,2583.982423
16 Sep 2023 20:53:09.545,253.145,0.000,2563.203072
16 Sep 2023 20:54:09.000,257.478,3.612,2195.188504
16 Sep 2023 20:55:09.000,263.580,7.858,1840.375642
16 Sep 2023 20:56:09.000,272.582,12.888,1515.709718
16 Sep 2023 20:57:09.000,286.470,18.589,1246.616064
16 Sep 2023 20:58:09.000,307.431,23.499,1076.854015
16 Sep 2023 20:59:09.000,333.428,24.261,1056.054822
16 Sep 2023 21:00:09.000,356.212,20.172,1191.944429
16 Sep 2023 21:01:09.000,11.780,14.509,1440.279326
16 Sep 2023 21:02:09.000,21.843,9.309,1753.058389
16 Sep 2023 21:03:09.000,28.593,4.905,2100.645542
16 Sep 2023 21:04:09.000,33.382,1.146,2467.203050
16 Sep 2023 21:04:29.078,34.689,0.000,2592.482168
16 Sep 2023 22:34:25.851,300.961,0.000,2581.759702
16 Sep 2023 22:35:25.000,309.218,2.187,2351.959703
16 Sep 2023 22:36:25.000,319.192,4.110,2169.156306
16 Sep 2023 22:37:25.000,330.659,5.465,2051.225370
16 Sep 2023 22:38:25.000,343.067,5.978,2010.011802
16 Sep 2023 22:39:25.000,355.482,5.525,2050.214941
16 Sep 2023 22:40:25.000,6.968,4.223,2167.073732
16 Sep 2023 22:41:25.000,16.968,2.345,2348.685319
16 Sep 2023 22:42:25.000,25.365,0.160,2580.725012
16 Sep 2023 22:42:29.229,25.900,0.000,2598.624663
17 Sep 2023 00:15:34.026,331.886,0.000,2595.995632
17 Sep 2023 00:16:34.000,340.871,1.709,2414.227849
17 Sep 2023 00:17:34.000,351.062,2.977,2288.765454
17 Sep 2023 00:18:34.000,2.104,3.608,2229.757395
17 Sep 2023 00:19:34.000,13.378,3.485,2242.690978
17 Sep 2023 00:20:34.000,24.177,2.633,2326.323459
17 Sep 2023 00:21:34.000,33.964,1.206,2473.199652
17 Sep 2023 00:22:15.103,39.946,0.000,2604.728999
17 Sep 2023 01:54:02.666,331.052,0.000,2601.822766
17 Sep 2023 01:55:02.000,337.692,2.923,2297.656788
17 Sep 2023 01:56:02.000,346.319,5.958,2024.193789
17 Sep 2023 01:57:02.000,357.405,8.843,1802.039780
17 Sep 2023 01:58:02.000,11.159,11.075,1653.129001
17 Sep 2023 01:59:02.000,26.836,11.970,1598.797792
17 Sep 2023 02:00:02.000,42.561,11.156,1648.727574
17 Sep 2023 02:01:02.000,56.423,8.973,1794.140562
17 Sep 2023 02:02:02.000,67.615,6.106,2014.047372
17 Sep 2023 02:03:02.000,76.320,3.068,2286.399803
17 Sep 2023 02:04:02.000,83.067,0.103,2593.897980
17 Sep 2023 02:04:04.131,83.277,-0.000,2605.303384
17 Sep 2023 03:32:01.919,316.944,0.000,2605.024950
17 Sep 2023 03:33:01.000,317.867,3.902,2207.054161
17 Sep 2023 03:34:01.000,319.146,8.809,1805.549322
17 Sep 2023 03:35:01.000,321.102,15.446,1411.341864
17 Sep 2023 03:36:01.000,324.683,25.634,1035.362846
17 Sep 2023 03:37:01.000,333.963,43.898,710.017589
17 Sep 2023 03:38:01.000,30.210,70.685,539.211401
17 Sep 2023 03:39:01.000,110.914,49.129,657.900558
17 Sep 2023 03:40:01.000,123.018,28.372,964.322085
17 Sep 2023 03:41:01.000,127.162,17.052,1334.197519
17 Sep 2023 03:42:01.000,129.287,9.900,1726.258209
17 Sep 2023 03:43:01.000,130.608,4.726,2127.152483
17 Sep 2023 03:44:01.000,131.527,0.613,2531.463700
17 Sep 2023 03:44:10.939,131.654,0.000,2598.560421
17 Sep 2023 05:11:21.723,289.265,0.000,2606.008642
17 Sep 2023 05:12:21.000,282.431,2.827,2309.754909
17 Sep 2023 05:13:21.000,273.535,5.668,2049.747000
17 Sep 2023 05:14:21.000,262.248,8.205,1847.925110
17 Sep 2023 05:15:21.000,248.635,9.929,1725.645672
17 Sep 2023 05:16:21.000,233.715,10.291,1700.551715
17 Sep 2023 05:17:21.000,219.271,9.149,1776.730221
17 Sep 2023 05:18:21.000,206.781,6.914,1941.892438
17 Sep 2023 05:19:21.000,196.728,4.161,2175.168594
17 Sep 2023 05:20:21.000,188.869,1.284,2456.322125
17 Sep 2023 05:20:48.079,185.914,0.000,2594.531051
17 Sep 2023 18:53:14.532,203.441,0.000,2550.257543
17 Sep 2023 18:54:14.000,200.383,3.821,2162.975383
17 Sep 2023 18:55:14.000,195.884,8.478,1782.653085
17 Sep 2023 18:56:14.000,188.781,14.409,1423.426172
17 Sep 2023 18:57:14.000,176.443,22.152,1108.236571
17 Sep 2023 18:58:14.000,153.622,30.741,887.333517
17 Sep 2023 18:59:14.000,119.001,33.297,839.963047
17 Sep 2023 19:00:14.000,89.830,26.378,991.514557
17 Sep 2023 19:01:14.000,73.477,17.936,1272.371122
17 Sep 2023 19:02:14.000,64.465,11.253,1615.672751
17 Sep 2023 19:03:14.000,59.026,6.097,1988.317920
17 Sep 2023 19:04:14.000,55.457,1.929,2375.373360
17 Sep 2023 19:04:45.637,54.040,0.000,2582.625040
17 Sep 2023 20:31:50.082,253.446,0.000,2562.167767
17 Sep 2023 20:32:50.000,257.858,3.635,2191.957403
17 Sep 2023 20:33:50.000,264.029,7.873,1838.184221
17 Sep 2023 20:34:50.000,273.124,12.881,1515.084800
17 Sep 2023 20:35:50.000,287.115,18.523,1248.340583
17 Sep 2023 20:36:50.000,308.098,23.311,1081.720331
17 Sep 2023 20:37:50.000,333.901,23.962,1063.925930
17 Sep 2023 20:38:50.000,356.428,19.888,1201.480840
17 Sep 2023 20:39:50.000,11.855,14.293,1450.275194
17 Sep 2023 20:40:50.000,21.866,9.149,1762.975351
17 Sep 2023 20:41:50.000,28.602,4.780,2110.316520
17 Sep 2023 20:42:50.000,33.391,1.045,2476.595858
17 Sep 2023 20:43:08.367,34.592,0.000,2591.078818
17 Sep 2023 22:13:07.038,301.263,0.000,2580.467721
17 Sep 2023 22:14:07.000,309.666,2.206,2348.810082
17 Sep 2023 22:15:07.000,319.677,4.109,2167.982326
17 Sep 2023 22:16:07.000,331.166,5.437,2052.363933
17 Sep 2023 22:17:07.000,343.567,5.920,2013.603053
17 Sep 2023 22:18:07.000,355.945,5.441,2056.109383
17 Sep 2023 22:19:07.000,7.376,4.124,2174.881118
17 Sep 2023 22:20:07.000,17.319,2.240,2357.927046
17 Sep 2023 22:21:07.000,25.667,0.056,2590.965607
17 Sep 2023 22:21:08.485,25.854,0.000,2597.252326
17 Sep 2023 23:54:14.286,332.007,0.000,2594.631714
17 Sep 2023 23:55:14.000,340.955,1.704,2413.431046
17 Sep 2023 23:56:14.000,351.148,2.975,2287.638151
17 Sep 2023 23:57:14.000,2.197,3.610,2228.328704
17 Sep 2023 23:58:14.000,13.479,3.489,2241.024576
17 Sep 2023 23:59:14.000,24.288,2.639,2324.504075
18 Sep 2023 00:00:14.000,34.084,1.213,2471.311584
18 Sep 2023 00:00:55.311,40.100,0.000,2603.555401
18 Sep 2023 01:32:42.073,331.017,0.000,2600.567337
18 Sep 2023 01:33:42.000,337.714,2.961,2292.723769
18 Sep 2023 01:34:42.000,346.350,6.010,2018.731728
18 Sep 2023 01:35:42.000,357.461,8.911,1796.113634
18 Sep 2023 01:36:42.000,11.265,11.158,1646.956380
18 Sep 2023 01:37:42.000,27.008,12.056,1592.772681
18 Sep 2023 01:38:42.000,42.791,11.229,1643.287519
18 Sep 2023 01:39:42.000,56.684,9.026,1789.559661
18 Sep 2023 01:40:42.000,67.884,6.140,2010.378947
18 Sep 2023 01:41:42.000,76.581,3.089,2283.563792
18 Sep 2023 01:42:42.000,83.315,0.115,2591.772744
18 Sep 2023 01:42:44.381,83.549,0.000,2604.544590
18 Sep 2023 03:10:41.314,316.834,0.000,2603.857778
18 Sep 2023 03:11:41.000,317.726,3.949,2201.631776
18 Sep 2023 03:12:41.000,318.948,8.874,1799.939494
18 Sep 2023 03:13:41.000,320.815,15.549,1405.536547
18 Sep 2023 03:14:41.000,324.240,25.830,1029.402851
18 Sep 2023 03:15:41.000,333.204,44.381,704.285188
18 Sep 2023 03:16:41.000,31.256,71.779,535.694686
18 Sep 2023 03:17:41.000,112.489,49.033,658.395378
18 Sep 2023 03:18:41.000,123.827,28.241,966.994602
18 Sep 2023 03:19:41.000,127.714,16.960,1337.836622
18 Sep 2023 03:20:41.000,129.714,9.831,1730.398409
18 Sep 2023 03:21:41.000,130.961,4.671,2131.589549
18 Sep 2023 03:22:41.000,131.830,0.567,2536.091426
18 Sep 2023 03:22:50.204,131.942,0.000,2598.248429
18 Sep 2023 04:50:02.041,288.996,0.000,2605.108032
18 Sep 2023 04:51:02.000,282.025,2.842,2307.406996
18 Sep 2023 04:52:02.000,273.058,5.654,2050.192860
18 Sep 2023 04:53:02.000,261.720,8.143,1851.858533
18 Sep 2023 04:54:02.000,248.111,9.803,1733.530096
18 Sep 2023 04:55:02.000,233.275,10.106,1712.251373
18 Sep 2023 04:56:02.000,218.969,8.934,1791.431304
18 Sep 2023 04:57:02.000,206.618,6.701,1958.504439
18 Sep 2023 04:58:02.000,196.671,3.966,2192.769588
18 Sep 2023 04:59:02.000,188.881,1.112,2474.302714
18 Sep 2023 04:59:25.592,186.308,-0.000,2594.429750
18 Sep 2023 18:31:52.846,203.745,0.000,2549.423430
18 Sep 2023 18:32:52.000,200.752,3.805,2163.583054
18 Sep 2023 18:33:52.000,196.326,8.470,1782.367233
18 Sep 2023 18:34:52.000,189.326,14.424,1421.798111
18 Sep 2023 18:35:52.000,177.121,22.242,1104.533182
18 Sep 2023 18:36:52.000,154.328,31.032,880.720785
18 Sep 2023 18:37:52.000,119.263,33.766,830.920804
18 Sep 2023 18:38:52.000,89.674,26.710,982.175955
18 Sep 2023 18:39:52.000,73.245,18.118,1263.835726
18 Sep 2023 18:40:52.000,64.260,11.359,1607.996881
18 Sep 2023 18:41:52.000,58.860,6.166,1981.337156
18 Sep 2023 18:42:52.000,55.325,1.978,2368.936654
18 Sep 2023 18:43:24.373,53.894,0.000,2581.277898
18 Sep 2023 20:10:29.511,253.738,0.000,2561.127254
18 Sep 2023 20:11:29.000,258.152,3.601,2194.114843
18 Sep 2023 20:12:29.000,264.358,7.820,1841.031617
18 Sep 2023 20:13:29.000,273.487,12.795,1518.866266
18 Sep 2023 20:14:29.000,287.488,18.376,1253.317276
18 Sep 2023 20:15:29.000,308.386,23.081,1087.898895
18 Sep 2023 20:16:29.000,333.988,23.706,1070.641721
18 Sep 2023 20:17:29.000,356.364,19.692,1207.805243
18 Sep 2023 20:18:29.000,11.752,14.164,1455.817900
18 Sep 2023 20:19:29.000,21.773,9.062,1767.773931
18 Sep 2023 20:20:29.000,28.530,4.718,2114.515087
18 Sep 2023 20:21:29.000,33.342,0.997,2480.326079
18 Sep 2023 20:21:46.565,34.499,0.000,2589.676143
18 Sep 2023 21:51:47.085,301.556,0.000,2579.209010
18 Sep 2023 21:52:47.000,309.973,2.195,2348.669654
18 Sep 2023 21:53:47.000,319.998,4.084,2168.951612
18 Sep 2023 21:54:47.000,331.489,5.396,2054.576545
18 Sep 2023 21:55:47.000,343.876,5.863,2017.069844
18 Sep 2023 21:56:47.000,356.226,5.373,2060.687154
18 Sep 2023 21:57:47.000,7.622,4.050,2180.319719
18 Sep 2023 21:58:47.000,17.532,2.167,2363.957880
18 Sep 2023 21:59:46.653,25.810,0.000,2595.898818
18 Sep 2023 23:32:53.424,332.124,0.000,2593.283784
18 Sep 2023 23:33:53.000,341.055,1.702,2412.333097
18 Sep 2023 23:34:53.000,351.252,2.975,2286.332701
18 Sep 2023 23:35:53.000,2.308,3.612,2226.861341
18 Sep 2023 23:36:53.000,13.599,3.492,2239.463608
18 Sep 2023 23:37:53.000,24.416,2.642,2322.925060
18 Sep 2023 23:38:53.000,34.219,1.216,2469.779626
18 Sep 2023 23:39:34.396,40.251,0.000,2602.376950
19 Sep 2023 01:11:20.400,330.984,0.000,2599.245942
19 Sep 2023 01:12:20.000,337.624,2.953,2292.248405
19 Sep 2023 01:13:20.000,346.236,6.015,2017.123835
19 Sep 2023 01:14:20.000,357.332,8.937,1793.141935
19 Sep 2023 01:15:20.000,11.145,11.213,1642.489038
19 Sep 2023 01:16:20.000,26.936,12.138,1586.935048
19 Sep 2023 01:17:20.000,42.792,11.323,1636.502229
19 Sep 2023 01:18:20.000,56.754,9.115,1782.347545
19 Sep 2023 01:19:20.000,68.000,6.217,2003.135348
19 Sep 2023 01:20:20.000,76.723,3.153,2276.506915
19 Sep 2023 01:21:20.000,83.469,0.169,2584.996943
19 Sep 2023 01:21:23.493,83.812,-0.000,2603.757182
19 Sep 2023 02:49:19.617,316.727,0.000,2602.671305
19 Sep 2023 02:50:19.000,317.573,3.930,2202.306453
19 Sep 2023 02:51:19.000,318.733,8.854,1800.372245
19 Sep 2023 02:52:19.000,320.500,15.529,1405.625394
19 Sep 2023 02:53:19.000,323.733,25.823,1028.940045
19 Sep 2023 02:54:19.000,332.211,44.474,702.828731
19 Sep 2023 02:55:19.000,30.131,72.696,532.847716
19 Sep 2023 02:56:19.000,113.703,49.334,655.401498
19 Sep 2023 02:57:19.000,124.527,28.325,964.547486
19 Sep 2023 02:58:19.000,128.211,16.994,1335.806894
19 Sep 2023 02:59:19.000,130.105,9.850,1728.652578
19 Sep 2023 03:00:19.000,131.287,4.683,2130.048052
19 Sep 2023 03:01:19.000,132.113,0.576,2534.706126
19 Sep 2023 03:01:28.349,132.221,0.000,2597.859488
19 Sep 2023 04:28:41.244,288.734,0.000,2604.207445
19 Sep 2023 04:29:41.000,281.741,2.815,2309.178932
19 Sep 2023 04:30:41.000,272.738,5.600,2053.995633
19 Sep 2023 04:31:41.000,261.386,8.050,1858.069738
19 Sep 2023 04:32:41.000,247.811,9.665,1742.290266
19 Sep 2023 04:33:41.000,233.062,9.933,1723.249716
19 Sep 2023 04:34:41.000,218.870,8.751,1803.950584
19 Sep 2023 04:35:41.000,206.619,6.531,1971.757891
19 Sep 2023 04:36:41.000,196.739,3.818,2206.177224
19 Sep 2023 04:37:41.000,188.989,0.985,2487.532274
19 Sep 2023 04:38:02.023,186.693,0.000,2594.260848
19 Sep 2023 18:10:30.073,204.041,0.000,2548.684294
19 Sep 2023 18:11:30.000,201.047,3.864,2157.287143
19 Sep 2023 18:12:30.000,196.658,8.554,1775.468828
19 Sep 2023 18:13:30.000,189.696,14.559,1414.128265
19 Sep 2023 18:14:30.000,177.489,22.486,1095.972390
19 Sep 2023 18:15:30.000,154.481,31.452,871.695523
19 Sep 2023 18:16:30.000,118.871,34.170,823.244778
19 Sep 2023 18:17:30.000,89.118,26.872,977.330154
19 Sep 2023 18:18:30.000,72.807,18.155,1261.371046
19 Sep 2023 18:19:30.000,63.938,11.355,1607.095688
19 Sep 2023 18:20:30.000,58.621,6.149,1981.455419
19 Sep 2023 18:21:30.000,55.145,1.958,2369.750916
19 Sep 2023 18:22:01.999,53.753,0.000,2579.910452
19 Sep 2023 19:49:07.818,254.022,0.000,2560.157813
19 Sep 2023 19:50:07.000,258.446,3.574,2195.579735
19 Sep 2023 19:51:07.000,264.688,7.777,1843.206507
19 Sep 2023 19:52:07.000,273.858,12.721,1522.018841
19 Sep 2023 19:53:07.000,287.877,18.244,1257.756529
19 Sep 2023 19:54:07.000,308.705,22.867,1093.715707
19 Sep 2023 19:55:07.000,334.118,23.458,1077.257424
19 Sep 2023 19:56:07.000,356.338,19.495,1214.287835
19 Sep 2023 19:57:07.000,11.677,14.030,1461.699344
19 Sep 2023 19:58:07.000,21.699,8.970,1773.020610
19 Sep 2023 19:59:07.000,28.472,4.650,2119.227234
19 Sep 2023 20:00:07.000,33.302,0.944,2484.610286
19 Sep 2023 20:00:23.671,34.407,-0.000,2588.270673
19 Sep 2023 21:30:26.001,301.842,0.000,2577.938868
19 Sep 2023 21:31:26.000,310.291,2.188,2348.042332
19 Sep 2023 21:32:26.000,320.334,4.064,2169.534968
19 Sep 2023 21:33:26.000,331.831,5.358,2056.530909
19 Sep 2023 21:34:26.000,344.205,5.808,2020.424825
19 Sep 2023 21:35:26.000,356.526,5.304,2065.302947
19 Sep 2023 21:36:26.000,7.886,3.975,2185.933617
19 Sep 2023 21:37:26.000,17.761,2.092,2370.279169
19 Sep 2023 21:38:23.715,25.765,0.000,2594.495068
19 Sep 2023 23:11:31.456,332.239,0.000,2591.898839
19 Sep 2023 23:12:31.000,341.170,1.702,2410.934426
19 Sep 2023 23:13:31.000,351.374,2.976,2284.850373
19 Sep 2023 23:14:31.000,2.437,3.614,2225.357514
19 Sep 2023 23:15:31.000,13.736,3.494,2238.011171
19 Sep 2023 23:16:31.000,24.561,2.643,2321.590221
19 Sep 2023 23:17:31.000,34.368,1.215,2468.608022
19 Sep 2023 23:18:12.339,40.393,0.000,2601.133759
20 Sep 2023 00:49:57.633,330.952,0.000,2597.927744
20 Sep 2023 00:50:57.000,337.548,2.949,2291.346618
20 Sep 2023 00:51:57.000,346.139,6.023,2015.184814
20 Sep 2023 00:52:57.000,357.224,8.965,1789.970160
20 Sep 2023 00:53:57.000,11.051,11.268,1637.990101
20 Sep 2023 00:54:57.000,26.890,12.217,1581.257162
20 Sep 2023 00:55:57.000,42.816,11.412,1630.059826
20 Sep 2023 00:56:57.000,56.841,9.197,1775.625321
20 Sep 2023 00:57:57.000,68.128,6.286,1996.484655
20 Sep 2023 00:58:57.000,76.872,3.210,2270.109458
20 Sep 2023 00:59:57.000,83.628,0.217,2578.921613
20 Sep 2023 01:00:01.456,84.066,0.000,2602.897285
20 Sep 2023 02:27:56.829,316.623,0.000,2601.460918
20 Sep 2023 02:28:56.000,317.426,3.917,2202.350995
20 Sep 2023 02:29:56.000,318.526,8.842,1800.193629
20 Sep 2023 02:30:56.000,320.197,15.521,1405.138879
20 Sep 2023 02:31:56.000,323.249,25.833,1027.978416
20 Sep 2023 02:32:56.000,331.265,44.593,701.064254
20 Sep 2023 02:33:56.000,29.163,73.605,530.149124
20 Sep 2023 02:34:56.000,114.936,49.569,652.988465
20 Sep 2023 02:35:56.000,125.217,28.378,962.809994
20 Sep 2023 02:36:56.000,128.698,17.011,1334.514837
20 Sep 2023 02:37:56.000,130.487,9.856,1727.648842
20 Sep 2023 02:38:56.000,131.606,4.686,2129.246466
20 Sep 2023 02:39:56.000,132.389,0.578,2534.056243
20 Sep 2023 02:40:05.377,132.491,0.000,2597.424830
20 Sep 2023 04:07:19.349,288.475,0.000,2603.210871
20 Sep 2023 04:08:19.000,281.449,2.794,2310.368108
20 Sep 2023 04:09:19.000,272.407,5.552,2057.262550
20 Sep 2023 04:10:19.000,261.039,7.963,1863.816157
20 Sep 2023 04:11:19.000,247.493,9.532,1750.684726
20 Sep 2023 04:12:19.000,232.828,9.764,1734.007400
20 Sep 2023 04:13:19.000,218.747,8.571,1816.368601
20 Sep 2023 04:14:19.000,206.596,6.362,1985.045210
20 Sep 2023 04:15:19.000,196.786,3.669,2219.734922
20 Sep 2023 04:16:19.000,189.077,0.856,2501.004398
20 Sep 2023 04:16:37.375,187.069,0.000,2594.025036
20 Sep 2023 17:49:06.223,204.327,0.000,2547.957034
20 Sep 2023 17:50:06.000,201.385,3.859,2156.999368
20 Sep 2023 17:51:06.000,197.061,8.558,1774.397652
20 Sep 2023 17:52:06.000,190.189,14.588,1411.891386
20 Sep 2023 17:53:06.000,178.095,22.590,1091.956330
20 Sep 2023 17:54:06.000,155.090,31.749,865.254538
20 Sep 2023 17:55:06.000,119.028,34.617,814.996037
20 Sep 2023 17:56:06.000,88.904,27.165,969.236843
20 Sep 2023 17:57:06.000,72.554,18.305,1254.255248
20 Sep 2023 17:58:06.000,63.725,11.438,1600.878481
20 Sep 2023 17:59:06.000,58.452,6.201,1975.926878
20 Sep 2023 18:00:06.000,55.013,1.994,2364.745976
20 Sep 2023 18:00:38.527,53.617,0.000,2578.622831
20 Sep 2023 19:27:45.006,254.296,0.000,2559.223027
20 Sep 2023 19:28:45.000,258.827,3.620,2190.315508
20 Sep 2023 19:29:45.000,265.147,7.820,1839.060474
20 Sep 2023 19:30:45.000,274.423,12.747,1519.596573
20 Sep 2023 19:31:45.000,288.571,18.216,1257.986666
20 Sep 2023 19:32:45.000,309.456,22.716,1097.613977
20 Sep 2023 19:33:45.000,334.703,23.181,1084.884986
20 Sep 2023 19:34:45.000,356.660,19.209,1224.292142
20 Sep 2023 19:35:45.000,11.832,13.801,1472.681019
20 Sep 2023 19:36:45.000,21.779,8.794,1784.249723
20 Sep 2023 19:37:45.000,28.522,4.511,2130.411008
20 Sep 2023 19:38:45.000,33.342,0.829,2495.641779
20 Sep 2023 19:38:59.684,34.319,0.000,2586.866731
20 Sep 2023 21:09:03.770,302.117,0.000,2576.716965
20 Sep 2023 21:10:03.000,310.468,2.152,2350.363077
20 Sep 2023 21:11:03.000,320.505,4.021,2172.192504
20 Sep 2023 21:12:03.000,331.989,5.309,2059.487621
20 Sep 2023 21:13:03.000,344.345,5.754,2023.589708
20 Sep 2023 21:14:03.000,356.646,5.251,2068.550524
20 Sep 2023 21:15:03.000,7.989,3.926,2189.144481
20 Sep 2023 21:16:03.000,17.853,2.048,2373.370898
20 Sep 2023 21:16:59.688,25.721,0.000,2593.112882
20 Sep 2023 22:50:08.365,332.350,0.000,2590.535975
20 Sep 2023 22:51:08.000,341.300,1.705,2409.236024
20 Sep 2023 22:52:08.000,351.512,2.979,2283.193140
20 Sep 2023 22:53:08.000,2.585,3.616,2223.820212
20 Sep 2023 22:54:08.000,13.892,3.494,2236.671158
20 Sep 2023 22:55:08.000,24.722,2.641,2320.504080
20 Sep 2023 22:56:08.000,34.532,1.211,2467.801610
20 Sep 2023 22:56:49.158,40.532,0.000,2599.890631
21 Sep 2023 00:28:33.781,330.922,0.000,2596.561613
21 Sep 2023 00:29:33.000,337.485,2.949,2290.012678
21 Sep 2023 00:30:33.000,346.059,6.035,2012.908302
21 Sep 2023 00:31:33.000,357.138,8.997,1786.591727
21 Sep 2023 00:32:33.000,10.982,11.323,1633.453873
21 Sep 2023 00:33:33.000,26.871,12.293,1575.735706
21 Sep 2023 00:34:33.000,42.864,11.495,1623.960040
21 Sep 2023 00:35:33.000,56.945,9.272,1769.395041
21 Sep 2023 00:36:33.000,68.268,6.348,1990.430070
21 Sep 2023 00:37:33.000,77.030,3.260,2264.374923
21 Sep 2023 00:38:33.000,83.792,0.257,2573.550142
21 Sep 2023 00:38:38.280,84.310,-0.000,2602.004627
21 Sep 2023 02:06:32.948,316.522,0.000,2600.233075
21 Sep 2023 02:07:32.000,317.285,3.910,2201.760525
21 Sep 2023 02:08:32.000,318.328,8.837,1799.397832
21 Sep 2023 02:09:32.000,319.906,15.524,1404.069647
21 Sep 2023 02:10:32.000,322.785,25.860,1026.507896
21 Sep 2023 02:11:32.000,330.362,44.741,698.977504
21 Sep 2023 02:12:32.000,28.384,74.509,527.586390
21 Sep 2023 02:13:32.000,116.181,49.736,651.151498
21 Sep 2023 02:14:32.000,125.896,28.399,961.778831
21 Sep 2023 02:15:32.000,129.173,17.010,1333.957761
21 Sep 2023 02:16:32.000,130.860,9.851,1727.384998
21 Sep 2023 02:17:32.000,131.916,4.681,2129.182967
21 Sep 2023 02:18:32.000,132.656,0.573,2534.140242
21 Sep 2023 02:18:41.287,132.753,0.000,2596.915503
21 Sep 2023 03:45:56.337,288.222,0.000,2602.217184
21 Sep 2023 03:46:56.000,281.149,2.778,2310.977415
21 Sep 2023 03:47:56.000,272.065,5.510,2059.998648
21 Sep 2023 03:48:56.000,260.677,7.882,1869.105042
21 Sep 2023 03:49:56.000,247.156,9.405,1758.722068
21 Sep 2023 03:50:56.000,232.571,9.600,1744.532423
21 Sep 2023 03:51:56.000,218.601,8.394,1828.690909
21 Sep 2023 03:52:56.000,206.549,6.193,1998.368989
21 Sep 2023 03:53:56.000,196.811,3.518,2233.442906
21 Sep 2023 03:54:56.000,189.147,0.724,2514.717820
21 Sep 2023 03:55:11.647,187.435,0.000,2593.722251
21 Sep 2023 17:27:41.282,204.603,0.000,2547.335702
21 Sep 2023 17:28:41.000,201.707,3.859,2156.249075
21 Sep 2023 17:29:41.000,197.443,8.568,1772.919095
21 Sep 2023 17:30:41.000,190.656,14.624,1409.336470
21 Sep 2023 17:31:41.000,178.663,22.701,1087.774115
21 Sep 2023 17:32:41.000,155.647,32.047,858.897669
21 Sep 2023 17:33:41.000,119.132,35.052,807.147236
21 Sep 2023 17:34:41.000,88.661,27.439,961.767589
21 Sep 2023 17:35:41.000,72.290,18.441,1247.849927
21 Sep 2023 17:36:41.000,63.509,11.511,1595.391981
21 Sep 2023 17:37:41.000,58.283,6.245,1971.126788
21 Sep 2023 17:38:41.000,54.882,2.023,2360.460089
21 Sep 2023 17:39:13.945,53.486,0.000,2577.323894
21 Sep 2023 19:06:21.075,254.562,0.000,2558.329889
21 Sep 2023 19:07:21.000,259.121,3.609,2190.392669
21 Sep 2023 19:08:21.000,265.483,7.796,1839.896477
21 Sep 2023 19:09:21.000,274.809,12.697,1521.510671
21 Sep 2023 19:10:21.000,288.994,18.112,1261.386414
21 Sep 2023 19:11:21.000,309.835,22.528,1102.749189
21 Sep 2023 19:12:21.000,334.912,22.946,1091.324596
21 Sep 2023 19:13:21.000,356.707,19.010,1231.093305
21 Sep 2023 19:14:21.000,11.810,13.658,1479.234767
21 Sep 2023 19:15:21.000,21.743,8.691,1790.388480
21 Sep 2023 19:16:21.000,28.492,4.433,2136.149226
21 Sep 2023 19:17:21.000,33.322,0.766,2501.035689
21 Sep 2023 19:17:34.605,34.233,0.000,2585.469192
21 Sep 2023 20:47:40.403,302.385,0.000,2575.500387
21 Sep 2023 20:48:40.000,310.810,2.156,2348.756232
21 Sep 2023 20:49:40.000,320.871,4.009,2172.001092
21 Sep 2023 20:50:40.000,332.367,5.277,2060.926017
21 Sep 2023 20:51:40.000,344.714,5.702,2026.725407
21 Sep 2023 20:52:40.000,356.985,5.182,2073.250347
21 Sep 2023 20:53:40.000,8.288,3.847,2195.119898
21 Sep 2023 20:54:40.000,18.112,1.967,2380.286000
21 Sep 2023 20:55:34.557,25.677,0.000,2591.699024
21 Sep 2023 22:28:44.163,332.458,0.000,2589.155906
21 Sep 2023 22:29:44.000,341.445,1.711,2407.239449
21 Sep 2023 22:30:44.000,351.669,2.984,2281.363682
21 Sep 2023 22:31:44.000,2.752,3.618,2222.253226
21 Sep 2023 22:32:44.000,14.067,3.493,2235.448260
21 Sep 2023 22:33:44.000,24.900,2.636,2319.671887
21 Sep 2023 22:34:44.000,34.709,1.203,2467.365842
21 Sep 2023 22:35:24.838,40.663,0.000,2598.598887
22 Sep 2023 00:07:08.836,330.894,0.000,2595.189975
22 Sep 2023 00:08:08.000,337.435,2.954,2288.241232
22 Sep 2023 00:09:08.000,345.997,6.052,2010.288500
22 Sep 2023 00:10:08.000,357.074,9.030,1783.000836
22 Sep 2023 00:11:08.000,10.939,11.379,1628.875627
22 Sep 2023 00:12:08.000,26.878,12.367,1570.368382
22 Sep 2023 00:13:08.000,42.934,11.572,1618.203483
22 Sep 2023 00:14:08.000,57.068,9.340,1763.659419
22 Sep 2023 00:15:08.000,68.421,6.402,1984.975229
22 Sep 2023 00:16:08.000,77.196,3.303,2259.307085
22 Sep 2023 00:17:08.000,83.961,0.291,2568.886091
22 Sep 2023 00:17:13.960,84.545,-0.000,2601.054407
22 Sep 2023 01:45:07.981,316.424,0.000,2598.932576
22 Sep 2023 01:46:07.000,317.149,3.910,2200.530231
22 Sep 2023 01:47:07.000,318.137,8.842,1797.979192
22 Sep 2023 01:48:07.000,319.628,15.538,1402.410680
22 Sep 2023 01:49:07.000,322.341,25.906,1024.519185
22 Sep 2023 01:50:07.000,329.501,44.920,696.556033
22 Sep 2023 01:51:07.000,27.836,75.410,525.149944
22 Sep 2023 01:52:07.000,117.430,49.834,649.886965
22 Sep 2023 01:53:07.000,126.563,28.389,961.451032
22 Sep 2023 01:54:07.000,129.637,16.991,1334.133151
22 Sep 2023 01:55:07.000,131.222,9.834,1727.858973
22 Sep 2023 01:56:07.000,132.217,4.666,2129.855844
22 Sep 2023 01:57:07.000,132.916,0.560,2534.956707
22 Sep 2023 01:57:16.080,133.005,0.000,2596.353780
22 Sep 2023 03:24:32.218,287.973,0.000,2601.155563
22 Sep 2023 03:25:32.000,280.841,2.768,2311.009923
22 Sep 2023 03:26:32.000,271.712,5.473,2062.209248
22 Sep 2023 03:27:32.000,260.300,7.807,1873.944078
22 Sep 2023 03:28:32.000,246.801,9.283,1766.411434
22 Sep 2023 03:29:32.000,232.294,9.439,1754.833460
22 Sep 2023 03:30:32.000,218.431,8.218,1840.923851
22 Sep 2023 03:31:32.000,206.480,6.024,2011.732634
22 Sep 2023 03:32:32.000,196.815,3.367,2247.302173
22 Sep 2023 03:33:32.000,189.197,0.591,2528.671959
22 Sep 2023 03:33:44.842,187.792,0.000,2593.352844
22 Sep 2023 17:06:15.261,204.869,0.000,2546.724336
22 Sep 2023 17:07:15.000,202.014,3.865,2155.022804
22 Sep 2023 17:08:15.000,197.806,8.585,1771.018041
22 Sep 2023 17:09:15.000,191.095,14.668,1406.446196
22 Sep 2023 17:10:15.000,179.193,22.819,1083.406441
22 Sep 2023 17:11:15.000,156.152,32.349,852.608348
22 Sep 2023 17:12:15.000,119.181,35.474,799.694359
22 Sep 2023 17:13:15.000,88.389,27.693,954.927045
22 Sep 2023 17:14:15.000,72.015,18.560,1242.160842
22 Sep 2023 17:15:15.000,63.289,11.572,1590.641534
22 Sep 2023 17:16:15.000,58.113,6.280,1967.060168
22 Sep 2023 17:17:15.000,54.750,2.046,2356.898112
22 Sep 2023 17:17:48.257,53.360,0.000,2576.048257
22 Sep 2023 18:44:56.019,254.818,0.000,2557.498305
22 Sep 2023 18:45:56.000,259.416,3.607,2189.764488
22 Sep 2023 18:46:56.000,265.823,7.781,1840.052056
22 Sep 2023 18:47:56.000,275.204,12.658,1522.795836
22 Sep 2023 18:48:56.000,289.435,18.021,1264.259805
22 Sep 2023 18:49:56.000,310.246,22.353,1107.542864
22 Sep 2023 18:50:56.000,335.161,22.716,1097.681690
22 Sep 2023 18:51:56.000,356.790,18.809,1238.061788
22 Sep 2023 18:52:56.000,11.816,13.509,1486.132753
22 Sep 2023 18:53:56.000,21.726,8.582,1796.981041
22 Sep 2023 18:54:56.000,28.476,4.349,2142.408022
22 Sep 2023 18:55:56.000,33.313,0.699,2506.991849
22 Sep 2023 18:56:08.434,34.149,0.000,2584.080517
22 Sep 2023 20:26:15.894,302.644,0.000,2574.306776
22 Sep 2023 20:27:15.000,311.011,2.131,2350.077442
22 Sep 2023 20:28:15.000,321.073,3.975,2173.863510
22 Sep 2023 20:29:15.000,332.562,5.235,2063.348039
22 Sep 2023 20:30:15.000,344.894,5.652,2029.656498
22 Sep 2023 20:31:15.000,357.145,5.128,2076.573548
22 Sep 2023 20:32:15.000,8.428,3.794,2198.690170
22 Sep 2023 20:33:15.000,18.235,1.917,2383.974535
22 Sep 2023 20:34:08.329,25.633,0.000,2590.284165
22 Sep 2023 22:07:18.845,332.563,0.000,2587.776165
22 Sep 2023 22:08:18.000,341.446,1.695,2407.552306
22 Sep 2023 22:09:18.000,351.664,2.974,2280.934018
22 Sep 2023 22:10:18.000,2.749,3.616,2221.052821
22 Sep 2023 22:11:18.000,14.073,3.499,2233.524046
22 Sep 2023 22:12:18.000,24.922,2.648,2317.139347
22 Sep 2023 22:13:18.000,34.748,1.218,2464.374593
22 Sep 2023 22:13:59.385,40.788,0.000,2597.284418
22 Sep 2023 23:45:42.799,330.867,0.000,2593.806952
22 Sep 2023 23:46:42.000,337.399,2.962,2286.027306
22 Sep 2023 23:47:42.000,345.953,6.072,2007.320171
22 Sep 2023 23:48:42.000,357.032,9.067,1779.192476
22 Sep 2023 23:49:42.000,10.923,11.436,1624.251613
22 Sep 2023 23:50:42.000,26.912,12.438,1565.153923
22 Sep 2023 23:51:42.000,43.029,11.643,1612.791670
22 Sep 2023 23:52:42.000,57.209,9.400,1758.421827
22 Sep 2023 23:53:42.000,68.587,6.448,1980.124210
22 Sep 2023 23:54:42.000,77.371,3.338,2254.910014
22 Sep 2023 23:55:42.000,84.136,0.318,2564.933215
22 Sep 2023 23:55:48.497,84.771,-0.000,2600.056947
23 Sep 2023 01:23:41.920,316.329,0.000,2597.619350
23 Sep 2023 01:24:41.000,317.019,3.917,2198.655330
23 Sep 2023 01:25:41.000,317.955,8.854,1795.932191
23 Sep 2023 01:26:41.000,319.361,15.564,1400.155278
23 Sep 2023 01:27:41.000,321.915,25.971,1022.003698
23 Sep 2023 01:28:41.000,328.679,45.131,693.789169
23 Sep 2023 01:29:41.000,27.568,76.312,522.833283
23 Sep 2023 01:30:41.000,118.675,49.862,649.192467
23 Sep 2023 01:31:41.000,127.214,28.348,961.823995
23 Sep 2023 01:32:41.000,130.088,16.955,1335.038689
23 Sep 2023 01:33:41.000,131.574,9.806,1729.068844
23 Sep 2023 01:34:41.000,132.509,4.642,2131.263512
23 Sep 2023 01:35:41.000,133.168,0.540,2536.504323
23 Sep 2023 01:35:49.757,133.249,0.000,2595.732869
23 Sep 2023 03:03:06.993,287.730,0.000,2600.028008
23 Sep 2023 03:04:06.000,280.658,2.716,2314.986530
23 Sep 2023 03:05:06.000,271.518,5.399,2067.564872
23 Sep 2023 03:06:06.000,260.117,7.704,1880.823913
23 Sep 2023 03:07:06.000,246.664,9.152,1774.746946
23 Sep 2023 03:08:06.000,232.234,9.292,1764.253542
23 Sep 2023 03:09:06.000,218.455,8.074,1850.866739
23 Sep 2023 03:10:06.000,206.568,5.897,2021.690635
23 Sep 2023 03:11:06.000,196.941,3.260,2256.959701
23 Sep 2023 03:12:06.000,189.341,0.502,2537.887205
23 Sep 2023 03:12:16.960,188.139,0.000,2592.916541
23 Sep 2023 16:44:48.148,205.127,0.000,2546.203861
23 Sep 2023 16:45:48.000,202.304,3.877,2153.307468
23 Sep 2023 16:46:48.000,198.148,8.609,1768.679886
23 Sep 2023 16:47:48.000,191.507,14.720,1403.203992
23 Sep 2023 16:48:48.000,179.684,22.947,1078.835069
23 Sep 2023 16:49:48.000,156.602,32.655,846.371391
23 Sep 2023 16:50:48.000,119.171,35.883,792.634684
23 Sep 2023 16:51:48.000,88.089,27.925,948.720461
23 Sep 2023 16:52:48.000,71.731,18.663,1237.193929
23 Sep 2023 16:53:48.000,63.066,11.621,1586.632567
23 Sep 2023 16:54:48.000,57.942,6.307,1963.732096
23 Sep 2023 16:55:48.000,54.619,2.062,2354.064967
23 Sep 2023 16:56:21.463,53.239,0.000,2574.798906
23 Sep 2023 18:23:29.841,255.064,0.000,2556.699535
23 Sep 2023 18:24:29.000,259.621,3.548,2194.426373
23 Sep 2023 18:25:29.000,266.038,7.702,1845.123563
23 Sep 2023 18:26:29.000,275.416,12.545,1528.330438
23 Sep 2023 18:27:29.000,289.604,17.858,1270.194374
23 Sep 2023 18:28:29.000,310.292,22.145,1113.468959
23 Sep 2023 18:29:29.000,335.046,22.529,1102.798670
23 Sep 2023 18:30:29.000,356.606,18.690,1241.829791
23 Sep 2023 18:31:29.000,11.646,13.443,1488.628614
23 Sep 2023 18:32:29.000,21.594,8.544,1798.513478
23 Sep 2023 18:33:29.000,28.378,4.325,2143.250036
23 Sep 2023 18:34:29.000,33.245,0.683,2507.336606
23 Sep 2023 18:34:41.171,34.069,0.000,2582.704150
23 Sep 2023 20:04:50.243,302.894,0.000,2573.139085
23 Sep 2023 20:05:50.000,311.379,2.145,2347.508978
23 Sep 2023 20:06:50.000,321.471,3.972,2172.923975
23 Sep 2023 20:07:50.000,332.976,5.209,2064.304583
23 Sep 2023 20:08:50.000,345.302,5.602,2032.611214
23 Sep 2023 20:09:50.000,357.523,5.058,2081.395857
23 Sep 2023 20:10:50.000,8.762,3.712,2205.062837
23 Sep 2023 20:11:50.000,18.523,1.830,2391.515404
23 Sep 2023 20:12:41.004,25.589,0.000,2588.868228
23 Sep 2023 21:45:52.409,332.665,0.000,2586.399656
23 Sep 2023 21:46:52.000,341.623,1.707,2404.960550
23 Sep 2023 21:47:52.000,351.856,2.983,2278.762939
23 Sep 2023 21:48:52.000,2.954,3.619,2219.431036
23 Sep 2023 21:49:52.000,14.285,3.495,2232.541646
23 Sep 2023 21:50:52.000,25.133,2.637,2316.822790
23 Sep 2023 21:51:52.000,34.954,1.203,2464.688934
23 Sep 2023 21:52:32.799,40.908,0.000,2595.948493
23 Sep 2023 23:24:15.670,330.841,0.000,2592.411338
23 Sep 2023 23:25:15.000,337.377,2.976,2283.366295
23 Sep 2023 23:26:15.000,345.926,6.096,2003.998651
23 Sep 2023 23:27:15.000,357.013,9.107,1775.162438
23 Sep 2023 23:28:15.000,10.932,11.493,1619.579094
23 Sep 2023 23:29:15.000,26.973,12.506,1560.092136
23 Sep 2023 23:30:15.000,43.147,11.708,1607.727049
23 Sep 2023 23:31:15.000,57.368,9.453,1753.686326
23 Sep 2023 23:32:15.000,68.765,6.487,1975.881533
23 Sep 2023 23:33:15.000,77.553,3.365,2251.188050
23 Sep 2023 23:34:15.000,84.315,0.337,2561.695453
23 Sep 2023 23:34:21.892,84.988,-0.000,2599.014024
24 Sep 2023 01:02:14.759,316.237,0.000,2596.318218
24 Sep 2023 01:03:14.000,316.894,3.930,2196.131083
24 Sep 2023 01:04:14.000,317.780,8.875,1793.251438
24 Sep 2023 01:05:14.000,319.105,15.602,1397.297048
24 Sep 2023 01:06:14.000,321.509,26.054,1018.953558
24 Sep 2023 01:07:14.000,327.895,45.377,690.668021
24 Sep 2023 01:08:14.000,27.647,77.214,520.633085
24 Sep 2023 01:09:14.000,119.910,49.819,649.066881
24 Sep 2023 01:10:14.000,127.849,28.276,962.895519
24 Sep 2023 01:11:14.000,130.526,16.902,1336.672277
24 Sep 2023 01:12:14.000,131.915,9.765,1731.012858
24 Sep 2023 01:13:14.000,132.791,4.610,2133.404542
24 Sep 2023 01:14:14.000,133.411,0.512,2538.781903
24 Sep 2023 01:14:22.317,133.484,0.000,2595.053806
24 Sep 2023 02:41:40.644,287.493,0.000,2598.908112
24 Sep 2023 02:42:40.000,280.332,2.717,2313.841701
24 Sep 2023 02:43:40.000,271.142,5.374,2068.699182
24 Sep 2023 02:44:40.000,259.710,7.640,1884.738335
24 Sep 2023 02:45:40.000,246.271,9.040,1781.719232
24 Sep 2023 02:46:40.000,231.912,9.140,1774.092222
24 Sep 2023 02:47:40.000,218.238,7.903,1862.913255
24 Sep 2023 02:48:40.000,206.453,5.728,2035.130540
24 Sep 2023 02:49:40.000,196.903,3.106,2271.119924
24 Sep 2023 02:50:40.000,189.355,0.365,2552.321799
24 Sep 2023 02:50:48.001,188.477,0.000,2592.410321
24 Sep 2023 16:23:19.946,205.374,0.000,2545.735674
24 Sep 2023 16:24:19.000,202.635,3.825,2157.605619
24 Sep 2023 16:25:19.000,198.554,8.551,1772.193458
24 Sep 2023 16:26:19.000,192.034,14.663,1405.452795
24 Sep 2023 16:27:19.000,180.402,22.926,1078.919179
24 Sep 2023 16:28:19.000,157.519,32.817,842.857777
24 Sep 2023 16:29:19.000,119.754,36.336,785.023958
24 Sep 2023 16:30:19.000,88.139,28.303,939.182265
24 Sep 2023 16:31:19.000,71.628,18.887,1227.493235
24 Sep 2023 16:32:19.000,62.948,11.761,1577.249245
24 Sep 2023 16:33:19.000,57.838,6.404,1954.718741
24 Sep 2023 16:34:19.000,54.534,2.135,2345.387811
24 Sep 2023 16:34:53.564,53.123,0.000,2573.578805
24 Sep 2023 18:02:02.538,255.302,0.000,2555.950524
24 Sep 2023 18:03:02.000,259.917,3.561,2192.363607
24 Sep 2023 18:04:02.000,266.385,7.707,1843.894336
24 Sep 2023 18:05:02.000,275.828,12.530,1528.334283
24 Sep 2023 18:06:02.000,290.082,17.796,1271.993877
24 Sep 2023 18:07:02.000,310.768,21.997,1117.564985
24 Sep 2023 18:08:02.000,335.377,22.311,1108.986810
24 Sep 2023 18:09:02.000,356.762,18.485,1249.137734
24 Sep 2023 18:10:02.000,11.705,13.284,1496.224619
24 Sep 2023 18:11:02.000,21.615,8.424,1806.025570
24 Sep 2023 18:12:02.000,28.389,4.231,2150.563165
24 Sep 2023 18:13:02.000,33.256,0.605,2514.431123
24 Sep 2023 18:13:12.815,33.991,0.000,2581.343368
24 Sep 2023 19:43:23.446,303.134,0.000,2572.000029
24 Sep 2023 19:44:23.000,311.606,2.129,2347.844327
24 Sep 2023 19:45:23.000,321.705,3.947,2174.012505
24 Sep 2023 19:46:23.000,333.209,5.173,2066.219606
24 Sep 2023 19:47:23.000,345.522,5.555,2035.339972
24 Sep 2023 19:48:23.000,357.722,5.004,2084.826671
24 Sep 2023 19:49:23.000,8.937,3.656,2209.022748
24 Sep 2023 19:50:23.000,18.677,1.775,2395.828374
24 Sep 2023 19:51:12.581,25.546,0.000,2587.453919
24 Sep 2023 21:24:24.856,332.764,0.000,2585.029471
24 Sep 2023 21:25:24.000,341.655,1.696,2404.684423
24 Sep 2023 21:26:24.000,351.887,2.976,2277.998488
24 Sep 2023 21:27:24.000,2.988,3.618,2218.182703
24 Sep 2023 21:28:24.000,14.328,3.498,2230.864341
24 Sep 2023 21:29:24.000,25.189,2.644,2314.811622
24 Sep 2023 21:30:24.000,35.021,1.211,2462.452901
24 Sep 2023 21:31:05.079,41.022,0.000,2594.592827
24 Sep 2023 23:02:47.448,330.817,0.000,2591.007026
24 Sep 2023 23:03:47.000,337.369,2.993,2280.253970
24 Sep 2023 23:04:47.000,345.917,6.124,2000.319850
24 Sep 2023 23:05:47.000,357.017,9.149,1770.907329
24 Sep 2023 23:06:47.000,10.969,11.550,1614.856361
24 Sep 2023 23:07:47.000,27.063,12.571,1555.183927
24 Sep 2023 23:08:47.000,43.291,11.767,1603.013017
24 Sep 2023 23:09:47.000,57.545,9.497,1749.457653
24 Sep 2023 23:10:47.000,68.955,6.518,1972.252175
24 Sep 2023 23:11:47.000,77.743,3.385,2248.145828
24 Sep 2023 23:12:47.000,84.499,0.350,2559.176909
24 Sep 2023 23:12:54.140,85.194,0.000,2597.902289
25 Sep 2023 00:40:46.509,316.149,0.000,2594.963160
25 Sep 2023 00:41:46.000,316.775,3.950,2192.952774
25 Sep 2023 00:42:46.000,317.612,8.905,1789.931646
25 Sep 2023 00:43:46.000,318.860,15.652,1393.829878
25 Sep 2023 00:44:46.000,321.119,26.158,1015.361563
25 Sep 2023 00:45:46.000,327.147,45.660,687.185486
25 Sep 2023 00:46:46.000,28.155,78.115,518.549318
25 Sep 2023 00:47:46.000,121.125,49.707,649.510409
25 Sep 2023 00:48:46.000,128.466,28.174,964.663834
25 Sep 2023 00:49:46.000,130.950,16.832,1339.032068
25 Sep 2023 00:50:46.000,132.244,9.714,1733.689456
25 Sep 2023 00:51:46.000,133.064,4.569,2136.277654
25 Sep 2023 00:52:46.000,133.646,0.478,2541.788409
25 Sep 2023 00:52:53.762,133.710,0.000,2594.317663
25 Sep 2023 02:20:13.185,287.260,0.000,2597.721322
25 Sep 2023 02:21:13.000,279.997,2.723,2312.129595
25 Sep 2023 02:22:13.000,270.753,5.355,2069.324666
25 Sep 2023 02:23:13.000,259.287,7.582,1888.227039
25 Sep 2023 02:24:13.000,245.859,8.933,1788.372503
25 Sep 2023 02:25:13.000,231.569,8.990,1783.734924
25 Sep 2023 02:26:13.000,217.999,7.733,1874.891919
25 Sep 2023 02:27:13.000,206.316,5.560,2048.623388
25 Sep 2023 02:28:13.000,196.845,2.951,2285.437343
25 Sep 2023 02:29:13.000,189.350,0.225,2566.998136
25 Sep 2023 02:29:17.967,188.805,0.000,2591.840754
25 Sep 2023 14:29:34.220,122.067,0.000,2550.888056
25 Sep 2023 14:30:32.960,112.383,0.000,2553.244487
25 Sep 2023 16:01:50.653,205.612,0.000,2545.328335
25 Sep 2023 16:02:50.000,202.893,3.849,2154.881764
25 Sep 2023 16:03:50.000,198.856,8.589,1768.949604
25 Sep 2023 16:04:50.000,192.392,14.732,1401.474622
25 Sep 2023 16:05:50.000,180.815,23.071,1073.909779
25 Sep 2023 16:06:50.000,157.856,33.130,836.701157
25 Sep 2023 16:07:50.000,119.627,36.716,778.734923
25 Sep 2023 16:08:50.000,87.780,28.491,934.235596
25 Sep 2023 16:09:50.000,71.323,18.957,1223.969091
25 Sep 2023 16:10:50.000,62.719,11.787,1574.726216
25 Sep 2023 16:11:50.000,57.666,6.413,1952.873865
25 Sep 2023 16:12:50.000,54.403,2.137,2344.020544
25 Sep 2023 16:13:24.558,53.012,0.000,2572.390877
25 Sep 2023 17:40:34.108,255.531,0.000,2555.253572
25 Sep 2023 17:41:34.000,260.213,3.583,2189.582911
25 Sep 2023 17:42:34.000,266.736,7.722,1841.977248
25 Sep 2023 17:43:34.000,276.251,12.528,1527.710150
25 Sep 2023 17:44:34.000,290.580,17.747,1273.279984
25 Sep 2023 17:45:34.000,311.276,21.860,1121.342896
25 Sep 2023 17:46:34.000,335.748,22.099,1115.114709
25 Sep 2023 17:47:34.000,356.953,18.278,1256.627259
25 Sep 2023 17:48:34.000,11.790,13.121,1504.174711
25 Sep 2023 17:49:34.000,21.655,8.298,1814.000560
25 Sep 2023 17:50:34.000,28.413,4.132,2158.406530
25 Sep 2023 17:51:34.000,33.277,0.523,2522.098316
25 Sep 2023 17:51:43.366,33.915,0.000,2580.001418
25 Sep 2023 19:21:55.504,303.366,0.000,2570.892281
25 Sep 2023 19:22:55.000,311.845,2.120,2347.686427
25 Sep 2023 19:23:55.000,321.955,3.927,2174.715954
25 Sep 2023 19:24:55.000,333.461,5.140,2067.885314
25 Sep 2023 19:25:55.000,345.764,5.510,2037.973824
25 Sep 2023 19:26:55.000,357.942,4.950,2088.319043
25 Sep 2023 19:27:55.000,9.131,3.597,2213.186042
25 Sep 2023 19:28:55.000,18.846,1.717,2400.462395
25 Sep 2023 19:29:43.060,25.504,0.000,2586.044041
25 Sep 2023 21:02:56.185,332.859,0.000,2583.668713
25 Sep 2023 21:03:56.000,341.864,1.713,2401.503105
25 Sep 2023 21:04:56.000,352.115,2.988,2275.496186
25 Sep 2023 21:05:56.000,3.231,3.621,2216.521217
25 Sep 2023 21:06:56.000,14.578,3.492,2230.141355
25 Sep 2023 21:07:56.000,25.434,2.628,2315.031973
25 Sep 2023 21:08:56.000,35.257,1.187,2463.539490
25 Sep 2023 21:09:36.225,41.129,0.000,2593.219881
25 Sep 2023 22:41:18.132,330.794,0.000,2589.597522
25 Sep 2023 22:42:18.000,337.374,3.016,2276.686482
25 Sep 2023 22:43:18.000,345.927,6.157,1996.280259
25 Sep 2023 22:44:18.000,357.044,9.195,1766.424587
25 Sep 2023 22:45:18.000,11.033,11.609,1610.082771
25 Sep 2023 22:46:18.000,27.180,12.633,1550.431339
25 Sep 2023 22:47:18.000,43.458,11.820,1598.653952
25 Sep 2023 22:48:18.000,57.742,9.535,1745.741256
25 Sep 2023 22:49:18.000,69.158,6.540,1969.241558
25 Sep 2023 22:50:18.000,77.941,3.398,2245.788262
25 Sep 2023 22:51:18.000,84.687,0.357,2557.381897
25 Sep 2023 22:51:25.251,85.393,0.000,2596.774376
26 Sep 2023 00:19:17.164,316.063,0.000,2593.587617
26 Sep 2023 00:20:17.000,316.661,3.978,2189.115701
26 Sep 2023 00:21:17.000,317.451,8.943,1785.967647
26 Sep 2023 00:22:17.000,318.625,15.715,1389.747924
26 Sep 2023 00:23:17.000,320.747,26.283,1011.221176
26 Sep 2023 00:24:17.000,326.433,45.982,683.336273
26 Sep 2023 00:25:17.000,29.204,79.015,516.585338
26 Sep 2023 00:26:17.000,122.314,49.526,650.524598
26 Sep 2023 00:27:17.000,129.063,28.042,967.127642
26 Sep 2023 00:28:17.000,131.359,16.745,1342.116488
26 Sep 2023 00:29:17.000,132.561,9.650,1737.097283
26 Sep 2023 00:30:17.000,133.327,4.519,2139.881747
26 Sep 2023 00:31:17.000,133.873,0.436,2545.522945
26 Sep 2023 00:31:24.091,133.928,0.000,2593.525686
26 Sep 2023 01:58:44.609,287.034,0.000,2596.500901
26 Sep 2023 01:59:44.000,279.789,2.689,2314.280510
26 Sep 2023 02:00:44.000,270.525,5.300,2072.999039
26 Sep 2023 02:01:44.000,259.058,7.498,1893.650918
26 Sep 2023 02:02:44.000,245.663,8.818,1795.570959
26 Sep 2023 02:03:44.000,231.440,8.855,1792.417686
26 Sep 2023 02:04:44.000,217.950,7.595,1884.531487
26 Sep 2023 02:05:44.000,206.333,5.433,2058.686986
26 Sep 2023 02:06:44.000,196.907,2.839,2295.545796
26 Sep 2023 02:07:44.000,189.438,0.129,2576.937392
26 Sep 2023 02:07:46.861,189.124,0.000,2591.208757
26 Sep 2023 14:07:51.651,124.144,0.000,2549.878965
26 Sep 2023 14:08:51.000,114.333,0.118,2539.041636
26 Sep 2023 14:09:14.779,110.422,0.000,2553.104223
26 Sep 2023 15:40:20.267,205.841,0.000,2544.986547
26 Sep 2023 15:41:20.000,203.137,3.880,2151.631199
26 Sep 2023 15:42:20.000,199.138,8.635,1765.226945
26 Sep 2023 15:43:20.000,192.722,14.810,1397.097577
26 Sep 2023 15:44:20.000,181.188,23.228,1068.645488
26 Sep 2023 15:45:20.000,158.132,33.449,830.555075
26 Sep 2023 15:46:20.000,119.433,37.080,772.833864
26 Sep 2023 15:47:20.000,87.392,28.655,929.939841
26 Sep 2023 15:48:20.000,71.010,19.010,1221.185354
26 Sep 2023 15:49:20.000,62.488,11.802,1572.961277
26 Sep 2023 15:50:20.000,57.494,6.414,1951.783199
26 Sep 2023 15:51:20.000,54.273,2.132,2343.397359
26 Sep 2023 15:51:54.447,52.905,0.000,2571.237962
26 Sep 2023 17:19:04.549,255.750,0.000,2554.612174
26 Sep 2023 17:20:04.000,260.420,3.549,2192.049655
26 Sep 2023 17:21:04.000,266.961,7.673,1844.925833
26 Sep 2023 17:22:04.000,276.491,12.452,1531.275017
26 Sep 2023 17:23:04.000,290.807,17.627,1277.558127
26 Sep 2023 17:24:04.000,311.424,21.692,1126.191904
26 Sep 2023 17:25:04.000,335.761,21.927,1119.975510
26 Sep 2023 17:26:04.000,356.880,18.152,1260.922610
26 Sep 2023 17:27:04.000,11.701,13.038,1507.743606
26 Sep 2023 17:28:04.000,21.580,8.243,1816.940020
26 Sep 2023 17:29:04.000,28.357,4.091,2160.857650
26 Sep 2023 17:30:04.000,33.238,0.492,2524.177636
26 Sep 2023 17:30:12.825,33.843,0.000,2578.681487
26 Sep 2023 19:00:26.415,303.589,0.000,2569.818456
26 Sep 2023 19:01:26.000,312.097,2.115,2347.038536
26 Sep 2023 19:02:26.000,322.222,3.911,2175.039532
26 Sep 2023 19:03:26.000,333.732,5.110,2069.308600
26 Sep 2023 19:04:26.000,346.025,5.466,2040.520685
26 Sep 2023 19:05:26.000,358.182,4.895,2091.881097
26 Sep 2023 19:06:26.000,9.342,3.537,2217.560464
26 Sep 2023 19:07:26.000,19.031,1.656,2405.424608
26 Sep 2023 19:08:12.443,25.462,0.000,2584.653263
26 Sep 2023 20:41:26.394,332.951,0.000,2582.320484
26 Sep 2023 20:42:26.000,341.927,1.709,2400.638208
26 Sep 2023 20:43:26.000,352.182,2.985,2274.401117
26 Sep 2023 20:44:26.000,3.304,3.620,2215.233428
26 Sep 2023 20:45:26.000,14.659,3.492,2228.723469
26 Sep 2023 20:46:26.000,25.524,2.629,2313.557823
26 Sep 2023 20:47:26.000,35.353,1.188,2462.076261
26 Sep 2023 20:48:06.236,41.230,0.000,2591.832341
26 Sep 2023 22:19:47.721,330.773,0.000,2588.186213
26 Sep 2023 22:20:47.000,337.269,2.991,2277.661171
26 Sep 2023 22:21:47.000,345.792,6.141,1996.198944
26 Sep 2023 22:22:47.000,356.884,9.197,1765.014317
26 Sep 2023 22:23:47.000,10.869,11.637,1607.127165
26 Sep 2023 22:24:47.000,27.049,12.691,1545.944636
26 Sep 2023 22:25:47.000,43.391,11.895,1592.978141
26 Sep 2023 22:26:47.000,57.741,9.610,1739.382326
26 Sep 2023 22:27:47.000,69.207,6.607,1962.624153
26 Sep 2023 22:28:47.000,78.020,3.455,2239.171824
26 Sep 2023 22:29:47.000,84.782,0.405,2550.898629
26 Sep 2023 22:29:55.221,85.581,0.000,2595.607109
26 Sep 2023 23:57:46.722,315.981,0.000,2592.195167
26 Sep 2023 23:58:46.000,316.541,3.939,2191.365225
26 Sep 2023 23:59:46.000,317.283,8.896,1788.035919
27 Sep 2023 00:00:46.000,318.378,15.655,1391.550701
27 Sep 2023 00:01:46.000,320.343,26.199,1012.569041
27 Sep 2023 00:02:46.000,325.584,45.882,683.730979
27 Sep 2023 00:03:46.000,26.535,79.678,515.087346
27 Sep 2023 00:04:46.000,123.262,49.782,647.810815
27 Sep 2023 00:05:46.000,129.586,28.128,964.336242
27 Sep 2023 00:06:46.000,131.729,16.785,1339.450858
27 Sep 2023 00:07:46.000,132.852,9.674,1734.564602
27 Sep 2023 00:08:46.000,133.570,4.536,2137.467730
27 Sep 2023 00:09:46.000,134.083,0.450,2543.214242
27 Sep 2023 00:09:53.306,134.136,0.000,2592.679252
27 Sep 2023 01:37:14.913,286.814,0.000,2595.248992
27 Sep 2023 01:38:14.000,279.572,2.662,2315.812319
27 Sep 2023 01:39:14.000,270.284,5.251,2076.103483
27 Sep 2023 01:40:14.000,258.812,7.420,1898.582376
27 Sep 2023 01:41:14.000,245.447,8.709,1802.387095
27 Sep 2023 01:42:14.000,231.288,8.724,1800.855307
27 Sep 2023 01:43:14.000,217.876,7.459,1894.072965
27 Sep 2023 01:44:14.000,206.327,5.306,2068.789286
27 Sep 2023 01:45:14.000,196.948,2.726,2305.807491
27 Sep 2023 01:46:14.000,189.507,0.031,2587.120106
27 Sep 2023 01:46:14.682,189.432,0.000,2590.515470
27 Sep 2023 13:46:11.195,125.694,0.000,2549.081879
27 Sep 2023 13:47:11.000,115.794,0.208,2528.262210
27 Sep 2023 13:47:52.297,108.984,0.000,2552.864796
27 Sep 2023 15:18:48.786,206.060,0.000,2544.710081
27 Sep 2023 15:19:48.000,203.418,3.846,2154.380127
27 Sep 2023 15:20:48.000,199.482,8.599,1767.348329
27 Sep 2023 15:21:48.000,193.164,14.778,1398.215799
27 Sep 2023 15:22:48.000,181.783,23.232,1068.061937
27 Sep 2023 15:23:48.000,158.877,33.617,827.174961
27 Sep 2023 15:24:48.000,119.848,37.489,766.387064
27 Sep 2023 15:25:48.000,87.358,28.969,922.281031
27 Sep 2023 15:26:48.000,70.877,19.186,1213.639955
27 Sep 2023 15:27:48.000,62.359,11.907,1565.805070
27 Sep 2023 15:28:48.000,57.387,6.485,1944.998810
27 Sep 2023 15:29:48.000,54.188,2.185,2336.927126
27 Sep 2023 15:30:23.230,52.803,0.000,2570.122844
27 Sep 2023 16:57:33.860,255.960,0.000,2554.027205
27 Sep 2023 16:58:33.000,260.628,3.524,2193.770999
27 Sep 2023 16:59:33.000,267.191,7.634,1847.154509
27 Sep 2023 17:00:33.000,276.740,12.389,1534.173910
27 Sep 2023 17:01:33.000,291.056,17.523,1281.280239
27 Sep 2023 17:02:33.000,311.608,21.537,1130.686137
27 Sep 2023 17:03:33.000,335.817,21.761,1124.761415
27 Sep 2023 17:04:33.000,356.844,18.022,1265.405513
27 Sep 2023 17:05:33.000,11.639,12.950,1511.681367
27 Sep 2023 17:06:33.000,21.523,8.181,1820.359199
27 Sep 2023 17:07:33.000,28.313,4.046,2163.855623
27 Sep 2023 17:08:33.000,33.209,0.456,2526.845506
27 Sep 2023 17:08:41.191,33.773,0.000,2577.386728
27 Sep 2023 18:38:56.176,303.803,0.000,2568.780901
27 Sep 2023 18:39:56.000,312.363,2.116,2345.904404
27 Sep 2023 18:40:56.000,322.505,3.899,2174.989112
27 Sep 2023 18:41:56.000,334.022,5.083,2070.497196
27 Sep 2023 18:42:56.000,346.308,5.423,2042.989390
27 Sep 2023 18:43:56.000,358.442,4.840,2095.521856
27 Sep 2023 18:44:56.000,9.572,3.475,2222.154558
27 Sep 2023 18:45:56.000,19.230,1.592,2410.722809
27 Sep 2023 18:46:40.727,25.420,0.000,2583.263479
27 Sep 2023 20:19:55.483,333.040,0.000,2580.987874
27 Sep 2023 20:20:55.000,342.007,1.707,2399.481535
27 Sep 2023 20:21:55.000,352.268,2.984,2273.144818
27 Sep 2023 20:22:55.000,3.397,3.619,2213.931293
27 Sep 2023 20:23:55.000,14.759,3.491,2227.441617
27 Sep 2023 20:24:55.000,25.630,2.627,2312.359010
27 Sep 2023 20:25:55.000,35.464,1.185,2461.006373
27 Sep 2023 20:26:35.112,41.326,0.000,2590.433238
27 Sep 2023 21:58:16.213,330.753,0.000,2586.776335
27 Sep 2023 21:59:16.000,337.302,3.023,2273.178437
27 Sep 2023 22:00:16.000,345.838,6.183,1991.433734
27 Sep 2023 22:01:16.000,356.957,9.249,1760.073386
27 Sep 2023 22:02:16.000,10.988,11.697,1602.250341
27 Sep 2023 22:03:16.000,27.224,12.748,1541.503441
27 Sep 2023 22:04:16.000,43.609,11.936,1589.330816
27 Sep 2023 22:05:16.000,57.975,9.632,1736.693528
27 Sep 2023 22:06:16.000,69.435,6.614,1960.854778
27 Sep 2023 22:07:16.000,78.234,3.452,2238.187604
27 Sep 2023 22:08:16.000,84.980,0.397,2550.554735
27 Sep 2023 22:08:24.050,85.761,0.000,2594.402752
27 Sep 2023 23:36:15.183,315.901,0.000,2590.789302
27 Sep 2023 23:37:15.000,316.437,3.980,2186.198361
27 Sep 2023 23:38:15.000,317.137,8.953,1782.769788
27 Sep 2023 23:39:15.000,318.165,15.743,1386.223066
27 Sep 2023 23:40:15.000,320.005,26.365,1007.311175
27 Sep 2023 23:41:15.000,324.941,46.281,679.117194
27 Sep 2023 23:42:15.000,28.677,80.579,513.314708
27 Sep 2023 23:43:15.000,124.398,49.466,649.931459
27 Sep 2023 23:44:15.000,130.143,27.937,968.172359
27 Sep 2023 23:45:15.000,132.109,16.665,1343.973390
27 Sep 2023 23:46:15.000,133.146,9.589,1739.427562
27 Sep 2023 23:47:15.000,133.813,4.469,2142.528682
27 Sep 2023 23:48:15.000,134.292,0.394,2548.401155
27 Sep 2023 23:48:21.405,134.336,0.000,2591.779922
28 Sep 2023 01:15:44.096,286.600,0.000,2593.967821
28 Sep 2023 01:16:44.000,279.208,2.684,2312.348612
28 Sep 2023 01:17:44.000,269.858,5.248,2075.149127
28 Sep 2023 01:18:44.000,258.342,7.377,1900.740721
28 Sep 2023 01:19:44.000,244.977,8.616,1808.037163
28 Sep 2023 01:20:44.000,230.879,8.584,1809.877789
28 Sep 2023 01:21:44.000,217.569,7.294,1905.830752
28 Sep 2023 01:22:44.000,206.124,5.138,2082.434250
28 Sep 2023 01:23:44.000,196.829,2.568,2320.595335
28 Sep 2023 01:24:41.433,189.730,0.000,2589.762232
28 Sep 2023 13:24:31.328,126.966,0.000,2548.433840
28 Sep 2023 13:25:31.000,117.083,0.283,2519.292957
28 Sep 2023 13:26:27.044,107.820,0.000,2552.605944
28 Sep 2023 14:57:16.208,206.270,0.000,2544.498569
28 Sep 2023 14:58:16.000,203.630,3.890,2150.047258
28 Sep 2023 14:59:16.000,199.724,8.660,1762.638245
28 Sep 2023 15:00:16.000,193.440,14.876,1393.010582
28 Sep 2023 15:01:16.000,182.075,23.411,1062.258106
28 Sep 2023 15:02:16.000,159.027,33.949,821.023831
28 Sep 2023 15:03:16.000,119.519,37.819,761.242798
28 Sep 2023 15:04:16.000,86.911,29.082,919.277133
28 Sep 2023 15:05:16.000,70.545,19.203,1212.334997
28 Sep 2023 15:06:16.000,62.124,11.898,1565.559686
28 Sep 2023 15:07:16.000,57.216,6.468,1945.423438
28 Sep 2023 15:08:16.000,54.060,2.167,2337.801291
28 Sep 2023 15:08:50.906,52.705,0.000,2569.048160
28 Sep 2023 16:36:02.039,256.160,0.000,2553.498590
28 Sep 2023 16:37:02.000,260.930,3.570,2188.787955
28 Sep 2023 16:38:02.000,267.557,7.679,1843.124611
28 Sep 2023 16:39:02.000,277.195,12.422,1531.616501
28 Sep 2023 16:40:02.000,291.615,17.515,1280.979479
28 Sep 2023 16:41:02.000,312.215,21.436,1133.474324
